$GPGGA,205601.00,3844.2912,N,00908.3436,W,1,00,0.0,150.001663,M,0.0,M,,*78
$GPGLL,3844.2912,N,00908.3436,W,205601.00,A,*3A
$GPGSA,A,3,,,,,,,,,,,,,0.0,0.0,0.0*32
$GPRMC,205609.00,A,3844.2913,N,00908.3435,W,0.100165,46.944314,130617,,*17
$GPGGA,205609.00,3844.2913,N,00908.3435,W,1,00,0.0,151.846054,M,0.0,M,,*7A
$GPGLL,3844.2913,N,00908.3435,W,205609.00,A,*30
$GPGSA,A,3,,,,,,,,,,,,,0.0,0.0,0.0*32
$GPRMC,205610.00,A,3844.2913,N,00908.3435,W,0.658699,178.531838,130617,,*26
$GPGGA,205610.00,3844.2913,N,00908.3435,W,1,00,0.0,151.846481,M,0.0,M,,*7E
$GPGLL,3844.2913,N,00908.3435,W,205610.00,A,*38
$GPGSA,A,3,,,,,,,,,,,,,0.0,0.0,0.0*32
$GPRMC,205611.00,A,3844.2912,N,00908.3436,W,0.234413,250.371422,130617,,*27
$GPGGA,205611.00,3844.2912,N,00908.3436,W,1,00,0.0,151.918259,M,0.0,M,,*74
$GPGLL,3844.2912,N,00908.3436,W,205611.00,A,*3B
$GPGSA,A,3,,,,,,,,,,,,,0.0,0.0,0.0*32
$GPRMC,205612.00,A,3844.2912,N,00908.3437,W,0.139032,241.298157,130617,,*2D
$GPGGA,205612.00,3844.2912,N,00908.3437,W,1,00,0.0,152.005661,M,0.0,M,,*7F
$GPGLL,3844.2912,N,00908.3437,W,205612.00,A,*39
$GPGSA,A,3,,,,,,,,,,,,,0.0,0.0,0.0*32
$GPRMC,205613.00,A,3844.2911,N,00908.3438,W,0.087617,238.323411,130617,,*2D
$GPGGA,205613.00,3844.2911,N,00908.3438,W,1,00,0.0,152.033646,M,0.0,M,,*72
$GPGLL,3844.2911,N,00908.3438,W,205613.00,A,*34
$GPGSA,A,3,,,,,,,,,,,,,0.0,0.0,0.0*32
$GPRMC,205614.00,A,3844.2910,N,00908.3433,W,0.669681,104.831311,130617,,*2A
$GPGGA,205614.00,3844.2910,N,00908.3433,W,1,00,0.0,152.219742,M,0.0,M,,*70
$GPGLL,3844.2910,N,00908.3433,W,205614.00,A,*39
$GPGSA,A,3,,,,,,,,,,,,,0.0,0.0,0.0*32
$GPRMC,205615.00,A,3844.2911,N,00908.3430,W,0.828708,65.488861,130617,,*16
$GPGGA,205615.00,3844.2911,N,00908.3430,W,1,00,0.0,152.234421,M,0.0,M,,*7A
$GPGLL,3844.2911,N,00908.3430,W,205615.00,A,*3A
$GPGSA,A,3,,,,,,,,,,,,,0.0,0.0,0.0*32
$GPRMC,205616.00,A,3844.2912,N,00908.3426,W,0.959482,83.650642,130617,,*17
$GPGGA,205616.00,3844.2912,N,00908.3426,W,1,00,0.0,152.266205,M,0.0,M,,*7A
$GPGLL,3844.2912,N,00908.3426,W,205616.00,A,*3D
$GPGSA,A,3,,,,,,,,,,,,,0.0,0.0,0.0*32
$GPRMC,205617.00,A,3844.2911,N,00908.3422,W,0.784462,112.159586,130617,,*2D
$GPGGA,205617.00,3844.2911,N,00908.3422,W,1,00,0.0,152.365509,M,0.0,M,,*75
$GPGLL,3844.2911,N,00908.3422,W,205617.00,A,*3B
$GPGSA,A,3,,,,,,,,,,,,,0.0,0.0,0.0*32
$GPRMC,205618.00,A,3844.2911,N,00908.3418,W,0.908255,94.936568,130617,,*1D
$GPGGA,205618.00,3844.2911,N,00908.3418,W,1,00,0.0,152.425964,M,0.0,M,,*77
$GPGLL,3844.2911,N,00908.3418,W,205618.00,A,*3D
$GPGSA,A,3,,,,,,,,,,,,,0.0,0.0,0.0*32
$GPRMC,205619.00,A,3844.2908,N,00908.3412,W,1.108651,113.689702,130617,,*2C
$GPGGA,205619.00,3844.2908,N,00908.3412,W,1,00,0.0,152.482697,M,0.0,M,,*7A
$GPGLL,3844.2908,N,00908.3412,W,205619.00,A,*3E
$GPGSA,A,3,,,,,,,,,,,,,0.0,0.0,0.0*32
$GPRMC,205620.00,A,3844.2907,N,00908.3407,W,1.217729,103.304701,130617,,*2C
$GPGGA,205620.00,3844.2907,N,00908.3407,W,1,00,0.0,152.533508,M,0.0,M,,*75
$GPGLL,3844.2907,N,00908.3407,W,205620.00,A,*3F
$GPGSA,A,3,,,,,,,,,,,,,0.0,0.0,0.0*32
$GPRMC,205621.00,A,3844.2909,N,00908.3405,W,1.021846,41.687087,130617,,*10
$GPGGA,205621.00,3844.2909,N,00908.3405,W,1,00,0.0,152.534805,M,0.0,M,,*7F
$GPGLL,3844.2909,N,00908.3405,W,205621.00,A,*32
$GPGSA,A,3,,,,,,,,,,,,,0.0,0.0,0.0*32
$GPRMC,205622.00,A,3844.2909,N,00908.3400,W,1.226574,86.910036,130617,,*1F
$GPGGA,205622.00,3844.2909,N,00908.3400,W,1,00,0.0,152.571732,M,0.0,M,,*73
$GPGLL,3844.2909,N,00908.3400,W,205622.00,A,*34
$GPGSA,A,3,,,,,,,,,,,,,0.0,0.0,0.0*32
$GPRMC,205623.00,A,3844.2909,N,00908.3397,W,1.106226,85.576708,130617,,*13
$GPGGA,205623.00,3844.2909,N,00908.3397,W,1,00,0.0,152.535355,M,0.0,M,,*7E
$GPGLL,3844.2909,N,00908.3397,W,205623.00,A,*3C
$GPGSA,A,3,,,,,,,,,,,,,0.0,0.0,0.0*32
$GPRMC,205624.00,A,3844.2908,N,00908.3393,W,1.129662,101.081246,130617,,*27
$GPGGA,205624.00,3844.2908,N,00908.3393,W,1,00,0.0,152.605179,M,0.0,M,,*70
$GPGLL,3844.2908,N,00908.3393,W,205624.00,A,*3E
$GPGSA,A,3,,,,,,,,,,,,,0.0,0.0,0.0*32
$GPRMC,205625.00,A,3844.2912,N,00908.3385,W,1.287404,56.448199,130617,,*1C
$GPGGA,205625.00,3844.2912,N,00908.3385,W,1,00,0.0,152.672195,M,0.0,M,,*7F
$GPGLL,3844.2912,N,00908.3385,W,205625.00,A,*33
$GPGSA,A,3,,,,,,,,,,,,,0.0,0.0,0.0*32
$GPRMC,205626.00,A,3844.2915,N,00908.3380,W,1.280723,60.095171,130617,,*1B
$GPGGA,205626.00,3844.2915,N,00908.3380,W,1,00,0.0,152.723053,M,0.0,M,,*70
$GPGLL,3844.2915,N,00908.3380,W,205626.00,A,*32
$GPGSA,A,3,,,,,,,,,,,,,0.0,0.0,0.0*32
$GPRMC,205627.00,A,3844.2917,N,00908.3376,W,1.217585,50.826025,130617,,*12
$GPGGA,205627.00,3844.2917,N,00908.3376,W,1,00,0.0,152.752670,M,0.0,M,,*7B
$GPGLL,3844.2917,N,00908.3376,W,205627.00,A,*38
$GPGSA,A,3,,,,,,,,,,,,,0.0,0.0,0.0*32
$GPRMC,205628.00,A,3844.2922,N,00908.3369,W,1.322807,53.284271,130617,,*17
$GPGGA,205628.00,3844.2922,N,00908.3369,W,1,00,0.0,152.792755,M,0.0,M,,*76
$GPGLL,3844.2922,N,00908.3369,W,205628.00,A,*3F
$GPGSA,A,3,,,,,,,,,,,,,0.0,0.0,0.0*32
$GPRMC,205629.00,A,3844.2921,N,00908.3366,W,1.028382,117.068163,130617,,*24
$GPGGA,205629.00,3844.2921,N,00908.3366,W,1,00,0.0,152.831741,M,0.0,M,,*78
$GPGLL,3844.2921,N,00908.3366,W,205629.00,A,*32
$GPGSA,A,3,,,,,,,,,,,,,0.0,0.0,0.0*32
$GPRMC,205630.00,A,3844.2927,N,00908.3367,W,0.990419,354.413507,130617,,*2E
$GPGGA,205630.00,3844.2927,N,00908.3367,W,1,00,0.0,152.886978,M,0.0,M,,*7F
$GPGLL,3844.2927,N,00908.3367,W,205630.00,A,*3D
$GPGSA,A,3,,,,,,,,,,,,,0.0,0.0,0.0*32
$GPRMC,205631.00,A,3844.2930,N,00908.3365,W,0.947728,34.697664,130617,,*1D
$GPGGA,205631.00,3844.2930,N,00908.3365,W,1,00,0.0,152.920303,M,0.0,M,,*71
$GPGLL,3844.2930,N,00908.3365,W,205631.00,A,*38
$GPGSA,A,3,,,,,,,,,,,,,0.0,0.0,0.0*32
$GPRMC,205632.00,A,3844.2925,N,00908.3375,W,1.431291,237.920956,130617,,*2D
$GPGGA,205632.00,3844.2925,N,00908.3375,W,1,00,0.0,152.623093,M,0.0,M,,*71
$GPGLL,3844.2925,N,00908.3375,W,205632.00,A,*3E
$GPGSA,A,3,,,,,,,,,,,,,0.0,0.0,0.0*32
$GPRMC,205633.00,A,3844.2921,N,00908.3379,W,1.537812,216.262124,130617,,*21
$GPGGA,205633.00,3844.2921,N,00908.3379,W,1,00,0.0,152.381226,M,0.0,M,,*79
$GPGLL,3844.2921,N,00908.3379,W,205633.00,A,*37
$GPGSA,A,3,,,,,,,,,,,,,0.0,0.0,0.0*32
$GPRMC,205634.00,A,3844.2927,N,00908.3374,W,1.575730,33.592121,130617,,*1C
$GPGGA,205634.00,3844.2927,N,00908.3374,W,1,00,0.0,152.469833,M,0.0,M,,*7A
$GPGLL,3844.2927,N,00908.3374,W,205634.00,A,*3B
$GPGSA,A,3,,,,,,,,,,,,,0.0,0.0,0.0*32
$GPRMC,205635.00,A,3844.2925,N,00908.3371,W,1.282868,140.906004,130617,,*25
$GPGGA,205635.00,3844.2925,N,00908.3371,W,1,00,0.0,152.414810,M,0.0,M,,*77
$GPGLL,3844.2925,N,00908.3371,W,205635.00,A,*3D
$GPGSA,A,3,,,,,,,,,,,,,0.0,0.0,0.0*32
$GPRMC,205636.00,A,3844.2930,N,00908.3368,W,1.307552,24.770900,130617,,*13
$GPGGA,205636.00,3844.2930,N,00908.3368,W,1,00,0.0,152.326004,M,0.0,M,,*73
$GPGLL,3844.2930,N,00908.3368,W,205636.00,A,*32
$GPGSA,A,3,,,,,,,,,,,,,0.0,0.0,0.0*32
$GPRMC,205637.00,A,3844.2934,N,00908.3366,W,1.246745,22.315480,130617,,*1C
$GPGGA,205637.00,3844.2934,N,00908.3366,W,1,00,0.0,152.214645,M,0.0,M,,*7B
$GPGLL,3844.2934,N,00908.3366,W,205637.00,A,*39
$GPGSA,A,3,,,,,,,,,,,,,0.0,0.0,0.0*32
$GPRMC,205638.00,A,3844.2941,N,00908.3360,W,1.252658,32.440366,130617,,*16
$GPGGA,205638.00,3844.2941,N,00908.3360,W,1,00,0.0,152.117859,M,0.0,M,,*73
$GPGLL,3844.2941,N,00908.3360,W,205638.00,A,*32
$GPGSA,A,3,,,,,,,,,,,,,0.0,0.0,0.0*32
$GPRMC,205639.00,A,3844.2946,N,00908.3357,W,1.242391,26.272584,130617,,*1D
$GPGGA,205639.00,3844.2946,N,00908.3357,W,1,00,0.0,151.882309,M,0.0,M,,*79
$GPGLL,3844.2946,N,00908.3357,W,205639.00,A,*30
$GPGSA,A,3,,,,,,,,,,,,,0.0,0.0,0.0*32
$GPRMC,205640.00,A,3844.2951,N,00908.3355,W,1.202150,23.873633,130617,,*1D
$GPGGA,205640.00,3844.2951,N,00908.3355,W,1,00,0.0,151.753555,M,0.0,M,,*7F
$GPGLL,3844.2951,N,00908.3355,W,205640.00,A,*3A
$GPGSA,A,3,,,,,,,,,,,,,0.0,0.0,0.0*32
$GPRMC,205641.00,A,3844.2946,N,00908.3346,W,1.115622,121.839650,130617,,*27
$GPGGA,205641.00,3844.2946,N,00908.3346,W,1,00,0.0,151.622742,M,0.0,M,,*79
$GPGLL,3844.2946,N,00908.3346,W,205641.00,A,*3F
$GPGSA,A,3,,,,,,,,,,,,,0.0,0.0,0.0*32
$GPRMC,205642.00,A,3844.2948,N,00908.3341,W,1.218588,61.325809,130617,,*11
$GPGGA,205642.00,3844.2948,N,00908.3341,W,1,00,0.0,151.593048,M,0.0,M,,*77
$GPGLL,3844.2948,N,00908.3341,W,205642.00,A,*35
$GPGSA,A,3,,,,,,,,,,,,,0.0,0.0,0.0*32
$GPRMC,205643.00,A,3844.2953,N,00908.3339,W,1.256191,22.561245,130617,,*10
$GPGGA,205643.00,3844.2953,N,00908.3339,W,1,00,0.0,151.509430,M,0.0,M,,*7B
$GPGLL,3844.2953,N,00908.3339,W,205643.00,A,*31
$GPGSA,A,3,,,,,,,,,,,,,0.0,0.0,0.0*32
$GPRMC,205644.00,A,3844.2956,N,00908.3337,W,1.182303,32.960977,130617,,*19
$GPGGA,205644.00,3844.2956,N,00908.3337,W,1,00,0.0,151.451355,M,0.0,M,,*7F
$GPGLL,3844.2956,N,00908.3337,W,205644.00,A,*3D
$GPGSA,A,3,,,,,,,,,,,,,0.0,0.0,0.0*32
$GPRMC,205645.00,A,3844.2958,N,00908.3333,W,1.170672,55.711394,130617,,*12
$GPGGA,205645.00,3844.2958,N,00908.3333,W,1,00,0.0,151.451202,M,0.0,M,,*77
$GPGLL,3844.2958,N,00908.3333,W,205645.00,A,*36
$GPGSA,A,3,,,,,,,,,,,,,0.0,0.0,0.0*32
$GPRMC,205646.00,A,3844.2956,N,00908.3327,W,1.111068,107.186813,130617,,*2A
$GPGGA,205646.00,3844.2956,N,00908.3327,W,1,00,0.0,151.416077,M,0.0,M,,*7C
$GPGLL,3844.2956,N,00908.3327,W,205646.00,A,*3E
$GPGSA,A,3,,,,,,,,,,,,,0.0,0.0,0.0*32
$GPRMC,205647.00,A,3844.2955,N,00908.3323,W,1.003084,107.703629,130617,,*20
$GPGGA,205647.00,3844.2955,N,00908.3323,W,1,00,0.0,151.446213,M,0.0,M,,*7F
$GPGLL,3844.2955,N,00908.3323,W,205647.00,A,*38
$GPGSA,A,3,,,,,,,,,,,,,0.0,0.0,0.0*32
$GPRMC,205648.00,A,3844.2957,N,00908.3321,W,0.933385,48.542805,130617,,*1B
$GPGGA,205648.00,3844.2957,N,00908.3321,W,1,00,0.0,151.417877,M,0.0,M,,*7C
$GPGLL,3844.2957,N,00908.3321,W,205648.00,A,*37
$GPGSA,A,3,,,,,,,,,,,,,0.0,0.0,0.0*32
$GPRMC,205649.00,A,3844.2956,N,00908.3307,W,1.225554,94.450893,130617,,*14
$GPGGA,205649.00,3844.2956,N,00908.3307,W,1,00,0.0,151.689926,M,0.0,M,,*78
$GPGLL,3844.2956,N,00908.3307,W,205649.00,A,*33
$GPGSA,A,3,,,,,,,,,,,,,0.0,0.0,0.0*32
$GPRMC,205650.00,A,3844.2956,N,00908.3302,W,1.284641,98.375380,130617,,*10
$GPGGA,205650.00,3844.2956,N,00908.3302,W,1,00,0.0,151.728928,M,0.0,M,,*71
$GPGLL,3844.2956,N,00908.3302,W,205650.00,A,*3E
$GPGSA,A,3,,,,,,,,,,,,,0.0,0.0,0.0*32
$GPRMC,205651.00,A,3844.2957,N,00908.3296,W,1.421387,79.843991,130617,,*11
$GPGGA,205651.00,3844.2957,N,00908.3296,W,1,00,0.0,151.811066,M,0.0,M,,*7B
$GPGLL,3844.2957,N,00908.3296,W,205651.00,A,*32
$GPGSA,A,3,,,,,,,,,,,,,0.0,0.0,0.0*32
$GPRMC,205652.00,A,3844.2959,N,00908.3291,W,1.423619,60.643151,130617,,*19
$GPGGA,205652.00,3844.2959,N,00908.3291,W,1,00,0.0,151.944168,M,0.0,M,,*7F
$GPGLL,3844.2959,N,00908.3291,W,205652.00,A,*38
$GPGSA,A,3,,,,,,,,,,,,,0.0,0.0,0.0*32
$GPRMC,205653.00,A,3844.2960,N,00908.3286,W,1.431766,75.023286,130617,,*13
$GPGGA,205653.00,3844.2960,N,00908.3286,W,1,00,0.0,152.035477,M,0.0,M,,*75
$GPGLL,3844.2960,N,00908.3286,W,205653.00,A,*35
$GPGSA,A,3,,,,,,,,,,,,,0.0,0.0,0.0*32
$GPRMC,205654.00,A,3844.2964,N,00908.3281,W,1.399206,41.899851,130617,,*1F
$GPGGA,205654.00,3844.2964,N,00908.3281,W,1,00,0.0,152.194946,M,0.0,M,,*74
$GPGLL,3844.2964,N,00908.3281,W,205654.00,A,*31
$GPGSA,A,3,,,,,,,,,,,,,0.0,0.0,0.0*32
$GPRMC,205655.00,A,3844.2964,N,00908.3273,W,1.554977,90.062496,130617,,*1E
$GPGGA,205655.00,3844.2964,N,00908.3273,W,1,00,0.0,152.347672,M,0.0,M,,*7C
$GPGLL,3844.2964,N,00908.3273,W,205655.00,A,*3D
$GPGSA,A,3,,,,,,,,,,,,,0.0,0.0,0.0*32
$GPRMC,205656.00,A,3844.2964,N,00908.3266,W,1.615257,89.795316,130617,,*1E
$GPGGA,205656.00,3844.2964,N,00908.3266,W,1,00,0.0,152.466263,M,0.0,M,,*7B
$GPGLL,3844.2964,N,00908.3266,W,205656.00,A,*3A
$GPGSA,A,3,,,,,,,,,,,,,0.0,0.0,0.0*32
$GPRMC,205657.00,A,3844.2964,N,00908.3261,W,1.587501,81.463393,130617,,*1B
$GPGGA,205657.00,3844.2964,N,00908.3261,W,1,00,0.0,152.579010,M,0.0,M,,*74
$GPGLL,3844.2964,N,00908.3261,W,205657.00,A,*3C
$GPGSA,A,3,,,,,,,,,,,,,0.0,0.0,0.0*32
$GPRMC,205658.00,A,3844.2964,N,00908.3258,W,1.387267,100.354479,130617,,*27
$GPGGA,205658.00,3844.2964,N,00908.3258,W,1,00,0.0,152.687653,M,0.0,M,,*72
$GPGLL,3844.2964,N,00908.3258,W,205658.00,A,*39
$GPGSA,A,3,,,,,,,,,,,,,0.0,0.0,0.0*32
$GPRMC,205659.00,A,3844.2966,N,00908.3251,W,1.408949,65.121041,130617,,*17
$GPGGA,205659.00,3844.2966,N,00908.3251,W,1,00,0.0,152.827713,M,0.0,M,,*79
$GPGLL,3844.2966,N,00908.3251,W,205659.00,A,*33
$GPGSA,A,3,,,,,,,,,,,,,0.0,0.0,0.0*32
$GPRMC,205700.00,A,3844.2967,N,00908.3240,W,1.632248,86.780273,130617,,*19
$GPGGA,205700.00,3844.2967,N,00908.3240,W,1,00,0.0,153.002243,M,0.0,M,,*7B
$GPGLL,3844.2967,N,00908.3240,W,205700.00,A,*3F
$GPGSA,A,3,,,,,,,,,,,,,0.0,0.0,0.0*32
$GPRMC,205701.00,A,3844.2970,N,00908.3236,W,1.383731,40.915160,130617,,*12
$GPGGA,205701.00,3844.2970,N,00908.3236,W,1,00,0.0,153.135101,M,0.0,M,,*7D
$GPGLL,3844.2970,N,00908.3236,W,205701.00,A,*39
$GPGSA,A,3,,,,,,,,,,,,,0.0,0.0,0.0*32
$GPRMC,205702.00,A,3844.2972,N,00908.3233,W,1.218403,54.342974,130617,,*17
$GPGGA,205702.00,3844.2972,N,00908.3233,W,1,00,0.0,153.269608,M,0.0,M,,*7D
$GPGLL,3844.2972,N,00908.3233,W,205702.00,A,*3D
$GPGSA,A,3,,,,,,,,,,,,,0.0,0.0,0.0*32
$GPRMC,205703.00,A,3844.2976,N,00908.3227,W,1.378005,48.685617,130617,,*1B
$GPGGA,205703.00,3844.2976,N,00908.3227,W,1,00,0.0,153.313431,M,0.0,M,,*79
$GPGLL,3844.2976,N,00908.3227,W,205703.00,A,*3D
$GPGSA,A,3,,,,,,,,,,,,,0.0,0.0,0.0*32
$GPRMC,205704.00,A,3844.2981,N,00908.3223,W,1.473778,34.060578,130617,,*1D
$GPGGA,205704.00,3844.2981,N,00908.3223,W,1,00,0.0,153.379822,M,0.0,M,,*70
$GPGLL,3844.2981,N,00908.3223,W,205704.00,A,*36
$GPGSA,A,3,,,,,,,,,,,,,0.0,0.0,0.0*32
$GPRMC,205705.00,A,3844.2987,N,00908.3214,W,1.657942,48.979083,130617,,*16
$GPGGA,205705.00,3844.2987,N,00908.3214,W,1,00,0.0,153.412857,M,0.0,M,,*7B
$GPGLL,3844.2987,N,00908.3214,W,205705.00,A,*35
$GPGSA,A,3,,,,,,,,,,,,,0.0,0.0,0.0*32
$GPRMC,205706.00,A,3844.2990,N,00908.3206,W,1.746126,66.204632,130617,,*1A
$GPGGA,205706.00,3844.2990,N,00908.3206,W,1,00,0.0,153.486603,M,0.0,M,,*7F
$GPGLL,3844.2990,N,00908.3206,W,205706.00,A,*33
$GPGSA,A,3,,,,,,,,,,,,,0.0,0.0,0.0*32
$GPRMC,205707.00,A,3844.2993,N,00908.3203,W,1.596201,27.902779,130617,,*12
$GPGGA,205707.00,3844.2993,N,00908.3203,W,1,00,0.0,153.575577,M,0.0,M,,*75
$GPGLL,3844.2993,N,00908.3203,W,205707.00,A,*34
$GPGSA,A,3,,,,,,,,,,,,,0.0,0.0,0.0*32
$GPRMC,205708.00,A,3844.2998,N,00908.3199,W,1.724308,39.518270,130617,,*11
$GPGGA,205708.00,3844.2998,N,00908.3199,W,1,00,0.0,153.697479,M,0.0,M,,*71
$GPGLL,3844.2998,N,00908.3199,W,205708.00,A,*30
$GPGSA,A,3,,,,,,,,,,,,,0.0,0.0,0.0*32
$GPRMC,205709.00,A,3844.3000,N,00908.3193,W,1.563259,61.807238,130617,,*15
$GPGGA,205709.00,3844.3000,N,00908.3193,W,1,00,0.0,153.820648,M,0.0,M,,*71
$GPGLL,3844.3000,N,00908.3193,W,205709.00,A,*32
$GPGSA,A,3,,,,,,,,,,,,,0.0,0.0,0.0*32
$GPRMC,205710.00,A,3844.3002,N,00908.3189,W,1.248902,59.693463,130617,,*1F
$GPGGA,205710.00,3844.3002,N,00908.3189,W,1,00,0.0,153.965103,M,0.0,M,,*78
$GPGLL,3844.3002,N,00908.3189,W,205710.00,A,*33
$GPGSA,A,3,,,,,,,,,,,,,0.0,0.0,0.0*32
$GPRMC,205711.00,A,3844.3006,N,00908.3181,W,1.487432,58.784790,130617,,*10
$GPGGA,205711.00,3844.3006,N,00908.3181,W,1,00,0.0,154.044449,M,0.0,M,,*73
$GPGLL,3844.3006,N,00908.3181,W,205711.00,A,*3E
$GPGSA,A,3,,,,,,,,,,,,,0.0,0.0,0.0*32
$GPRMC,205712.00,A,3844.3011,N,00908.3175,W,1.653777,45.149849,130617,,*17
$GPGGA,205712.00,3844.3011,N,00908.3175,W,1,00,0.0,154.056778,M,0.0,M,,*7F
$GPGLL,3844.3011,N,00908.3175,W,205712.00,A,*30
$GPGSA,A,3,,,,,,,,,,,,,0.0,0.0,0.0*32
$GPRMC,205713.00,A,3844.3012,N,00908.3170,W,1.249945,64.543697,130617,,*10
$GPGGA,205713.00,3844.3012,N,00908.3170,W,1,00,0.0,154.004364,M,0.0,M,,*76
$GPGLL,3844.3012,N,00908.3170,W,205713.00,A,*37
$GPGSA,A,3,,,,,,,,,,,,,0.0,0.0,0.0*32
$GPRMC,205714.00,A,3844.3021,N,00908.3167,W,1.480465,16.551969,130617,,*15
$GPGGA,205714.00,3844.3021,N,00908.3167,W,1,00,0.0,153.934265,M,0.0,M,,*7A
$GPGLL,3844.3021,N,00908.3167,W,205714.00,A,*36
$GPGSA,A,3,,,,,,,,,,,,,0.0,0.0,0.0*32
$GPRMC,205715.00,A,3844.3027,N,00908.3165,W,1.388425,13.413469,130617,,*14
$GPGGA,205715.00,3844.3027,N,00908.3165,W,1,00,0.0,153.893494,M,0.0,M,,*7B
$GPGLL,3844.3027,N,00908.3165,W,205715.00,A,*33
$GPGSA,A,3,,,,,,,,,,,,,0.0,0.0,0.0*32
$GPRMC,205716.00,A,3844.3036,N,00908.3166,W,1.387557,358.638296,130617,,*2E
$GPGGA,205716.00,3844.3036,N,00908.3166,W,1,00,0.0,153.949539,M,0.0,M,,*7B
$GPGLL,3844.3036,N,00908.3166,W,205716.00,A,*33
$GPGSA,A,3,,,,,,,,,,,,,0.0,0.0,0.0*32
$GPRMC,205717.00,A,3844.3045,N,00908.3169,W,1.518444,341.707389,130617,,*2D
$GPGGA,205717.00,3844.3045,N,00908.3169,W,1,00,0.0,153.944107,M,0.0,M,,*75
$GPGLL,3844.3045,N,00908.3169,W,205717.00,A,*39
$GPGSA,A,3,,,,,,,,,,,,,0.0,0.0,0.0*32
$GPRMC,205718.00,A,3844.3053,N,00908.3172,W,1.523340,347.418627,130617,,*2E
$GPGGA,205718.00,3844.3053,N,00908.3172,W,1,00,0.0,153.859924,M,0.0,M,,*73
$GPGLL,3844.3053,N,00908.3172,W,205718.00,A,*3B
$GPGSA,A,3,,,,,,,,,,,,,0.0,0.0,0.0*32
$GPRMC,205719.00,A,3844.3063,N,00908.3171,W,1.572944,3.672541,130617,,*2B
$GPGGA,205719.00,3844.3063,N,00908.3171,W,1,00,0.0,153.754593,M,0.0,M,,*70
$GPGLL,3844.3063,N,00908.3171,W,205719.00,A,*3A
$GPGSA,A,3,,,,,,,,,,,,,0.0,0.0,0.0*32
$GPRMC,205720.00,A,3844.3072,N,00908.3176,W,1.616065,338.189527,130617,,*25
$GPGGA,205720.00,3844.3072,N,00908.3176,W,1,00,0.0,153.790390,M,0.0,M,,*70
$GPGLL,3844.3072,N,00908.3176,W,205720.00,A,*37
$GPGSA,A,3,,,,,,,,,,,,,0.0,0.0,0.0*32
$GPRMC,205721.00,A,3844.3078,N,00908.3177,W,1.497760,349.843802,130617,,*25
$GPGGA,205721.00,3844.3078,N,00908.3177,W,1,00,0.0,153.871948,M,0.0,M,,*75
$GPGLL,3844.3078,N,00908.3177,W,205721.00,A,*3D
$GPGSA,A,3,,,,,,,,,,,,,0.0,0.0,0.0*32
$GPRMC,205722.00,A,3844.3085,N,00908.3185,W,1.352719,316.999780,130617,,*20
$GPGGA,205722.00,3844.3085,N,00908.3185,W,1,00,0.0,153.919403,M,0.0,M,,*74
$GPGLL,3844.3085,N,00908.3185,W,205722.00,A,*31
$GPGSA,A,3,,,,,,,,,,,,,0.0,0.0,0.0*32
$GPRMC,205723.00,A,3844.3096,N,00908.3199,W,1.336116,316.243086,130617,,*28
$GPGGA,205723.00,3844.3096,N,00908.3199,W,1,00,0.0,153.931564,M,0.0,M,,*70
$GPGLL,3844.3096,N,00908.3199,W,205723.00,A,*3F
$GPGSA,A,3,,,,,,,,,,,,,0.0,0.0,0.0*32
$GPRMC,205724.00,A,3844.3100,N,00908.3200,W,1.158886,343.947580,130617,,*24
$GPGGA,205724.00,3844.3100,N,00908.3200,W,1,00,0.0,153.961121,M,0.0,M,,*7A
$GPGLL,3844.3100,N,00908.3200,W,205724.00,A,*35
$GPGSA,A,3,,,,,,,,,,,,,0.0,0.0,0.0*32
$GPRMC,205725.00,A,3844.3107,N,00908.3199,W,1.313605,4.605761,130617,,*2D
$GPGGA,205725.00,3844.3107,N,00908.3199,W,1,00,0.0,154.021698,M,0.0,M,,*70
$GPGLL,3844.3107,N,00908.3199,W,205725.00,A,*30
$GPGSA,A,3,,,,,,,,,,,,,0.0,0.0,0.0*32
$GPRMC,205726.00,A,3844.3112,N,00908.3200,W,1.308394,353.742658,130617,,*26
$GPGGA,205726.00,3844.3112,N,00908.3200,W,1,00,0.0,154.083496,M,0.0,M,,*70
$GPGLL,3844.3112,N,00908.3200,W,205726.00,A,*34
$GPGSA,A,3,,,,,,,,,,,,,0.0,0.0,0.0*32
$GPRMC,205727.00,A,3844.3118,N,00908.3202,W,1.440512,345.892622,130617,,*24
$GPGGA,205727.00,3844.3118,N,00908.3202,W,1,00,0.0,154.035873,M,0.0,M,,*73
$GPGLL,3844.3118,N,00908.3202,W,205727.00,A,*3D
$GPGSA,A,3,,,,,,,,,,,,,0.0,0.0,0.0*32
$GPRMC,205728.00,A,3844.3118,N,00908.3209,W,1.388900,270.207534,130617,,*29
$GPGGA,205728.00,3844.3118,N,00908.3209,W,1,00,0.0,153.832642,M,0.0,M,,*73
$GPGLL,3844.3118,N,00908.3209,W,205728.00,A,*39
$GPGSA,A,3,,,,,,,,,,,,,0.0,0.0,0.0*32
$GPRMC,205729.00,A,3844.3119,N,00908.3208,W,1.313507,27.525844,130617,,*1C
$GPGGA,205729.00,3844.3119,N,00908.3208,W,1,00,0.0,153.866577,M,0.0,M,,*76
$GPGLL,3844.3119,N,00908.3208,W,205729.00,A,*38
$GPGSA,A,3,,,,,,,,,,,,,0.0,0.0,0.0*32
$GPRMC,205730.00,A,3844.3128,N,00908.3213,W,1.108363,337.026910,130617,,*24
$GPGGA,205730.00,3844.3128,N,00908.3213,W,1,00,0.0,154.051575,M,0.0,M,,*7F
$GPGLL,3844.3128,N,00908.3213,W,205730.00,A,*38
$GPGSA,A,3,,,,,,,,,,,,,0.0,0.0,0.0*32
$GPRMC,205731.00,A,3844.3138,N,00908.3209,W,1.423350,18.395409,130617,,*13
$GPGGA,205731.00,3844.3138,N,00908.3209,W,1,00,0.0,153.880432,M,0.0,M,,*75
$GPGLL,3844.3138,N,00908.3209,W,205731.00,A,*33
$GPGSA,A,3,,,,,,,,,,,,,0.0,0.0,0.0*32
$GPRMC,205732.00,A,3844.3142,N,00908.3206,W,1.425606,35.938199,130617,,*1C
$GPGGA,205732.00,3844.3142,N,00908.3206,W,1,00,0.0,153.924423,M,0.0,M,,*7B
$GPGLL,3844.3142,N,00908.3206,W,205732.00,A,*32
$GPGSA,A,3,,,,,,,,,,,,,0.0,0.0,0.0*32
$GPRMC,205733.00,A,3844.3147,N,00908.3202,W,1.593535,27.919158,130617,,*1E
$GPGGA,205733.00,3844.3147,N,00908.3202,W,1,00,0.0,153.948257,M,0.0,M,,*74
$GPGLL,3844.3147,N,00908.3202,W,205733.00,A,*32
$GPGSA,A,3,,,,,,,,,,,,,0.0,0.0,0.0*32
$GPRMC,205734.00,A,3844.3151,N,00908.3197,W,1.691573,44.400394,130617,,*10
$GPGGA,205734.00,3844.3151,N,00908.3197,W,1,00,0.0,153.980469,M,0.0,M,,*74
$GPGLL,3844.3151,N,00908.3197,W,205734.00,A,*3D
$GPGSA,A,3,,,,,,,,,,,,,0.0,0.0,0.0*32
$GPRMC,205735.00,A,3844.3154,N,00908.3187,W,2.113080,65.920055,130617,,*10
$GPGGA,205735.00,3844.3154,N,00908.3187,W,1,00,0.0,154.078674,M,0.0,M,,*76
$GPGLL,3844.3154,N,00908.3187,W,205735.00,A,*38
$GPGSA,A,3,,,,,,,,,,,,,0.0,0.0,0.0*32
$GPRMC,205736.00,A,3844.3148,N,00908.3175,W,2.005140,124.270802,130617,,*28
$GPGGA,205736.00,3844.3148,N,00908.3175,W,1,00,0.0,153.866180,M,0.0,M,,*79
$GPGLL,3844.3148,N,00908.3175,W,205736.00,A,*3B
$GPGSA,A,3,,,,,,,,,,,,,0.0,0.0,0.0*32
$GPRMC,205737.00,A,3844.3149,N,00908.3167,W,1.958859,81.714502,130617,,*1C
$GPGGA,205737.00,3844.3149,N,00908.3167,W,1,00,0.0,153.846024,M,0.0,M,,*77
$GPGLL,3844.3149,N,00908.3167,W,205737.00,A,*38
$GPGSA,A,3,,,,,,,,,,,,,0.0,0.0,0.0*32
$GPRMC,205738.00,A,3844.3153,N,00908.3159,W,1.945426,57.616101,130617,,*12
$GPGGA,205738.00,3844.3153,N,00908.3159,W,1,00,0.0,153.912231,M,0.0,M,,*78
$GPGLL,3844.3153,N,00908.3159,W,205738.00,A,*31
$GPGSA,A,3,,,,,,,,,,,,,0.0,0.0,0.0*32
$GPRMC,205739.00,A,3844.3155,N,00908.3150,W,2.059255,74.038857,130617,,*18
$GPGGA,205739.00,3844.3155,N,00908.3150,W,1,00,0.0,153.933304,M,0.0,M,,*72
$GPGLL,3844.3155,N,00908.3150,W,205739.00,A,*3F
$GPGSA,A,3,,,,,,,,,,,,,0.0,0.0,0.0*32
$GPRMC,205740.00,A,3844.3156,N,00908.3145,W,1.951649,73.788802,130617,,*11
$GPGGA,205740.00,3844.3156,N,00908.3145,W,1,00,0.0,154.132767,M,0.0,M,,*74
$GPGLL,3844.3156,N,00908.3145,W,205740.00,A,*36
$GPGSA,A,3,,,,,,,,,,,,,0.0,0.0,0.0*32
$GPRMC,205741.00,A,3844.3153,N,00908.3142,W,1.841802,150.487195,130617,,*28
$GPGGA,205741.00,3844.3153,N,00908.3142,W,1,00,0.0,154.056107,M,0.0,M,,*74
$GPGLL,3844.3153,N,00908.3142,W,205741.00,A,*35
$GPGSA,A,3,,,,,,,,,,,,,0.0,0.0,0.0*32
$GPRMC,205742.00,A,3844.3147,N,00908.3139,W,1.641887,154.794734,130617,,*29
$GPGGA,205742.00,3844.3147,N,00908.3139,W,1,00,0.0,154.114365,M,0.0,M,,*7F
$GPGLL,3844.3147,N,00908.3139,W,205742.00,A,*3F
$GPGSA,A,3,,,,,,,,,,,,,0.0,0.0,0.0*32
$GPRMC,205743.00,A,3844.3149,N,00908.3136,W,1.556262,53.670845,130617,,*19
$GPGGA,205743.00,3844.3149,N,00908.3136,W,1,00,0.0,154.171570,M,0.0,M,,*7E
$GPGLL,3844.3149,N,00908.3136,W,205743.00,A,*3F
$GPGSA,A,3,,,,,,,,,,,,,0.0,0.0,0.0*32
$GPRMC,205744.00,A,3844.3150,N,00908.3130,W,1.506104,75.994523,130617,,*1A
$GPGGA,205744.00,3844.3150,N,00908.3130,W,1,00,0.0,154.336777,M,0.0,M,,*73
$GPGLL,3844.3150,N,00908.3130,W,205744.00,A,*36
$GPGSA,A,3,,,,,,,,,,,,,0.0,0.0,0.0*32
$GPRMC,205745.00,A,3844.3161,N,00908.3140,W,1.244846,322.174831,130617,,*29
$GPGGA,205745.00,3844.3161,N,00908.3140,W,1,00,0.0,154.097580,M,0.0,M,,*75
$GPGLL,3844.3161,N,00908.3140,W,205745.00,A,*32
$GPGSA,A,3,,,,,,,,,,,,,0.0,0.0,0.0*32
$GPRMC,205746.00,A,3844.3167,N,00908.3144,W,1.324478,333.877223,130617,,*2D
$GPGGA,205746.00,3844.3167,N,00908.3144,W,1,00,0.0,153.886414,M,0.0,M,,*77
$GPGLL,3844.3167,N,00908.3144,W,205746.00,A,*33
$GPGSA,A,3,,,,,,,,,,,,,0.0,0.0,0.0*32
$GPRMC,205747.00,A,3844.3169,N,00908.3141,W,1.371828,36.818945,130617,,*1A
$GPGGA,205747.00,3844.3169,N,00908.3141,W,1,00,0.0,153.966522,M,0.0,M,,*76
$GPGLL,3844.3169,N,00908.3141,W,205747.00,A,*39
$GPGSA,A,3,,,,,,,,,,,,,0.0,0.0,0.0*32
$GPRMC,205748.00,A,3844.3173,N,00908.3136,W,1.629047,45.491192,130617,,*1C
$GPGGA,205748.00,3844.3173,N,00908.3136,W,1,00,0.0,153.983719,M,0.0,M,,*73
$GPGLL,3844.3173,N,00908.3136,W,205748.00,A,*3D
$GPGSA,A,3,,,,,,,,,,,,,0.0,0.0,0.0*32
$GPRMC,205749.00,A,3844.3177,N,00908.3130,W,1.762089,52.020281,130617,,*1A
$GPGGA,205749.00,3844.3177,N,00908.3130,W,1,00,0.0,154.113983,M,0.0,M,,*7B
$GPGLL,3844.3177,N,00908.3130,W,205749.00,A,*3E
$GPGSA,A,3,,,,,,,,,,,,,0.0,0.0,0.0*32
$GPRMC,205750.00,A,3844.3180,N,00908.3124,W,1.683026,54.601413,130617,,*1A
$GPGGA,205750.00,3844.3180,N,00908.3124,W,1,00,0.0,154.212524,M,0.0,M,,*7D
$GPGLL,3844.3180,N,00908.3124,W,205750.00,A,*3B
$GPGSA,A,3,,,,,,,,,,,,,0.0,0.0,0.0*32
$GPRMC,205751.00,A,3844.3181,N,00908.3120,W,1.644207,73.464900,130617,,*1F
$GPGGA,205751.00,3844.3181,N,00908.3120,W,1,00,0.0,154.327469,M,0.0,M,,*76
$GPGLL,3844.3181,N,00908.3120,W,205751.00,A,*3F
$GPGSA,A,3,,,,,,,,,,,,,0.0,0.0,0.0*32
$GPRMC,205752.00,A,3844.3184,N,00908.3111,W,1.841343,66.460386,130617,,*15
$GPGGA,205752.00,3844.3184,N,00908.3111,W,1,00,0.0,154.419449,M,0.0,M,,*7A
$GPGLL,3844.3184,N,00908.3111,W,205752.00,A,*3B
$GPGSA,A,3,,,,,,,,,,,,,0.0,0.0,0.0*32
$GPRMC,205753.00,A,3844.3186,N,00908.3106,W,1.784275,64.737771,130617,,*1D
$GPGGA,205753.00,3844.3186,N,00908.3106,W,1,00,0.0,154.494400,M,0.0,M,,*77
$GPGLL,3844.3186,N,00908.3106,W,205753.00,A,*3E
$GPGSA,A,3,,,,,,,,,,,,,0.0,0.0,0.0*32
$GPRMC,205754.00,A,3844.3187,N,00908.3100,W,1.717931,80.617467,130617,,*11
$GPGGA,205754.00,3844.3187,N,00908.3100,W,1,00,0.0,154.610062,M,0.0,M,,*79
$GPGLL,3844.3187,N,00908.3100,W,205754.00,A,*3E
$GPGSA,A,3,,,,,,,,,,,,,0.0,0.0,0.0*32
$GPRMC,205755.00,A,3844.3188,N,00908.3092,W,1.804522,77.247434,130617,,*19
$GPGGA,205755.00,3844.3188,N,00908.3092,W,1,00,0.0,154.753723,M,0.0,M,,*79
$GPGLL,3844.3188,N,00908.3092,W,205755.00,A,*3A
$GPGSA,A,3,,,,,,,,,,,,,0.0,0.0,0.0*32
$GPRMC,205756.00,A,3844.3192,N,00908.3083,W,1.858701,59.798679,130617,,*1B
$GPGGA,205756.00,3844.3192,N,00908.3083,W,1,00,0.0,154.974182,M,0.0,M,,*77
$GPGLL,3844.3192,N,00908.3083,W,205756.00,A,*32
$GPGSA,A,3,,,,,,,,,,,,,0.0,0.0,0.0*32
$GPRMC,205757.00,A,3844.3194,N,00908.3079,W,1.725321,56.568488,130617,,*14
$GPGGA,205757.00,3844.3194,N,00908.3079,W,1,00,0.0,155.071442,M,0.0,M,,*71
$GPGLL,3844.3194,N,00908.3079,W,205757.00,A,*30
$GPGSA,A,3,,,,,,,,,,,,,0.0,0.0,0.0*32
$GPRMC,205758.00,A,3844.3195,N,00908.3072,W,1.643215,78.119124,130617,,*1B
$GPGGA,205758.00,3844.3195,N,00908.3072,W,1,00,0.0,155.109131,M,0.0,M,,*7B
$GPGLL,3844.3195,N,00908.3072,W,205758.00,A,*35
$GPGSA,A,3,,,,,,,,,,,,,0.0,0.0,0.0*32
$GPRMC,205759.00,A,3844.3196,N,00908.3064,W,1.640005,88.642953,130617,,*10
$GPGGA,205759.00,3844.3196,N,00908.3064,W,1,00,0.0,155.161163,M,0.0,M,,*77
$GPGLL,3844.3196,N,00908.3064,W,205759.00,A,*30
$GPGSA,A,3,,,,,,,,,,,,,0.0,0.0,0.0*32
$GPRMC,205800.00,A,3844.3198,N,00908.3055,W,1.727380,72.741583,130617,,*17
$GPGGA,205800.00,3844.3198,N,00908.3055,W,1,00,0.0,155.160202,M,0.0,M,,*7D
$GPGLL,3844.3198,N,00908.3055,W,205800.00,A,*3F
$GPGSA,A,3,,,,,,,,,,,,,0.0,0.0,0.0*32
$GPRMC,205801.00,A,3844.3198,N,00908.3051,W,1.518377,77.035612,130617,,*1E
$GPGGA,205801.00,3844.3198,N,00908.3051,W,1,00,0.0,155.183990,M,0.0,M,,*75
$GPGLL,3844.3198,N,00908.3051,W,205801.00,A,*3A
$GPGSA,A,3,,,,,,,,,,,,,0.0,0.0,0.0*32
$GPRMC,205802.00,A,3844.3201,N,00908.3044,W,1.585362,65.889218,130617,,*18
$GPGGA,205802.00,3844.3201,N,00908.3044,W,1,00,0.0,155.199066,M,0.0,M,,*7A
$GPGLL,3844.3201,N,00908.3044,W,205802.00,A,*3E
$GPGSA,A,3,,,,,,,,,,,,,0.0,0.0,0.0*32
$GPRMC,205803.00,A,3844.3203,N,00908.3036,W,1.673773,68.429555,130617,,*15
$GPGGA,205803.00,3844.3203,N,00908.3036,W,1,00,0.0,155.300369,M,0.0,M,,*72
$GPGLL,3844.3203,N,00908.3036,W,205803.00,A,*38
$GPGSA,A,3,,,,,,,,,,,,,0.0,0.0,0.0*32
$GPRMC,205804.00,A,3844.3212,N,00908.3021,W,1.685549,53.393921,130617,,*17
$GPGGA,205804.00,3844.3212,N,00908.3021,W,1,00,0.0,155.616257,M,0.0,M,,*7D
$GPGLL,3844.3212,N,00908.3021,W,205804.00,A,*39
$GPGSA,A,3,,,,,,,,,,,,,0.0,0.0,0.0*32
$GPRMC,205805.00,A,3844.3216,N,00908.3010,W,1.909616,64.171092,130617,,*19
$GPGGA,205805.00,3844.3216,N,00908.3010,W,1,00,0.0,155.773697,M,0.0,M,,*70
$GPGLL,3844.3216,N,00908.3010,W,205805.00,A,*3E
$GPGSA,A,3,,,,,,,,,,,,,0.0,0.0,0.0*32
$GPRMC,205806.00,A,3844.3217,N,00908.3006,W,1.581982,72.799022,130617,,*1E
$GPGGA,205806.00,3844.3217,N,00908.3006,W,1,00,0.0,155.923233,M,0.0,M,,*74
$GPGLL,3844.3217,N,00908.3006,W,205806.00,A,*3B
$GPGSA,A,3,,,,,,,,,,,,,0.0,0.0,0.0*32
$GPRMC,205807.00,A,3844.3220,N,00908.2996,W,1.820857,68.901753,130617,,*10
$GPGGA,205807.00,3844.3220,N,00908.2996,W,1,00,0.0,156.049576,M,0.0,M,,*70
$GPGLL,3844.3220,N,00908.2996,W,205807.00,A,*3F
$GPGSA,A,3,,,,,,,,,,,,,0.0,0.0,0.0*32
$GPRMC,205808.00,A,3844.3223,N,00908.2988,W,1.835065,66.598615,130617,,*1F
$GPGGA,205808.00,3844.3223,N,00908.2988,W,1,00,0.0,156.205444,M,0.0,M,,*79
$GPGLL,3844.3223,N,00908.2988,W,205808.00,A,*3C
$GPGSA,A,3,,,,,,,,,,,,,0.0,0.0,0.0*32
$GPRMC,205809.00,A,3844.3226,N,00908.2981,W,1.941806,61.319285,130617,,*18
$GPGGA,205809.00,3844.3226,N,00908.2981,W,1,00,0.0,156.392120,M,0.0,M,,*7C
$GPGLL,3844.3226,N,00908.2981,W,205809.00,A,*31
$GPGSA,A,3,,,,,,,,,,,,,0.0,0.0,0.0*32
$GPRMC,205810.00,A,3844.3229,N,00908.2975,W,1.927220,53.562943,130617,,*10
$GPGGA,205810.00,3844.3229,N,00908.2975,W,1,00,0.0,156.552246,M,0.0,M,,*79
$GPGLL,3844.3229,N,00908.2975,W,205810.00,A,*3D
$GPGSA,A,3,,,,,,,,,,,,,0.0,0.0,0.0*32
$GPRMC,205811.00,A,3844.3232,N,00908.2970,W,1.806044,58.089287,130617,,*14
$GPGGA,205811.00,3844.3232,N,00908.2970,W,1,00,0.0,156.747345,M,0.0,M,,*73
$GPGLL,3844.3232,N,00908.2970,W,205811.00,A,*33
$GPGSA,A,3,,,,,,,,,,,,,0.0,0.0,0.0*32
$GPRMC,205812.00,A,3844.3237,N,00908.2968,W,1.551500,12.531876,130617,,*1D
$GPGGA,205812.00,3844.3237,N,00908.2968,W,1,00,0.0,156.950882,M,0.0,M,,*74
$GPGLL,3844.3237,N,00908.2968,W,205812.00,A,*3C
$GPGSA,A,3,,,,,,,,,,,,,0.0,0.0,0.0*32
$GPRMC,205813.00,A,3844.3251,N,00908.2969,W,1.687380,356.064708,130617,,*2B
$GPGGA,205813.00,3844.3251,N,00908.2969,W,1,00,0.0,156.699875,M,0.0,M,,*76
$GPGLL,3844.3251,N,00908.2969,W,205813.00,A,*3C
$GPGSA,A,3,,,,,,,,,,,,,0.0,0.0,0.0*32
$GPRMC,205814.00,A,3844.3263,N,00908.2978,W,1.641048,330.394247,130617,,*22
$GPGGA,205814.00,3844.3263,N,00908.2978,W,1,00,0.0,156.525360,M,0.0,M,,*7B
$GPGLL,3844.3263,N,00908.2978,W,205814.00,A,*3A
$GPGSA,A,3,,,,,,,,,,,,,0.0,0.0,0.0*32
$GPRMC,205815.00,A,3844.3268,N,00908.2970,W,1.683392,51.292423,130617,,*1D
$GPGGA,205815.00,3844.3268,N,00908.2970,W,1,00,0.0,156.757751,M,0.0,M,,*78
$GPGLL,3844.3268,N,00908.2970,W,205815.00,A,*38
$GPGSA,A,3,,,,,,,,,,,,,0.0,0.0,0.0*32
$GPRMC,205816.00,A,3844.3271,N,00908.2963,W,1.509115,59.537175,130617,,*1E
$GPGGA,205816.00,3844.3271,N,00908.2963,W,1,00,0.0,156.993423,M,0.0,M,,*71
$GPGLL,3844.3271,N,00908.2963,W,205816.00,A,*31
$GPGSA,A,3,,,,,,,,,,,,,0.0,0.0,0.0*32
$GPRMC,205817.00,A,3844.3276,N,00908.2957,W,1.410202,38.562338,130617,,*1F
$GPGGA,205817.00,3844.3276,N,00908.2957,W,1,00,0.0,156.921951,M,0.0,M,,*71
$GPGLL,3844.3276,N,00908.2957,W,205817.00,A,*30
$GPGSA,A,3,,,,,,,,,,,,,0.0,0.0,0.0*32
$GPRMC,205818.00,A,3844.3279,N,00908.2949,W,1.305471,70.240564,130617,,*15
$GPGGA,205818.00,3844.3279,N,00908.2949,W,1,00,0.0,156.922348,M,0.0,M,,*7F
$GPGLL,3844.3279,N,00908.2949,W,205818.00,A,*3F
$GPGSA,A,3,,,,,,,,,,,,,0.0,0.0,0.0*32
$GPRMC,205819.00,A,3844.3272,N,00908.2943,W,0.977076,147.257005,130617,,*29
$GPGGA,205819.00,3844.3272,N,00908.2943,W,1,00,0.0,156.941620,M,0.0,M,,*71
$GPGLL,3844.3272,N,00908.2943,W,205819.00,A,*3F
$GPGSA,A,3,,,,,,,,,,,,,0.0,0.0,0.0*32
$GPRMC,205820.00,A,3844.3269,N,00908.2930,W,1.018709,102.573188,130617,,*27
$GPGGA,205820.00,3844.3269,N,00908.2930,W,1,00,0.0,156.025513,M,0.0,M,,*7D
$GPGLL,3844.3269,N,00908.2930,W,205820.00,A,*3B
$GPGSA,A,3,,,,,,,,,,,,,0.0,0.0,0.0*32
$GPRMC,205821.00,A,3844.3268,N,00908.2923,W,1.091633,101.268095,130617,,*2F
$GPGGA,205821.00,3844.3268,N,00908.2923,W,1,00,0.0,156.190781,M,0.0,M,,*79
$GPGLL,3844.3268,N,00908.2923,W,205821.00,A,*39
$GPGSA,A,3,,,,,,,,,,,,,0.0,0.0,0.0*32
$GPRMC,205822.00,A,3844.3273,N,00908.2909,W,1.509959,68.741269,130617,,*18
$GPGGA,205822.00,3844.3273,N,00908.2909,W,1,00,0.0,156.085800,M,0.0,M,,*7B
$GPGLL,3844.3273,N,00908.2909,W,205822.00,A,*38
$GPGSA,A,3,,,,,,,,,,,,,0.0,0.0,0.0*32
$GPRMC,205823.00,A,3844.3277,N,00908.2899,W,1.828862,63.416970,130617,,*1B
$GPGGA,205823.00,3844.3277,N,00908.2899,W,1,00,0.0,156.218735,M,0.0,M,,*79
$GPGLL,3844.3277,N,00908.2899,W,205823.00,A,*35
$GPGSA,A,3,,,,,,,,,,,,,0.0,0.0,0.0*32
$GPRMC,205824.00,A,3844.3278,N,00908.2893,W,1.867466,77.213510,130617,,*16
$GPGGA,205824.00,3844.3278,N,00908.2893,W,1,00,0.0,156.476639,M,0.0,M,,*78
$GPGLL,3844.3278,N,00908.2893,W,205824.00,A,*37
$GPGSA,A,3,,,,,,,,,,,,,0.0,0.0,0.0*32
$GPRMC,205825.00,A,3844.3279,N,00908.2885,W,1.758737,74.319229,130617,,*10
$GPGGA,205825.00,3844.3279,N,00908.2885,W,1,00,0.0,156.459290,M,0.0,M,,*75
$GPGLL,3844.3279,N,00908.2885,W,205825.00,A,*30
$GPGSA,A,3,,,,,,,,,,,,,0.0,0.0,0.0*32
$GPRMC,205826.00,A,3844.3282,N,00908.2880,W,1.499692,62.561002,130617,,*17
$GPGGA,205826.00,3844.3282,N,00908.2880,W,1,00,0.0,156.407104,M,0.0,M,,*72
$GPGLL,3844.3282,N,00908.2880,W,205826.00,A,*32
$GPGSA,A,3,,,,,,,,,,,,,0.0,0.0,0.0*32
$GPRMC,205827.00,A,3844.3283,N,00908.2876,W,1.286959,64.024505,130617,,*1E
$GPGGA,205827.00,3844.3283,N,00908.2876,W,1,00,0.0,156.437286,M,0.0,M,,*71
$GPGLL,3844.3283,N,00908.2876,W,205827.00,A,*3B
$GPGSA,A,3,,,,,,,,,,,,,0.0,0.0,0.0*32
$GPRMC,205828.00,A,3844.3282,N,00908.2875,W,1.054868,144.312626,130617,,*2A
$GPGGA,205828.00,3844.3282,N,00908.2875,W,1,00,0.0,156.757263,M,0.0,M,,*72
$GPGLL,3844.3282,N,00908.2875,W,205828.00,A,*36
$GPGSA,A,3,,,,,,,,,,,,,0.0,0.0,0.0*32
$GPRMC,205829.00,A,3844.3281,N,00908.2871,W,1.058991,108.141773,130617,,*2A
$GPGGA,205829.00,3844.3281,N,00908.2871,W,1,00,0.0,157.018784,M,0.0,M,,*75
$GPGLL,3844.3281,N,00908.2871,W,205829.00,A,*30
$GPGSA,A,3,,,,,,,,,,,,,0.0,0.0,0.0*32
$GPRMC,205830.00,A,3844.3278,N,00908.2868,W,0.912106,146.847834,130617,,*25
$GPGGA,205830.00,3844.3278,N,00908.2868,W,1,00,0.0,157.277710,M,0.0,M,,*75
$GPGLL,3844.3278,N,00908.2868,W,205830.00,A,*36
$GPGSA,A,3,,,,,,,,,,,,,0.0,0.0,0.0*32
$GPRMC,205831.00,A,3844.3279,N,00908.2866,W,0.845682,61.091911,130617,,*12
$GPGGA,205831.00,3844.3279,N,00908.2866,W,1,00,0.0,157.546768,M,0.0,M,,*71
$GPGLL,3844.3279,N,00908.2866,W,205831.00,A,*38
$GPGSA,A,3,,,,,,,,,,,,,0.0,0.0,0.0*32
$GPRMC,205832.00,A,3844.3282,N,00908.2861,W,1.133724,53.935807,130617,,*16
$GPGGA,205832.00,3844.3282,N,00908.2861,W,1,00,0.0,157.933105,M,0.0,M,,*72
$GPGLL,3844.3282,N,00908.2861,W,205832.00,A,*38
$GPGSA,A,3,,,,,,,,,,,,,0.0,0.0,0.0*32
$GPRMC,205833.00,A,3844.3281,N,00908.2855,W,1.120400,95.562428,130617,,*11
$GPGGA,205833.00,3844.3281,N,00908.2855,W,1,00,0.0,158.172806,M,0.0,M,,*7F
$GPGLL,3844.3281,N,00908.2855,W,205833.00,A,*3D
$GPGSA,A,3,,,,,,,,,,,,,0.0,0.0,0.0*32
$GPRMC,205834.00,A,3844.3281,N,00908.2851,W,1.007331,95.291357,130617,,*17
$GPGGA,205834.00,3844.3281,N,00908.2851,W,1,00,0.0,158.360245,M,0.0,M,,*70
$GPGLL,3844.3281,N,00908.2851,W,205834.00,A,*3E
$GPGSA,A,3,,,,,,,,,,,,,0.0,0.0,0.0*32
$GPRMC,205835.00,A,3844.3281,N,00908.2847,W,0.945698,84.671068,130617,,*1C
$GPGGA,205835.00,3844.3281,N,00908.2847,W,1,00,0.0,158.540741,M,0.0,M,,*73
$GPGLL,3844.3281,N,00908.2847,W,205835.00,A,*38
$GPGSA,A,3,,,,,,,,,,,,,0.0,0.0,0.0*32
$GPRMC,205836.00,A,3844.3282,N,00908.2840,W,1.166307,85.255043,130617,,*1A
$GPGGA,205836.00,3844.3282,N,00908.2840,W,1,00,0.0,158.754730,M,0.0,M,,*75
$GPGLL,3844.3282,N,00908.2840,W,205836.00,A,*3F
$GPGSA,A,3,,,,,,,,,,,,,0.0,0.0,0.0*32
$GPRMC,205837.00,A,3844.3283,N,00908.2831,W,1.402400,78.359255,130617,,*11
$GPGGA,205837.00,3844.3283,N,00908.2831,W,1,00,0.0,158.965042,M,0.0,M,,*7D
$GPGLL,3844.3283,N,00908.2831,W,205837.00,A,*39
$GPGSA,A,3,,,,,,,,,,,,,0.0,0.0,0.0*32
$GPRMC,205838.00,A,3844.3285,N,00908.2819,W,1.472274,79.407230,130617,,*1E
$GPGGA,205838.00,3844.3285,N,00908.2819,W,1,00,0.0,159.224670,M,0.0,M,,*76
$GPGLL,3844.3285,N,00908.2819,W,205838.00,A,*3A
$GPGSA,A,3,,,,,,,,,,,,,0.0,0.0,0.0*32
$GPRMC,205839.00,A,3844.3288,N,00908.2811,W,1.412551,60.373869,130617,,*16
$GPGGA,205839.00,3844.3288,N,00908.2811,W,1,00,0.0,159.436981,M,0.0,M,,*76
$GPGLL,3844.3288,N,00908.2811,W,205839.00,A,*3E
$GPGSA,A,3,,,,,,,,,,,,,0.0,0.0,0.0*32
$GPRMC,205840.00,A,3844.3297,N,00908.2800,W,1.555380,43.289478,130617,,*17
$GPGGA,205840.00,3844.3297,N,00908.2800,W,1,00,0.0,159.750076,M,0.0,M,,*74
$GPGLL,3844.3297,N,00908.2800,W,205840.00,A,*3E
$GPGSA,A,3,,,,,,,,,,,,,0.0,0.0,0.0*32
$GPRMC,205841.00,A,3844.3310,N,00908.2794,W,1.668146,20.294793,130617,,*10
$GPGGA,205841.00,3844.3310,N,00908.2794,W,1,00,0.0,160.115601,M,0.0,M,,*72
$GPGLL,3844.3310,N,00908.2794,W,205841.00,A,*33
$GPGSA,A,3,,,,,,,,,,,,,0.0,0.0,0.0*32
$GPRMC,205842.00,A,3844.3315,N,00908.2775,W,1.858389,69.148850,130617,,*1A
$GPGGA,205842.00,3844.3315,N,00908.2775,W,1,00,0.0,160.052872,M,0.0,M,,*73
$GPGLL,3844.3315,N,00908.2775,W,205842.00,A,*3A
$GPGSA,A,3,,,,,,,,,,,,,0.0,0.0,0.0*32
$GPRMC,205843.00,A,3844.3325,N,00908.2746,W,2.150969,66.180540,130617,,*19
$GPGGA,205843.00,3844.3325,N,00908.2746,W,1,00,0.0,159.958511,M,0.0,M,,*70
$GPGLL,3844.3325,N,00908.2746,W,205843.00,A,*38
$GPGSA,A,3,,,,,,,,,,,,,0.0,0.0,0.0*32
$GPRMC,205844.00,A,3844.3331,N,00908.2735,W,2.099389,59.138468,130617,,*1B
$GPGGA,205844.00,3844.3331,N,00908.2735,W,1,00,0.0,159.894211,M,0.0,M,,*70
$GPGLL,3844.3331,N,00908.2735,W,205844.00,A,*3E
$GPGSA,A,3,,,,,,,,,,,,,0.0,0.0,0.0*32
$GPRMC,205845.00,A,3844.3352,N,00908.2754,W,1.958888,324.363182,130617,,*21
$GPGGA,205845.00,3844.3352,N,00908.2754,W,1,00,0.0,159.418121,M,0.0,M,,*7B
$GPGLL,3844.3352,N,00908.2754,W,205845.00,A,*3D
$GPGSA,A,3,,,,,,,,,,,,,0.0,0.0,0.0*32
$GPRMC,205846.00,A,3844.3355,N,00908.2749,W,1.685047,47.642291,130617,,*1C
$GPGGA,205846.00,3844.3355,N,00908.2749,W,1,00,0.0,159.731674,M,0.0,M,,*7C
$GPGLL,3844.3355,N,00908.2749,W,205846.00,A,*35
$GPGSA,A,3,,,,,,,,,,,,,0.0,0.0,0.0*32
$GPRMC,205847.00,A,3844.3362,N,00908.2742,W,1.549178,36.337009,130617,,*1E
$GPGGA,205847.00,3844.3362,N,00908.2742,W,1,00,0.0,159.981812,M,0.0,M,,*79
$GPGLL,3844.3362,N,00908.2742,W,205847.00,A,*3B
$GPGSA,A,3,,,,,,,,,,,,,0.0,0.0,0.0*32
$GPRMC,205848.00,A,3844.3373,N,00908.2742,W,2.060787,2.699328,130617,,*2C
$GPGGA,205848.00,3844.3373,N,00908.2742,W,1,00,0.0,160.075256,M,0.0,M,,*74
$GPGLL,3844.3373,N,00908.2742,W,205848.00,A,*34
$GPGSA,A,3,,,,,,,,,,,,,0.0,0.0,0.0*32
$GPRMC,205849.00,A,3844.3390,N,00908.2757,W,1.971848,324.564087,130617,,*22
$GPGGA,205849.00,3844.3390,N,00908.2757,W,1,00,0.0,160.065521,M,0.0,M,,*7A
$GPGLL,3844.3390,N,00908.2757,W,205849.00,A,*3C
$GPGSA,A,3,,,,,,,,,,,,,0.0,0.0,0.0*32
$GPRMC,205850.00,A,3844.3411,N,00908.2748,W,2.162935,19.687606,130617,,*14
$GPGGA,205850.00,3844.3411,N,00908.2748,W,1,00,0.0,160.004913,M,0.0,M,,*78
$GPGLL,3844.3411,N,00908.2748,W,205850.00,A,*34
$GPGSA,A,3,,,,,,,,,,,,,0.0,0.0,0.0*32
$GPRMC,205851.00,A,3844.3424,N,00908.2742,W,2.536647,19.002170,130617,,*1B
$GPGGA,205851.00,3844.3424,N,00908.2742,W,1,00,0.0,159.379730,M,0.0,M,,*79
$GPGLL,3844.3424,N,00908.2742,W,205851.00,A,*39
$GPGSA,A,3,,,,,,,,,,,,,0.0,0.0,0.0*32
$GPRMC,205852.00,A,3844.3430,N,00908.2726,W,2.256613,60.781887,130617,,*1C
$GPGGA,205852.00,3844.3430,N,00908.2726,W,1,00,0.0,159.693481,M,0.0,M,,*75
$GPGLL,3844.3430,N,00908.2726,W,205852.00,A,*3D
$GPGSA,A,3,,,,,,,,,,,,,0.0,0.0,0.0*32
$GPRMC,205853.00,A,3844.3434,N,00908.2719,W,1.905414,59.112591,130617,,*12
$GPGGA,205853.00,3844.3434,N,00908.2719,W,1,00,0.0,160.010574,M,0.0,M,,*70
$GPGLL,3844.3434,N,00908.2719,W,205853.00,A,*34
$GPGSA,A,3,,,,,,,,,,,,,0.0,0.0,0.0*32
$GPRMC,205854.00,A,3844.3438,N,00908.2711,W,1.740632,59.995940,130617,,*1F
$GPGGA,205854.00,3844.3438,N,00908.2711,W,1,00,0.0,160.251999,M,0.0,M,,*7B
$GPGLL,3844.3438,N,00908.2711,W,205854.00,A,*37
$GPGSA,A,3,,,,,,,,,,,,,0.0,0.0,0.0*32
$GPRMC,205855.00,A,3844.3445,N,00908.2707,W,2.392866,24.196766,130617,,*1F
$GPGGA,205855.00,3844.3445,N,00908.2707,W,1,00,0.0,159.597305,M,0.0,M,,*7F
$GPGLL,3844.3445,N,00908.2707,W,205855.00,A,*3B
$GPGSA,A,3,,,,,,,,,,,,,0.0,0.0,0.0*32
$GPRMC,205856.00,A,3844.3446,N,00908.2692,W,2.482345,84.078935,130617,,*1D
$GPGGA,205856.00,3844.3446,N,00908.2692,W,1,00,0.0,158.415390,M,0.0,M,,*74
$GPGLL,3844.3446,N,00908.2692,W,205856.00,A,*36
$GPGSA,A,3,,,,,,,,,,,,,0.0,0.0,0.0*32
$GPRMC,205857.00,A,3844.3445,N,00908.2680,W,2.698370,100.127063,130617,,*2F
$GPGGA,205857.00,3844.3445,N,00908.2680,W,1,00,0.0,157.402664,M,0.0,M,,*72
$GPGLL,3844.3445,N,00908.2680,W,205857.00,A,*37
$GPGSA,A,3,,,,,,,,,,,,,0.0,0.0,0.0*32
$GPRMC,205858.00,A,3844.3445,N,00908.2670,W,2.673391,88.385520,130617,,*1C
$GPGGA,205858.00,3844.3445,N,00908.2670,W,1,00,0.0,156.962082,M,0.0,M,,*76
$GPGLL,3844.3445,N,00908.2670,W,205858.00,A,*37
$GPGSA,A,3,,,,,,,,,,,,,0.0,0.0,0.0*32
$GPRMC,205859.00,A,3844.3453,N,00908.2665,W,2.893782,28.877369,130617,,*1F
$GPGGA,205859.00,3844.3453,N,00908.2665,W,1,00,0.0,157.074020,M,0.0,M,,*73
$GPGLL,3844.3453,N,00908.2665,W,205859.00,A,*35
$GPGSA,A,3,,,,,,,,,,,,,0.0,0.0,0.0*32
$GPRMC,205900.00,A,3844.3460,N,00908.2658,W,2.780455,32.990918,130617,,*17
$GPGGA,205900.00,3844.3460,N,00908.2658,W,1,00,0.0,157.003601,M,0.0,M,,*75
$GPGLL,3844.3460,N,00908.2658,W,205900.00,A,*36
$GPGSA,A,3,,,,,,,,,,,,,0.0,0.0,0.0*32
$GPRMC,205901.00,A,3844.3462,N,00908.2646,W,3.306630,75.106670,130617,,*14
$GPGGA,205901.00,3844.3462,N,00908.2646,W,1,00,0.0,156.605057,M,0.0,M,,*7D
$GPGLL,3844.3462,N,00908.2646,W,205901.00,A,*3A
$GPGSA,A,3,,,,,,,,,,,,,0.0,0.0,0.0*32
$GPRMC,205902.00,A,3844.3465,N,00908.2636,W,2.342850,71.127071,130617,,*1E
$GPGGA,205902.00,3844.3465,N,00908.2636,W,1,00,0.0,156.075104,M,0.0,M,,*78
$GPGLL,3844.3465,N,00908.2636,W,205902.00,A,*39
$GPGSA,A,3,,,,,,,,,,,,,0.0,0.0,0.0*32
$GPRMC,205903.00,A,3844.3471,N,00908.2625,W,2.751184,55.344411,130617,,*1D
$GPGGA,205903.00,3844.3471,N,00908.2625,W,1,00,0.0,156.053284,M,0.0,M,,*71
$GPGLL,3844.3471,N,00908.2625,W,205903.00,A,*3F
$GPGSA,A,3,,,,,,,,,,,,,0.0,0.0,0.0*32
$GPRMC,205904.00,A,3844.3476,N,00908.2615,W,2.733403,61.493823,130617,,*17
$GPGGA,205904.00,3844.3476,N,00908.2615,W,1,00,0.0,155.881927,M,0.0,M,,*74
$GPGLL,3844.3476,N,00908.2615,W,205904.00,A,*3C
$GPGSA,A,3,,,,,,,,,,,,,0.0,0.0,0.0*32
$GPRMC,205905.00,A,3844.3482,N,00908.2606,W,1.556584,48.023533,130617,,*1B
$GPGGA,205905.00,3844.3482,N,00908.2606,W,1,00,0.0,155.737473,M,0.0,M,,*72
$GPGLL,3844.3482,N,00908.2606,W,205905.00,A,*34
$GPGSA,A,3,,,,,,,,,,,,,0.0,0.0,0.0*32
$GPRMC,205906.00,A,3844.3487,N,00908.2597,W,2.467914,50.946408,130617,,*19
$GPGGA,205906.00,3844.3487,N,00908.2597,W,1,00,0.0,155.758270,M,0.0,M,,*73
$GPGLL,3844.3487,N,00908.2597,W,205906.00,A,*39
$GPGSA,A,3,,,,,,,,,,,,,0.0,0.0,0.0*32
$GPRMC,205907.00,A,3844.3495,N,00908.2586,W,3.356478,48.618718,130617,,*17
$GPGGA,205907.00,3844.3495,N,00908.2586,W,1,00,0.0,155.628937,M,0.0,M,,*7F
$GPGLL,3844.3495,N,00908.2586,W,205907.00,A,*3B
$GPGSA,A,3,,,,,,,,,,,,,0.0,0.0,0.0*32
$GPRMC,205908.00,A,3844.3501,N,00908.2582,W,2.075281,26.693520,130617,,*11
$GPGGA,205908.00,3844.3501,N,00908.2582,W,1,00,0.0,155.978516,M,0.0,M,,*7D
$GPGLL,3844.3501,N,00908.2582,W,205908.00,A,*3C
$GPGSA,A,3,,,,,,,,,,,,,0.0,0.0,0.0*32
$GPRMC,205909.00,A,3844.3506,N,00908.2581,W,3.366538,7.560245,130617,,*29
$GPGGA,205909.00,3844.3506,N,00908.2581,W,1,00,0.0,156.520157,M,0.0,M,,*7B
$GPGLL,3844.3506,N,00908.2581,W,205909.00,A,*39
$GPGSA,A,3,,,,,,,,,,,,,0.0,0.0,0.0*32
$GPRMC,205910.00,A,3844.3511,N,00908.2575,W,2.270603,43.496616,130617,,*1A
$GPGGA,205910.00,3844.3511,N,00908.2575,W,1,00,0.0,156.283447,M,0.0,M,,*74
$GPGLL,3844.3511,N,00908.2575,W,205910.00,A,*3C
$GPGSA,A,3,,,,,,,,,,,,,0.0,0.0,0.0*32
$GPRMC,205911.00,A,3844.3520,N,00908.2571,W,1.765034,18.351759,130617,,*15
$GPGGA,205911.00,3844.3520,N,00908.2571,W,1,00,0.0,156.353897,M,0.0,M,,*7E
$GPGLL,3844.3520,N,00908.2571,W,205911.00,A,*3B
$GPGSA,A,3,,,,,,,,,,,,,0.0,0.0,0.0*32
$GPRMC,205912.00,A,3844.3527,N,00908.2568,W,1.681111,18.532591,130617,,*11
$GPGGA,205912.00,3844.3527,N,00908.2568,W,1,00,0.0,156.281708,M,0.0,M,,*75
$GPGLL,3844.3527,N,00908.2568,W,205912.00,A,*37
$GPGSA,A,3,,,,,,,,,,,,,0.0,0.0,0.0*32
$GPRMC,205913.00,A,3844.3540,N,00908.2580,W,0.959343,326.240018,130617,,*21
$GPGGA,205913.00,3844.3540,N,00908.2580,W,1,00,0.0,154.437210,M,0.0,M,,*76
$GPGLL,3844.3540,N,00908.2580,W,205913.00,A,*31
$GPGSA,A,3,,,,,,,,,,,,,0.0,0.0,0.0*32
$GPRMC,205914.00,A,3844.3550,N,00908.2591,W,1.338484,320.207470,130617,,*28
$GPGGA,205914.00,3844.3550,N,00908.2591,W,1,00,0.0,152.961929,M,0.0,M,,*79
$GPGLL,3844.3550,N,00908.2591,W,205914.00,A,*37
$GPGSA,A,3,,,,,,,,,,,,,0.0,0.0,0.0*32
$GPRMC,205915.00,A,3844.3558,N,00908.2589,W,1.403824,11.198396,130617,,*1A
$GPGGA,205915.00,3844.3558,N,00908.2589,W,1,00,0.0,151.417694,M,0.0,M,,*7F
$GPGLL,3844.3558,N,00908.2589,W,205915.00,A,*37
$GPGSA,A,3,,,,,,,,,,,,,0.0,0.0,0.0*32
$GPRMC,205916.00,A,3844.3561,N,00908.2582,W,1.363796,58.505311,130617,,*1D
$GPGGA,205916.00,3844.3561,N,00908.2582,W,1,00,0.0,151.223358,M,0.0,M,,*79
$GPGLL,3844.3561,N,00908.2582,W,205916.00,A,*35
$GPGSA,A,3,,,,,,,,,,,,,0.0,0.0,0.0*32
$GPRMC,205917.00,A,3844.3571,N,00908.2583,W,1.772822,358.776547,130617,,*28
$GPGGA,205917.00,3844.3571,N,00908.2583,W,1,00,0.0,150.286179,M,0.0,M,,*77
$GPGLL,3844.3571,N,00908.2583,W,205917.00,A,*34
$GPGSA,A,3,,,,,,,,,,,,,0.0,0.0,0.0*32
$GPRMC,205918.00,A,3844.3582,N,00908.2574,W,2.434155,30.713154,130617,,*10
$GPGGA,205918.00,3844.3582,N,00908.2574,W,1,00,0.0,149.369324,M,0.0,M,,*7E
$GPGLL,3844.3582,N,00908.2574,W,205918.00,A,*3F
$GPGSA,A,3,,,,,,,,,,,,,0.0,0.0,0.0*32
$GPRMC,205919.00,A,3844.3589,N,00908.2571,W,2.657427,20.013611,130617,,*18
$GPGGA,205919.00,3844.3589,N,00908.2571,W,1,00,0.0,149.007370,M,0.0,M,,*7B
$GPGLL,3844.3589,N,00908.2571,W,205919.00,A,*30
$GPGSA,A,3,,,,,,,,,,,,,0.0,0.0,0.0*32
$GPRMC,205920.00,A,3844.3597,N,00908.2565,W,1.613704,30.910008,130617,,*1C
$GPGGA,205920.00,3844.3597,N,00908.2565,W,1,00,0.0,148.785217,M,0.0,M,,*77
$GPGLL,3844.3597,N,00908.2565,W,205920.00,A,*30
$GPGSA,A,3,,,,,,,,,,,,,0.0,0.0,0.0*32
$GPRMC,205921.00,A,3844.3602,N,00908.2565,W,1.874618,0.694635,130617,,*29
$GPGGA,205921.00,3844.3602,N,00908.2565,W,1,00,0.0,148.402679,M,0.0,M,,*79
$GPGLL,3844.3602,N,00908.2565,W,205921.00,A,*3E
$GPGSA,A,3,,,,,,,,,,,,,0.0,0.0,0.0*32
$GPRMC,205922.00,A,3844.3614,N,00908.2562,W,3.590768,10.617549,130617,,*1B
$GPGGA,205922.00,3844.3614,N,00908.2562,W,1,00,0.0,148.025757,M,0.0,M,,*76
$GPGLL,3844.3614,N,00908.2562,W,205922.00,A,*3D
$GPGSA,A,3,,,,,,,,,,,,,0.0,0.0,0.0*32
$GPRMC,205923.00,A,3844.3626,N,00908.2554,W,2.600531,28.487403,130617,,*14
$GPGGA,205923.00,3844.3626,N,00908.2554,W,1,00,0.0,147.395844,M,0.0,M,,*79
$GPGLL,3844.3626,N,00908.2554,W,205923.00,A,*38
$GPGSA,A,3,,,,,,,,,,,,,0.0,0.0,0.0*32
$GPRMC,205924.00,A,3844.3636,N,00908.2546,W,1.979221,32.562582,130617,,*1C
$GPGGA,205924.00,3844.3636,N,00908.2546,W,1,00,0.0,147.117126,M,0.0,M,,*79
$GPGLL,3844.3636,N,00908.2546,W,205924.00,A,*3D
$GPGSA,A,3,,,,,,,,,,,,,0.0,0.0,0.0*32
$GPRMC,205925.00,A,3844.3644,N,00908.2536,W,2.245810,42.055121,130617,,*1B
$GPGGA,205925.00,3844.3644,N,00908.2536,W,1,00,0.0,146.865082,M,0.0,M,,*78
$GPGLL,3844.3644,N,00908.2536,W,205925.00,A,*3E
$GPGSA,A,3,,,,,,,,,,,,,0.0,0.0,0.0*32
$GPRMC,205926.00,A,3844.3651,N,00908.2529,W,2.394275,42.015695,130617,,*1A
$GPGGA,205926.00,3844.3651,N,00908.2529,W,1,00,0.0,146.547897,M,0.0,M,,*70
$GPGLL,3844.3651,N,00908.2529,W,205926.00,A,*37
$GPGSA,A,3,,,,,,,,,,,,,0.0,0.0,0.0*32
$GPRMC,205927.00,A,3844.3657,N,00908.2523,W,2.586234,35.125143,130617,,*19
$GPGGA,205927.00,3844.3657,N,00908.2523,W,1,00,0.0,145.975449,M,0.0,M,,*7C
$GPGLL,3844.3657,N,00908.2523,W,205927.00,A,*3A
$GPGSA,A,3,,,,,,,,,,,,,0.0,0.0,0.0*32
$GPRMC,205928.00,A,3844.3666,N,00908.2510,W,2.440980,50.029639,130617,,*1F
$GPGGA,205928.00,3844.3666,N,00908.2510,W,1,00,0.0,144.651154,M,0.0,M,,*70
$GPGLL,3844.3666,N,00908.2510,W,205928.00,A,*37
$GPGSA,A,3,,,,,,,,,,,,,0.0,0.0,0.0*32
$GPRMC,205929.00,A,3844.3675,N,00908.2514,W,1.802541,342.092809,130617,,*2D
$GPGGA,205929.00,3844.3675,N,00908.2514,W,1,00,0.0,143.905151,M,0.0,M,,*7B
$GPGLL,3844.3675,N,00908.2514,W,205929.00,A,*30
$GPGSA,A,3,,,,,,,,,,,,,0.0,0.0,0.0*32
$GPRMC,205930.00,A,3844.3686,N,00908.2516,W,2.082594,349.440843,130617,,*2E
$GPGGA,205930.00,3844.3686,N,00908.2516,W,1,00,0.0,143.161804,M,0.0,M,,*7E
$GPGLL,3844.3686,N,00908.2516,W,205930.00,A,*36
$GPGSA,A,3,,,,,,,,,,,,,0.0,0.0,0.0*32
$GPRMC,205931.00,A,3844.3697,N,00908.2509,W,3.038529,27.845671,130617,,*1A
$GPGGA,205931.00,3844.3697,N,00908.2509,W,1,00,0.0,142.257156,M,0.0,M,,*78
$GPGLL,3844.3697,N,00908.2509,W,205931.00,A,*39
$GPGSA,A,3,,,,,,,,,,,,,0.0,0.0,0.0*32
$GPRMC,205932.00,A,3844.3707,N,00908.2499,W,2.557596,38.620290,130617,,*18
$GPGGA,205932.00,3844.3707,N,00908.2499,W,1,00,0.0,141.977570,M,0.0,M,,*71
$GPGLL,3844.3707,N,00908.2499,W,205932.00,A,*3A
$GPGSA,A,3,,,,,,,,,,,,,0.0,0.0,0.0*32
$GPRMC,205933.00,A,3844.3712,N,00908.2496,W,1.879023,21.674053,130617,,*1F
$GPGGA,205933.00,3844.3712,N,00908.2496,W,1,00,0.0,141.400284,M,0.0,M,,*7A
$GPGLL,3844.3712,N,00908.2496,W,205933.00,A,*30
$GPGSA,A,3,,,,,,,,,,,,,0.0,0.0,0.0*32
$GPRMC,205934.00,A,3844.3718,N,00908.2492,W,2.598898,26.159836,130617,,*1B
$GPGGA,205934.00,3844.3718,N,00908.2492,W,1,00,0.0,140.888870,M,0.0,M,,*7F
$GPGLL,3844.3718,N,00908.2492,W,205934.00,A,*39
$GPGSA,A,3,,,,,,,,,,,,,0.0,0.0,0.0*32
$GPRMC,205935.00,A,3844.3725,N,00908.2487,W,2.828895,35.060942,130617,,*10
$GPGGA,205935.00,3844.3725,N,00908.2487,W,1,00,0.0,140.242844,M,0.0,M,,*7F
$GPGLL,3844.3725,N,00908.2487,W,205935.00,A,*32
$GPGSA,A,3,,,,,,,,,,,,,0.0,0.0,0.0*32
$GPRMC,205936.00,A,3844.3736,N,00908.2478,W,2.070986,31.226886,130617,,*1A
$GPGGA,205936.00,3844.3736,N,00908.2478,W,1,00,0.0,139.262650,M,0.0,M,,*79
$GPGLL,3844.3736,N,00908.2478,W,205936.00,A,*33
$GPGSA,A,3,,,,,,,,,,,,,0.0,0.0,0.0*32
$GPRMC,205937.00,A,3844.3744,N,00908.2471,W,2.664418,33.216921,130617,,*13
$GPGGA,205937.00,3844.3744,N,00908.2471,W,1,00,0.0,138.635605,M,0.0,M,,*73
$GPGLL,3844.3744,N,00908.2471,W,205937.00,A,*3E
$GPGSA,A,3,,,,,,,,,,,,,0.0,0.0,0.0*32
$GPRMC,205938.00,A,3844.3747,N,00908.2472,W,2.724486,333.770088,130617,,*22
$GPGGA,205938.00,3844.3747,N,00908.2472,W,1,00,0.0,138.074524,M,0.0,M,,*7F
$GPGLL,3844.3747,N,00908.2472,W,205938.00,A,*31
$GPGSA,A,3,,,,,,,,,,,,,0.0,0.0,0.0*32
$GPRMC,205939.00,A,3844.3753,N,00908.2466,W,2.228983,35.748929,130617,,*1E
$GPGGA,205939.00,3844.3753,N,00908.2466,W,1,00,0.0,137.384964,M,0.0,M,,*75
$GPGLL,3844.3753,N,00908.2466,W,205939.00,A,*30
$GPGSA,A,3,,,,,,,,,,,,,0.0,0.0,0.0*32
$GPRMC,205940.00,A,3844.3760,N,00908.2464,W,1.663859,12.872024,130617,,*1B
$GPGGA,205940.00,3844.3760,N,00908.2464,W,1,00,0.0,137.285828,M,0.0,M,,*70
$GPGLL,3844.3760,N,00908.2464,W,205940.00,A,*3C
$GPGSA,A,3,,,,,,,,,,,,,0.0,0.0,0.0*32
$GPRMC,205941.00,A,3844.3770,N,00908.2454,W,2.348781,37.730774,130617,,*11
$GPGGA,205941.00,3844.3770,N,00908.2454,W,1,00,0.0,136.982269,M,0.0,M,,*71
$GPGLL,3844.3770,N,00908.2454,W,205941.00,A,*3F
$GPGSA,A,3,,,,,,,,,,,,,0.0,0.0,0.0*32
$GPRMC,205942.00,A,3844.3784,N,00908.2455,W,2.198196,357.320373,130617,,*24
$GPGGA,205942.00,3844.3784,N,00908.2455,W,1,00,0.0,136.259842,M,0.0,M,,*76
$GPGLL,3844.3784,N,00908.2455,W,205942.00,A,*36
$GPGSA,A,3,,,,,,,,,,,,,0.0,0.0,0.0*32
$GPRMC,205943.00,A,3844.3790,N,00908.2454,W,3.140158,5.727555,130617,,*22
$GPGGA,205943.00,3844.3790,N,00908.2454,W,1,00,0.0,135.801559,M,0.0,M,,*70
$GPGLL,3844.3790,N,00908.2454,W,205943.00,A,*33
$GPGSA,A,3,,,,,,,,,,,,,0.0,0.0,0.0*32
$GPRMC,205944.00,A,3844.3797,N,00908.2449,W,2.774667,34.239862,130617,,*14
$GPGGA,205944.00,3844.3797,N,00908.2449,W,1,00,0.0,135.175079,M,0.0,M,,*71
$GPGLL,3844.3797,N,00908.2449,W,205944.00,A,*3F
$GPGSA,A,3,,,,,,,,,,,,,0.0,0.0,0.0*32
$GPRMC,205945.00,A,3844.3810,N,00908.2446,W,1.964050,8.708161,130617,,*26
$GPGGA,205945.00,3844.3810,N,00908.2446,W,1,00,0.0,133.282242,M,0.0,M,,*78
$GPGLL,3844.3810,N,00908.2446,W,205945.00,A,*31
$GPGSA,A,3,,,,,,,,,,,,,0.0,0.0,0.0*32
$GPRMC,205946.00,A,3844.3817,N,00908.2437,W,1.728647,47.040132,130617,,*14
$GPGGA,205946.00,3844.3817,N,00908.2437,W,1,00,0.0,133.032837,M,0.0,M,,*7B
$GPGLL,3844.3817,N,00908.2437,W,205946.00,A,*33
$GPGSA,A,3,,,,,,,,,,,,,0.0,0.0,0.0*32
$GPRMC,205947.00,A,3844.3818,N,00908.2430,W,2.587487,77.161247,130617,,*17
$GPGGA,205947.00,3844.3818,N,00908.2430,W,1,00,0.0,132.171097,M,0.0,M,,*77
$GPGLL,3844.3818,N,00908.2430,W,205947.00,A,*3A
$GPGSA,A,3,,,,,,,,,,,,,0.0,0.0,0.0*32
$GPRMC,205948.00,A,3844.3821,N,00908.2422,W,2.217982,60.344460,130617,,*17
$GPGGA,205948.00,3844.3821,N,00908.2422,W,1,00,0.0,131.245377,M,0.0,M,,*7B
$GPGLL,3844.3821,N,00908.2422,W,205948.00,A,*3C
$GPGSA,A,3,,,,,,,,,,,,,0.0,0.0,0.0*32
$GPRMC,205949.00,A,3844.3827,N,00908.2418,W,2.528456,30.341478,130617,,*1F
$GPGGA,205949.00,3844.3827,N,00908.2418,W,1,00,0.0,130.984940,M,0.0,M,,*7C
$GPGLL,3844.3827,N,00908.2418,W,205949.00,A,*32
$GPGSA,A,3,,,,,,,,,,,,,0.0,0.0,0.0*32
$GPRMC,205950.00,A,3844.3831,N,00908.2416,W,1.968376,14.396164,130617,,*14
$GPGGA,205950.00,3844.3831,N,00908.2416,W,1,00,0.0,130.684540,M,0.0,M,,*7E
$GPGLL,3844.3831,N,00908.2416,W,205950.00,A,*33
$GPGSA,A,3,,,,,,,,,,,,,0.0,0.0,0.0*32
$GPRMC,205951.00,A,3844.3833,N,00908.2407,W,2.201208,78.737650,130617,,*1D
$GPGGA,205951.00,3844.3833,N,00908.2407,W,1,00,0.0,130.703262,M,0.0,M,,*74
$GPGLL,3844.3833,N,00908.2407,W,205951.00,A,*30
$GPGSA,A,3,,,,,,,,,,,,,0.0,0.0,0.0*32
$GPRMC,205952.00,A,3844.3837,N,00908.2407,W,2.458731,354.545898,130617,,*2F
$GPGGA,205952.00,3844.3837,N,00908.2407,W,1,00,0.0,131.095001,M,0.0,M,,*7D
$GPGLL,3844.3837,N,00908.2407,W,205952.00,A,*37
$GPGSA,A,3,,,,,,,,,,,,,0.0,0.0,0.0*32
$GPRMC,205953.00,A,3844.3845,N,00908.2402,W,1.898452,28.026189,130617,,*1A
$GPGGA,205953.00,3844.3845,N,00908.2402,W,1,00,0.0,130.780579,M,0.0,M,,*74
$GPGLL,3844.3845,N,00908.2402,W,205953.00,A,*36
$GPGSA,A,3,,,,,,,,,,,,,0.0,0.0,0.0*32
$GPRMC,205954.00,A,3844.3853,N,00908.2397,W,2.185744,25.198299,130617,,*18
$GPGGA,205954.00,3844.3853,N,00908.2397,W,1,00,0.0,130.571747,M,0.0,M,,*7C
$GPGLL,3844.3853,N,00908.2397,W,205954.00,A,*3D
$GPGSA,A,3,,,,,,,,,,,,,0.0,0.0,0.0*32
$GPRMC,205955.00,A,3844.3856,N,00908.2390,W,2.255577,57.507720,130617,,*17
$GPGGA,205955.00,3844.3856,N,00908.2390,W,1,00,0.0,129.680832,M,0.0,M,,*77
$GPGLL,3844.3856,N,00908.2390,W,205955.00,A,*3E
$GPGSA,A,3,,,,,,,,,,,,,0.0,0.0,0.0*32
$GPRMC,205956.00,A,3844.3864,N,00908.2386,W,1.533246,25.585637,130617,,*1B
$GPGGA,205956.00,3844.3864,N,00908.2386,W,1,00,0.0,128.188248,M,0.0,M,,*7B
$GPGLL,3844.3864,N,00908.2386,W,205956.00,A,*3B
$GPGSA,A,3,,,,,,,,,,,,,0.0,0.0,0.0*32
$GPRMC,205957.00,A,3844.3866,N,00908.2396,W,1.358731,287.869320,130617,,*21
$GPGGA,205957.00,3844.3866,N,00908.2396,W,1,00,0.0,128.917252,M,0.0,M,,*7C
$GPGLL,3844.3866,N,00908.2396,W,205957.00,A,*39
$GPGSA,A,3,,,,,,,,,,,,,0.0,0.0,0.0*32
$GPRMC,205958.00,A,3844.3875,N,00908.2398,W,1.982942,349.912977,130617,,*23
$GPGGA,205958.00,3844.3875,N,00908.2398,W,1,00,0.0,128.493179,M,0.0,M,,*74
$GPGLL,3844.3875,N,00908.2398,W,205958.00,A,*3A
$GPGSA,A,3,,,,,,,,,,,,,0.0,0.0,0.0*32
$GPRMC,205959.00,A,3844.3887,N,00908.2404,W,2.246975,339.224322,130617,,*2A
$GPGGA,205959.00,3844.3887,N,00908.2404,W,1,00,0.0,128.981430,M,0.0,M,,*7C
$GPGLL,3844.3887,N,00908.2404,W,205959.00,A,*34
$GPGSA,A,3,,,,,,,,,,,,,0.0,0.0,0.0*32
$GPRMC,210000.00,A,3844.3891,N,00908.2401,W,1.640292,27.849620,130617,,*10
$GPGGA,210000.00,3844.3891,N,00908.2401,W,1,00,0.0,128.351471,M,0.0,M,,*7D
$GPGLL,3844.3891,N,00908.2401,W,210000.00,A,*37
$GPGSA,A,3,,,,,,,,,,,,,0.0,0.0,0.0*32
$GPRMC,210001.00,A,3844.3894,N,00908.2399,W,1.507806,30.653567,130617,,*16
$GPGGA,210001.00,3844.3894,N,00908.2399,W,1,00,0.0,127.913498,M,0.0,M,,*7B
$GPGLL,3844.3894,N,00908.2399,W,210001.00,A,*35
$GPGSA,A,3,,,,,,,,,,,,,0.0,0.0,0.0*32
$GPRMC,210002.00,A,3844.3897,N,00908.2399,W,1.544038,356.708283,130617,,*25
$GPGGA,210002.00,3844.3897,N,00908.2399,W,1,00,0.0,128.025085,M,0.0,M,,*70
$GPGLL,3844.3897,N,00908.2399,W,210002.00,A,*35
$GPGSA,A,3,,,,,,,,,,,,,0.0,0.0,0.0*32
$GPRMC,210003.00,A,3844.3905,N,00908.2400,W,1.548821,353.816611,130617,,*2F
$GPGGA,210003.00,3844.3905,N,00908.2400,W,1,00,0.0,127.875099,M,0.0,M,,*73
$GPGLL,3844.3905,N,00908.2400,W,210003.00,A,*39
$GPGSA,A,3,,,,,,,,,,,,,0.0,0.0,0.0*32
$GPRMC,210004.00,A,3844.3912,N,00908.2400,W,1.707299,357.372448,130617,,*2D
$GPGGA,210004.00,3844.3912,N,00908.2400,W,1,00,0.0,127.421829,M,0.0,M,,*7C
$GPGLL,3844.3912,N,00908.2400,W,210004.00,A,*38
$GPGSA,A,3,,,,,,,,,,,,,0.0,0.0,0.0*32
$GPRMC,210005.00,A,3844.3918,N,00908.2400,W,2.132301,1.296654,130617,,*21
$GPGGA,210005.00,3844.3918,N,00908.2400,W,1,00,0.0,127.510315,M,0.0,M,,*70
$GPGLL,3844.3918,N,00908.2400,W,210005.00,A,*33
$GPGSA,A,3,,,,,,,,,,,,,0.0,0.0,0.0*32
$GPRMC,210006.00,A,3844.3924,N,00908.2405,W,2.184136,326.727726,130617,,*2E
$GPGGA,210006.00,3844.3924,N,00908.2405,W,1,00,0.0,127.839005,M,0.0,M,,*7D
$GPGLL,3844.3924,N,00908.2405,W,210006.00,A,*3A
$GPGSA,A,3,,,,,,,,,,,,,0.0,0.0,0.0*32
$GPRMC,210007.00,A,3844.3937,N,00908.2408,W,2.332303,349.491823,130617,,*26
$GPGGA,210007.00,3844.3937,N,00908.2408,W,1,00,0.0,128.048828,M,0.0,M,,*75
$GPGLL,3844.3937,N,00908.2408,W,210007.00,A,*34
$GPGSA,A,3,,,,,,,,,,,,,0.0,0.0,0.0*32
$GPRMC,210008.00,A,3844.3949,N,00908.2407,W,2.511675,5.478404,130617,,*29
$GPGGA,210008.00,3844.3949,N,00908.2407,W,1,00,0.0,127.967201,M,0.0,M,,*76
$GPGLL,3844.3949,N,00908.2407,W,210008.00,A,*3D
$GPGSA,A,3,,,,,,,,,,,,,0.0,0.0,0.0*32
$GPRMC,210009.00,A,3844.3957,N,00908.2407,W,1.574216,359.780962,130617,,*25
$GPGGA,210009.00,3844.3957,N,00908.2407,W,1,00,0.0,127.829643,M,0.0,M,,*71
$GPGLL,3844.3957,N,00908.2407,W,210009.00,A,*33
$GPGSA,A,3,,,,,,,,,,,,,0.0,0.0,0.0*32
$GPRMC,210010.00,A,3844.3966,N,00908.2411,W,2.233442,340.879212,130617,,*25
$GPGGA,210010.00,3844.3966,N,00908.2411,W,1,00,0.0,128.089127,M,0.0,M,,*74
$GPGLL,3844.3966,N,00908.2411,W,210010.00,A,*3E
$GPGSA,A,3,,,,,,,,,,,,,0.0,0.0,0.0*32
$GPRMC,210011.00,A,3844.3975,N,00908.2407,W,2.020291,18.680609,130617,,*11
$GPGGA,210011.00,3844.3975,N,00908.2407,W,1,00,0.0,127.192795,M,0.0,M,,*7B
$GPGLL,3844.3975,N,00908.2407,W,210011.00,A,*3A
$GPGSA,A,3,,,,,,,,,,,,,0.0,0.0,0.0*32
$GPRMC,210012.00,A,3844.3981,N,00908.2407,W,2.159414,3.418989,130617,,*23
$GPGGA,210012.00,3844.3981,N,00908.2407,W,1,00,0.0,127.065758,M,0.0,M,,*7B
$GPGLL,3844.3981,N,00908.2407,W,210012.00,A,*32
$GPGSA,A,3,,,,,,,,,,,,,0.0,0.0,0.0*32
$GPRMC,210013.00,A,3844.3993,N,00908.2406,W,2.089857,1.991478,130617,,*2A
$GPGGA,210013.00,3844.3993,N,00908.2406,W,1,00,0.0,126.915009,M,0.0,M,,*74
$GPGLL,3844.3993,N,00908.2406,W,210013.00,A,*31
$GPGSA,A,3,,,,,,,,,,,,,0.0,0.0,0.0*32
$GPRMC,210014.00,A,3844.4003,N,00908.2407,W,1.527997,354.444905,130617,,*25
$GPGGA,210014.00,3844.4003,N,00908.2407,W,1,00,0.0,127.483803,M,0.0,M,,*74
$GPGLL,3844.4003,N,00908.2407,W,210014.00,A,*30
$GPGSA,A,3,,,,,,,,,,,,,0.0,0.0,0.0*32
$GPRMC,210015.00,A,3844.4009,N,00908.2405,W,0.642231,16.870806,130617,,*16
$GPGGA,210015.00,3844.4009,N,00908.2405,W,1,00,0.0,127.051483,M,0.0,M,,*72
$GPGLL,3844.4009,N,00908.2405,W,210015.00,A,*39
$GPGSA,A,3,,,,,,,,,,,,,0.0,0.0,0.0*32
$GPRMC,210016.00,A,3844.4016,N,00908.2408,W,1.472775,341.259898,130617,,*24
$GPGGA,210016.00,3844.4016,N,00908.2408,W,1,00,0.0,126.478546,M,0.0,M,,*74
$GPGLL,3844.4016,N,00908.2408,W,210016.00,A,*39
$GPGSA,A,3,,,,,,,,,,,,,0.0,0.0,0.0*32
$GPRMC,210017.00,A,3844.4021,N,00908.2407,W,1.237714,18.330966,130617,,*1F
$GPGGA,210017.00,3844.4021,N,00908.2407,W,1,00,0.0,125.517128,M,0.0,M,,*79
$GPGLL,3844.4021,N,00908.2407,W,210017.00,A,*33
$GPGSA,A,3,,,,,,,,,,,,,0.0,0.0,0.0*32
$GPRMC,210018.00,A,3844.4028,N,00908.2408,W,1.643198,350.104578,130617,,*2A
$GPGGA,210018.00,3844.4028,N,00908.2408,W,1,00,0.0,125.581825,M,0.0,M,,*7B
$GPGLL,3844.4028,N,00908.2408,W,210018.00,A,*3A
$GPGSA,A,3,,,,,,,,,,,,,0.0,0.0,0.0*32
$GPRMC,210019.00,A,3844.4036,N,00908.2404,W,2.044376,24.332545,130617,,*11
$GPGGA,210019.00,3844.4036,N,00908.2404,W,1,00,0.0,124.940895,M,0.0,M,,*72
$GPGLL,3844.4036,N,00908.2404,W,210019.00,A,*38
$GPGSA,A,3,,,,,,,,,,,,,0.0,0.0,0.0*32
$GPRMC,210020.00,A,3844.4041,N,00908.2405,W,2.119823,344.262345,130617,,*2F
$GPGGA,210020.00,3844.4041,N,00908.2405,W,1,00,0.0,125.827194,M,0.0,M,,*70
$GPGLL,3844.4041,N,00908.2405,W,210020.00,A,*33
$GPGSA,A,3,,,,,,,,,,,,,0.0,0.0,0.0*32
$GPRMC,210021.00,A,3844.4048,N,00908.2406,W,2.193681,353.967466,130617,,*2E
$GPGGA,210021.00,3844.4048,N,00908.2406,W,1,00,0.0,125.707291,M,0.0,M,,*70
$GPGLL,3844.4048,N,00908.2406,W,210021.00,A,*38
$GPGSA,A,3,,,,,,,,,,,,,0.0,0.0,0.0*32
