$GPRMC,200406.00,A,3844.2870,N,00908.3433,W,1.583622,0.000000,060617,,*2E
$GPGGA,200406.00,3844.2870,N,00908.3433,W,1,00,0.0,140.376709,M,0.0,M,,*77
$GPGLL,3844.2870,N,00908.3433,W,200406.00,A,*3A
$GPGSA,A,3,,,,,,,,,,,,,0.0,0.0,0.0*32
$GPRMC,200422.00,A,3844.2875,N,00908.3420,W,0.665018,63.822734,060617,,*17
$GPGGA,200422.00,3844.2875,N,00908.3420,W,1,00,0.0,132.107224,M,0.0,M,,*7D
$GPGLL,3844.2875,N,00908.3420,W,200422.00,A,*3B
$GPGSA,A,3,,,,,,,,,,,,,0.0,0.0,0.0*32
$GPRMC,200423.00,A,3844.2871,N,00908.3416,W,1.154097,137.779384,060617,,*2A
$GPGGA,200423.00,3844.2871,N,00908.3416,W,1,00,0.0,131.917862,M,0.0,M,,*7F
$GPGLL,3844.2871,N,00908.3416,W,200423.00,A,*3B
$GPGSA,A,3,,,,,,,,,,,,,0.0,0.0,0.0*32
$GPRMC,200424.00,A,3844.2872,N,00908.3409,W,1.624130,80.677007,060617,,*16
$GPGGA,200424.00,3844.2872,N,00908.3409,W,1,00,0.0,131.582916,M,0.0,M,,*77
$GPGLL,3844.2872,N,00908.3409,W,200424.00,A,*31
$GPGSA,A,3,,,,,,,,,,,,,0.0,0.0,0.0*32
$GPRMC,200425.00,A,3844.2873,N,00908.3396,W,1.955054,88.141178,060617,,*1E
$GPGGA,200425.00,3844.2873,N,00908.3396,W,1,00,0.0,131.812714,M,0.0,M,,*7E
$GPGLL,3844.2873,N,00908.3396,W,200425.00,A,*30
$GPGSA,A,3,,,,,,,,,,,,,0.0,0.0,0.0*32
$GPRMC,200426.00,A,3844.2874,N,00908.3384,W,2.657678,80.065533,060617,,*1B
$GPGGA,200426.00,3844.2874,N,00908.3384,W,1,00,0.0,131.716370,M,0.0,M,,*74
$GPGLL,3844.2874,N,00908.3384,W,200426.00,A,*37
$GPGSA,A,3,,,,,,,,,,,,,0.0,0.0,0.0*32
$GPRMC,200427.00,A,3844.2877,N,00908.3369,W,2.790562,75.894054,060617,,*10
$GPGGA,200427.00,3844.2877,N,00908.3369,W,1,00,0.0,132.164215,M,0.0,M,,*77
$GPGLL,3844.2877,N,00908.3369,W,200427.00,A,*36
$GPGSA,A,3,,,,,,,,,,,,,0.0,0.0,0.0*32
$GPRMC,200428.00,A,3844.2877,N,00908.3358,W,2.801235,89.441935,060617,,*16
$GPGGA,200428.00,3844.2877,N,00908.3358,W,1,00,0.0,132.247345,M,0.0,M,,*7C
$GPGLL,3844.2877,N,00908.3358,W,200428.00,A,*3B
$GPGSA,A,3,,,,,,,,,,,,,0.0,0.0,0.0*32
$GPRMC,200429.00,A,3844.2879,N,00908.3348,W,2.720890,80.232554,060617,,*11
$GPGGA,200429.00,3844.2879,N,00908.3348,W,1,00,0.0,132.307251,M,0.0,M,,*73
$GPGLL,3844.2879,N,00908.3348,W,200429.00,A,*35
$GPGSA,A,3,,,,,,,,,,,,,0.0,0.0,0.0*32
$GPRMC,200430.00,A,3844.2877,N,00908.3338,W,1.977095,99.631058,060617,,*14
$GPGGA,200430.00,3844.2877,N,00908.3338,W,1,00,0.0,132.353577,M,0.0,M,,*70
$GPGLL,3844.2877,N,00908.3338,W,200430.00,A,*34
$GPGSA,A,3,,,,,,,,,,,,,0.0,0.0,0.0*32
$GPRMC,200431.00,A,3844.2877,N,00908.3331,W,1.756314,88.732585,060617,,*1C
$GPGGA,200431.00,3844.2877,N,00908.3331,W,1,00,0.0,132.372375,M,0.0,M,,*7F
$GPGLL,3844.2877,N,00908.3331,W,200431.00,A,*3C
$GPGSA,A,3,,,,,,,,,,,,,0.0,0.0,0.0*32
$GPRMC,200432.00,A,3844.2880,N,00908.3326,W,1.251223,59.225769,060617,,*19
$GPGGA,200432.00,3844.2880,N,00908.3326,W,1,00,0.0,132.187042,M,0.0,M,,*7D
$GPGLL,3844.2880,N,00908.3326,W,200432.00,A,*31
$GPGSA,A,3,,,,,,,,,,,,,0.0,0.0,0.0*32
$GPRMC,200433.00,A,3844.2876,N,00908.3322,W,1.138237,140.381124,060617,,*25
$GPGGA,200433.00,3844.2876,N,00908.3322,W,1,00,0.0,132.253296,M,0.0,M,,*70
$GPGLL,3844.2876,N,00908.3322,W,200433.00,A,*3D
$GPGSA,A,3,,,,,,,,,,,,,0.0,0.0,0.0*32
$GPRMC,200434.00,A,3844.2882,N,00908.3320,W,1.082058,11.073010,060617,,*1D
$GPGGA,200434.00,3844.2882,N,00908.3320,W,1,00,0.0,132.461380,M,0.0,M,,*7F
$GPGLL,3844.2882,N,00908.3320,W,200434.00,A,*33
$GPGSA,A,3,,,,,,,,,,,,,0.0,0.0,0.0*32
$GPRMC,200435.00,A,3844.2887,N,00908.3318,W,1.205433,20.848825,060617,,*1A
$GPGGA,200435.00,3844.2887,N,00908.3318,W,1,00,0.0,132.296173,M,0.0,M,,*70
$GPGLL,3844.2887,N,00908.3318,W,200435.00,A,*3C
$GPGSA,A,3,,,,,,,,,,,,,0.0,0.0,0.0*32
$GPRMC,200436.00,A,3844.2889,N,00908.3315,W,1.236522,44.020168,060617,,*1F
$GPGGA,200436.00,3844.2889,N,00908.3315,W,1,00,0.0,132.329849,M,0.0,M,,*75
$GPGLL,3844.2889,N,00908.3315,W,200436.00,A,*3C
$GPGSA,A,3,,,,,,,,,,,,,0.0,0.0,0.0*32
$GPRMC,200437.00,A,3844.2893,N,00908.3314,W,1.224531,8.976136,060617,,*2C
$GPGGA,200437.00,3844.2893,N,00908.3314,W,1,00,0.0,132.505798,M,0.0,M,,*75
$GPGLL,3844.2893,N,00908.3314,W,200437.00,A,*37
$GPGSA,A,3,,,,,,,,,,,,,0.0,0.0,0.0*32
$GPRMC,200438.00,A,3844.2895,N,00908.3314,W,1.080660,0.379563,060617,,*27
$GPGGA,200438.00,3844.2895,N,00908.3314,W,1,00,0.0,132.524933,M,0.0,M,,*70
$GPGLL,3844.2895,N,00908.3314,W,200438.00,A,*3E
$GPGSA,A,3,,,,,,,,,,,,,0.0,0.0,0.0*32
$GPRMC,200439.00,A,3844.2907,N,00908.3306,W,1.697893,27.526171,060617,,*13
$GPGGA,200439.00,3844.2907,N,00908.3306,W,1,00,0.0,132.453751,M,0.0,M,,*73
$GPGLL,3844.2907,N,00908.3306,W,200439.00,A,*36
$GPGSA,A,3,,,,,,,,,,,,,0.0,0.0,0.0*32
$GPRMC,200440.00,A,3844.2904,N,00908.3297,W,2.072695,110.699908,060617,,*25
$GPGGA,200440.00,3844.2904,N,00908.3297,W,1,00,0.0,132.124954,M,0.0,M,,*79
$GPGLL,3844.2904,N,00908.3297,W,200440.00,A,*32
$GPGSA,A,3,,,,,,,,,,,,,0.0,0.0,0.0*32
$GPRMC,200441.00,A,3844.2909,N,00908.3290,W,1.714536,49.247322,060617,,*18
$GPGGA,200441.00,3844.2909,N,00908.3290,W,1,00,0.0,132.441956,M,0.0,M,,*76
$GPGLL,3844.2909,N,00908.3290,W,200441.00,A,*39
$GPGSA,A,3,,,,,,,,,,,,,0.0,0.0,0.0*32
$GPRMC,200442.00,A,3844.2911,N,00908.3282,W,1.850548,67.987175,060617,,*1C
$GPGGA,200442.00,3844.2911,N,00908.3282,W,1,00,0.0,132.418472,M,0.0,M,,*78
$GPGLL,3844.2911,N,00908.3282,W,200442.00,A,*30
$GPGSA,A,3,,,,,,,,,,,,,0.0,0.0,0.0*32
$GPRMC,200443.00,A,3844.2914,N,00908.3275,W,2.339356,63.868557,060617,,*1E
$GPGGA,200443.00,3844.2914,N,00908.3275,W,1,00,0.0,132.660858,M,0.0,M,,*7D
$GPGLL,3844.2914,N,00908.3275,W,200443.00,A,*3C
$GPGSA,A,3,,,,,,,,,,,,,0.0,0.0,0.0*32
$GPRMC,200444.00,A,3844.2915,N,00908.3266,W,1.930892,78.426778,060617,,*1A
$GPGGA,200444.00,3844.2915,N,00908.3266,W,1,00,0.0,132.795319,M,0.0,M,,*7C
$GPGLL,3844.2915,N,00908.3266,W,200444.00,A,*38
$GPGSA,A,3,,,,,,,,,,,,,0.0,0.0,0.0*32
$GPRMC,200445.00,A,3844.2916,N,00908.3258,W,2.269459,82.393536,060617,,*1E
$GPGGA,200445.00,3844.2916,N,00908.3258,W,1,00,0.0,132.789383,M,0.0,M,,*7D
$GPGLL,3844.2916,N,00908.3258,W,200445.00,A,*37
$GPGSA,A,3,,,,,,,,,,,,,0.0,0.0,0.0*32
$GPRMC,200446.00,A,3844.2918,N,00908.3248,W,2.346691,80.315813,060617,,*1E
$GPGGA,200446.00,3844.2918,N,00908.3248,W,1,00,0.0,132.737564,M,0.0,M,,*7B
$GPGLL,3844.2918,N,00908.3248,W,200446.00,A,*3B
$GPGSA,A,3,,,,,,,,,,,,,0.0,0.0,0.0*32
$GPRMC,200447.00,A,3844.2917,N,00908.3238,W,2.627187,95.003365,060617,,*1F
$GPGGA,200447.00,3844.2917,N,00908.3238,W,1,00,0.0,133.034851,M,0.0,M,,*7C
$GPGLL,3844.2917,N,00908.3238,W,200447.00,A,*32
$GPGSA,A,3,,,,,,,,,,,,,0.0,0.0,0.0*32
$GPRMC,200448.00,A,3844.2921,N,00908.3230,W,1.940767,57.175503,060617,,*10
$GPGGA,200448.00,3844.2921,N,00908.3230,W,1,00,0.0,133.217392,M,0.0,M,,*79
$GPGLL,3844.2921,N,00908.3230,W,200448.00,A,*30
$GPGSA,A,3,,,,,,,,,,,,,0.0,0.0,0.0*32
$GPRMC,200449.00,A,3844.2922,N,00908.3224,W,1.782131,80.132712,060617,,*19
$GPGGA,200449.00,3844.2922,N,00908.3224,W,1,00,0.0,133.097641,M,0.0,M,,*7F
$GPGLL,3844.2922,N,00908.3224,W,200449.00,A,*37
$GPGSA,A,3,,,,,,,,,,,,,0.0,0.0,0.0*32
$GPRMC,200450.00,A,3844.2925,N,00908.3214,W,2.155863,64.888553,060617,,*11
$GPGGA,200450.00,3844.2925,N,00908.3214,W,1,00,0.0,133.014740,M,0.0,M,,*78
$GPGLL,3844.2925,N,00908.3214,W,200450.00,A,*3B
$GPGSA,A,3,,,,,,,,,,,,,0.0,0.0,0.0*32
$GPRMC,200451.00,A,3844.2928,N,00908.3207,W,2.320077,66.599861,060617,,*11
$GPGGA,200451.00,3844.2928,N,00908.3207,W,1,00,0.0,133.136108,M,0.0,M,,*7D
$GPGLL,3844.2928,N,00908.3207,W,200451.00,A,*35
$GPGSA,A,3,,,,,,,,,,,,,0.0,0.0,0.0*32
$GPRMC,200452.00,A,3844.2928,N,00908.3203,W,1.509511,76.648595,060617,,*15
$GPGGA,200452.00,3844.2928,N,00908.3203,W,1,00,0.0,132.435684,M,0.0,M,,*7E
$GPGLL,3844.2928,N,00908.3203,W,200452.00,A,*32
$GPGSA,A,3,,,,,,,,,,,,,0.0,0.0,0.0*32
$GPRMC,200453.00,A,3844.2933,N,00908.3200,W,1.929816,33.488198,060617,,*1F
$GPGGA,200453.00,3844.2933,N,00908.3200,W,1,00,0.0,132.961044,M,0.0,M,,*70
$GPGLL,3844.2933,N,00908.3200,W,200453.00,A,*3A
$GPGSA,A,3,,,,,,,,,,,,,0.0,0.0,0.0*32
$GPRMC,200454.00,A,3844.2938,N,00908.3200,W,1.685006,356.484628,060617,,*23
$GPGGA,200454.00,3844.2938,N,00908.3200,W,1,00,0.0,133.401932,M,0.0,M,,*7E
$GPGLL,3844.2938,N,00908.3200,W,200454.00,A,*36
$GPGSA,A,3,,,,,,,,,,,,,0.0,0.0,0.0*32
$GPRMC,200455.00,A,3844.2945,N,00908.3193,W,2.757480,37.408812,060617,,*11
$GPGGA,200455.00,3844.2945,N,00908.3193,W,1,00,0.0,133.591141,M,0.0,M,,*78
$GPGLL,3844.2945,N,00908.3193,W,200455.00,A,*34
$GPGSA,A,3,,,,,,,,,,,,,0.0,0.0,0.0*32
$GPRMC,200456.00,A,3844.2956,N,00908.3182,W,2.454198,38.391259,060617,,*11
$GPGGA,200456.00,3844.2956,N,00908.3182,W,1,00,0.0,133.499069,M,0.0,M,,*7B
$GPGLL,3844.2956,N,00908.3182,W,200456.00,A,*35
$GPGSA,A,3,,,,,,,,,,,,,0.0,0.0,0.0*32
$GPRMC,200457.00,A,3844.2963,N,00908.3180,W,2.312250,14.778679,060617,,*1D
$GPGGA,200457.00,3844.2963,N,00908.3180,W,1,00,0.0,133.876434,M,0.0,M,,*7F
$GPGLL,3844.2963,N,00908.3180,W,200457.00,A,*30
$GPGSA,A,3,,,,,,,,,,,,,0.0,0.0,0.0*32
$GPRMC,200458.00,A,3844.2973,N,00908.3166,W,2.319122,46.730509,060617,,*19
$GPGGA,200458.00,3844.2973,N,00908.3166,W,1,00,0.0,133.777542,M,0.0,M,,*77
$GPGLL,3844.2973,N,00908.3166,W,200458.00,A,*36
$GPGSA,A,3,,,,,,,,,,,,,0.0,0.0,0.0*32
$GPRMC,200459.00,A,3844.2982,N,00908.3162,W,2.076161,23.724816,060617,,*1A
$GPGGA,200459.00,3844.2982,N,00908.3162,W,1,00,0.0,133.885483,M,0.0,M,,*72
$GPGLL,3844.2982,N,00908.3162,W,200459.00,A,*3D
$GPGSA,A,3,,,,,,,,,,,,,0.0,0.0,0.0*32
$GPRMC,200500.00,A,3844.2997,N,00908.3166,W,1.817434,347.634992,060617,,*22
$GPGGA,200500.00,3844.2997,N,00908.3166,W,1,00,0.0,134.615463,M,0.0,M,,*71
$GPGLL,3844.2997,N,00908.3166,W,200500.00,A,*30
$GPGSA,A,3,,,,,,,,,,,,,0.0,0.0,0.0*32
$GPRMC,200501.00,A,3844.3005,N,00908.3167,W,1.693531,353.774055,060617,,*25
$GPGGA,200501.00,3844.3005,N,00908.3167,W,1,00,0.0,134.864578,M,0.0,M,,*71
$GPGLL,3844.3005,N,00908.3167,W,200501.00,A,*33
$GPGSA,A,3,,,,,,,,,,,,,0.0,0.0,0.0*32
$GPRMC,200502.00,A,3844.3015,N,00908.3166,W,2.397519,4.268436,060617,,*26
$GPGGA,200502.00,3844.3015,N,00908.3166,W,1,00,0.0,134.917511,M,0.0,M,,*78
$GPGLL,3844.3015,N,00908.3166,W,200502.00,A,*30
$GPGSA,A,3,,,,,,,,,,,,,0.0,0.0,0.0*32
$GPRMC,200503.00,A,3844.3023,N,00908.3163,W,2.469107,17.371092,060617,,*1B
$GPGGA,200503.00,3844.3023,N,00908.3163,W,1,00,0.0,134.886993,M,0.0,M,,*76
$GPGLL,3844.3023,N,00908.3163,W,200503.00,A,*31
$GPGSA,A,3,,,,,,,,,,,,,0.0,0.0,0.0*32
$GPRMC,200504.00,A,3844.3028,N,00908.3160,W,2.010470,22.345046,060617,,*13
$GPGGA,200504.00,3844.3028,N,00908.3160,W,1,00,0.0,134.930618,M,0.0,M,,*79
$GPGLL,3844.3028,N,00908.3160,W,200504.00,A,*3E
$GPGSA,A,3,,,,,,,,,,,,,0.0,0.0,0.0*32
$GPRMC,200505.00,A,3844.3036,N,00908.3156,W,1.845983,21.523465,060617,,*12
$GPGGA,200505.00,3844.3036,N,00908.3156,W,1,00,0.0,135.005447,M,0.0,M,,*74
$GPGLL,3844.3036,N,00908.3156,W,200505.00,A,*35
$GPGSA,A,3,,,,,,,,,,,,,0.0,0.0,0.0*32
$GPRMC,200506.00,A,3844.3041,N,00908.3154,W,1.124930,18.722358,060617,,*15
$GPGGA,200506.00,3844.3041,N,00908.3154,W,1,00,0.0,135.125336,M,0.0,M,,*77
$GPGLL,3844.3041,N,00908.3154,W,200506.00,A,*34
$GPGSA,A,3,,,,,,,,,,,,,0.0,0.0,0.0*32
$GPRMC,200507.00,A,3844.3045,N,00908.3155,W,0.811386,348.225535,060617,,*21
$GPGGA,200507.00,3844.3045,N,00908.3155,W,1,00,0.0,135.122925,M,0.0,M,,*7C
$GPGLL,3844.3045,N,00908.3155,W,200507.00,A,*30
$GPGSA,A,3,,,,,,,,,,,,,0.0,0.0,0.0*32
$GPRMC,200508.00,A,3844.3052,N,00908.3160,W,1.663868,329.773196,060617,,*23
$GPGGA,200508.00,3844.3052,N,00908.3160,W,1,00,0.0,135.583801,M,0.0,M,,*7B
$GPGLL,3844.3052,N,00908.3160,W,200508.00,A,*3F
$GPGSA,A,3,,,,,,,,,,,,,0.0,0.0,0.0*32
$GPRMC,200509.00,A,3844.3054,N,00908.3167,W,1.313897,292.680078,060617,,*2C
$GPGGA,200509.00,3844.3054,N,00908.3167,W,1,00,0.0,135.836166,M,0.0,M,,*70
$GPGLL,3844.3054,N,00908.3167,W,200509.00,A,*3F
$GPGSA,A,3,,,,,,,,,,,,,0.0,0.0,0.0*32
$GPRMC,200510.00,A,3844.3067,N,00908.3164,W,1.158107,8.934221,060617,,*25
$GPGGA,200510.00,3844.3067,N,00908.3164,W,1,00,0.0,136.165741,M,0.0,M,,*74
$GPGLL,3844.3067,N,00908.3164,W,200510.00,A,*34
$GPGSA,A,3,,,,,,,,,,,,,0.0,0.0,0.0*32
$GPRMC,200511.00,A,3844.3074,N,00908.3164,W,0.857754,357.477266,060617,,*21
$GPGGA,200511.00,3844.3074,N,00908.3164,W,1,00,0.0,136.460083,M,0.0,M,,*7E
$GPGLL,3844.3074,N,00908.3164,W,200511.00,A,*37
$GPGSA,A,3,,,,,,,,,,,,,0.0,0.0,0.0*32
$GPRMC,200512.00,A,3844.3075,N,00908.3171,W,1.011648,281.872412,060617,,*26
$GPGGA,200512.00,3844.3075,N,00908.3171,W,1,00,0.0,136.613678,M,0.0,M,,*7C
$GPGLL,3844.3075,N,00908.3171,W,200512.00,A,*31
$GPGSA,A,3,,,,,,,,,,,,,0.0,0.0,0.0*32
$GPRMC,200513.00,A,3844.3076,N,00908.3177,W,1.303449,274.617710,060617,,*27
$GPGGA,200513.00,3844.3076,N,00908.3177,W,1,00,0.0,137.096924,M,0.0,M,,*74
$GPGLL,3844.3076,N,00908.3177,W,200513.00,A,*35
$GPGSA,A,3,,,,,,,,,,,,,0.0,0.0,0.0*32
$GPRMC,200514.00,A,3844.3081,N,00908.3185,W,1.565228,311.632034,060617,,*26
$GPGGA,200514.00,3844.3081,N,00908.3185,W,1,00,0.0,137.572510,M,0.0,M,,*72
$GPGLL,3844.3081,N,00908.3185,W,200514.00,A,*37
$GPGSA,A,3,,,,,,,,,,,,,0.0,0.0,0.0*32
$GPRMC,200515.00,A,3844.3085,N,00908.3188,W,1.336391,332.878303,060617,,*2B
$GPGGA,200515.00,3844.3085,N,00908.3188,W,1,00,0.0,137.862534,M,0.0,M,,*70
$GPGLL,3844.3085,N,00908.3188,W,200515.00,A,*3F
$GPGSA,A,3,,,,,,,,,,,,,0.0,0.0,0.0*32
$GPRMC,200516.00,A,3844.3090,N,00908.3185,W,1.248100,19.149644,060617,,*14
$GPGGA,200516.00,3844.3090,N,00908.3185,W,1,00,0.0,137.751282,M,0.0,M,,*7F
$GPGLL,3844.3090,N,00908.3185,W,200516.00,A,*35
$GPGSA,A,3,,,,,,,,,,,,,0.0,0.0,0.0*32
$GPRMC,200517.00,A,3844.3096,N,00908.3184,W,1.316498,10.381758,060617,,*1F
$GPGGA,200517.00,3844.3096,N,00908.3184,W,1,00,0.0,137.830292,M,0.0,M,,*70
$GPGLL,3844.3096,N,00908.3184,W,200517.00,A,*33
$GPGSA,A,3,,,,,,,,,,,,,0.0,0.0,0.0*32
$GPRMC,200518.00,A,3844.3101,N,00908.3176,W,1.665169,51.842685,060617,,*18
$GPGGA,200518.00,3844.3101,N,00908.3176,W,1,00,0.0,138.121399,M,0.0,M,,*71
$GPGLL,3844.3101,N,00908.3176,W,200518.00,A,*3E
$GPGSA,A,3,,,,,,,,,,,,,0.0,0.0,0.0*32
$GPRMC,200519.00,A,3844.3106,N,00908.3165,W,2.243198,57.260495,060617,,*1E
$GPGGA,200519.00,3844.3106,N,00908.3165,W,1,00,0.0,138.312866,M,0.0,M,,*7C
$GPGLL,3844.3106,N,00908.3165,W,200519.00,A,*3A
$GPGSA,A,3,,,,,,,,,,,,,0.0,0.0,0.0*32
$GPRMC,200520.00,A,3844.3105,N,00908.3150,W,3.028146,96.465721,060617,,*1E
$GPGGA,200520.00,3844.3105,N,00908.3150,W,1,00,0.0,138.419327,M,0.0,M,,*71
$GPGLL,3844.3105,N,00908.3150,W,200520.00,A,*35
$GPGSA,A,3,,,,,,,,,,,,,0.0,0.0,0.0*32
$GPRMC,200521.00,A,3844.3106,N,00908.3139,W,2.864127,84.576782,060617,,*1C
$GPGGA,200521.00,3844.3106,N,00908.3139,W,1,00,0.0,139.149887,M,0.0,M,,*7C
$GPGLL,3844.3106,N,00908.3139,W,200521.00,A,*38
$GPGSA,A,3,,,,,,,,,,,,,0.0,0.0,0.0*32
$GPRMC,200522.00,A,3844.3107,N,00908.3127,W,2.932146,84.023872,060617,,*11
$GPGGA,200522.00,3844.3107,N,00908.3127,W,1,00,0.0,139.161713,M,0.0,M,,*79
$GPGLL,3844.3107,N,00908.3127,W,200522.00,A,*35
$GPGSA,A,3,,,,,,,,,,,,,0.0,0.0,0.0*32
$GPRMC,200523.00,A,3844.3110,N,00908.3116,W,2.642019,67.508374,060617,,*1B
$GPGGA,200523.00,3844.3110,N,00908.3116,W,1,00,0.0,139.447403,M,0.0,M,,*7F
$GPGLL,3844.3110,N,00908.3116,W,200523.00,A,*30
$GPGSA,A,3,,,,,,,,,,,,,0.0,0.0,0.0*32
$GPRMC,200524.00,A,3844.3115,N,00908.3108,W,2.955271,50.774122,060617,,*1F
$GPGGA,200524.00,3844.3115,N,00908.3108,W,1,00,0.0,139.744568,M,0.0,M,,*7E
$GPGLL,3844.3115,N,00908.3108,W,200524.00,A,*3D
$GPGSA,A,3,,,,,,,,,,,,,0.0,0.0,0.0*32
$GPRMC,200525.00,A,3844.3126,N,00908.3100,W,3.010063,30.167582,060617,,*12
$GPGGA,200525.00,3844.3126,N,00908.3100,W,1,00,0.0,140.060440,M,0.0,M,,*73
$GPGLL,3844.3126,N,00908.3100,W,200525.00,A,*34
$GPGSA,A,3,,,,,,,,,,,,,0.0,0.0,0.0*32
$GPRMC,200526.00,A,3844.3134,N,00908.3088,W,3.222256,51.574238,060617,,*13
$GPGGA,200526.00,3844.3134,N,00908.3088,W,1,00,0.0,139.943146,M,0.0,M,,*77
$GPGLL,3844.3134,N,00908.3088,W,200526.00,A,*35
$GPGSA,A,3,,,,,,,,,,,,,0.0,0.0,0.0*32
$GPRMC,200527.00,A,3844.3136,N,00908.3076,W,2.911660,77.107791,060617,,*18
$GPGGA,200527.00,3844.3136,N,00908.3076,W,1,00,0.0,140.030640,M,0.0,M,,*77
$GPGLL,3844.3136,N,00908.3076,W,200527.00,A,*37
$GPGSA,A,3,,,,,,,,,,,,,0.0,0.0,0.0*32
$GPRMC,200528.00,A,3844.3141,N,00908.3068,W,3.043460,53.989707,060617,,*12
$GPGGA,200528.00,3844.3141,N,00908.3068,W,1,00,0.0,140.056931,M,0.0,M,,*7E
$GPGLL,3844.3141,N,00908.3068,W,200528.00,A,*37
$GPGSA,A,3,,,,,,,,,,,,,0.0,0.0,0.0*32
$GPRMC,200529.00,A,3844.3143,N,00908.3060,W,3.528087,66.496577,060617,,*1C
$GPGGA,200529.00,3844.3143,N,00908.3060,W,1,00,0.0,140.210114,M,0.0,M,,*7A
$GPGLL,3844.3143,N,00908.3060,W,200529.00,A,*3C
$GPGSA,A,3,,,,,,,,,,,,,0.0,0.0,0.0*32
$GPRMC,200530.00,A,3844.3156,N,00908.3047,W,3.290501,39.045457,060617,,*19
$GPGGA,200530.00,3844.3156,N,00908.3047,W,1,00,0.0,140.017654,M,0.0,M,,*75
$GPGLL,3844.3156,N,00908.3047,W,200530.00,A,*35
$GPGSA,A,3,,,,,,,,,,,,,0.0,0.0,0.0*32
$GPRMC,200531.00,A,3844.3163,N,00908.3038,W,2.790299,44.768389,060617,,*12
$GPGGA,200531.00,3844.3163,N,00908.3038,W,1,00,0.0,139.814560,M,0.0,M,,*7B
$GPGLL,3844.3163,N,00908.3038,W,200531.00,A,*3A
$GPGSA,A,3,,,,,,,,,,,,,0.0,0.0,0.0*32
$GPRMC,200532.00,A,3844.3164,N,00908.3033,W,2.977038,68.234571,060617,,*10
$GPGGA,200532.00,3844.3164,N,00908.3033,W,1,00,0.0,140.064178,M,0.0,M,,*78
$GPGLL,3844.3164,N,00908.3033,W,200532.00,A,*35
$GPGSA,A,3,,,,,,,,,,,,,0.0,0.0,0.0*32
$GPRMC,200533.00,A,3844.3174,N,00908.3022,W,2.808936,41.598278,060617,,*1A
$GPGGA,200533.00,3844.3174,N,00908.3022,W,1,00,0.0,139.372345,M,0.0,M,,*7E
$GPGLL,3844.3174,N,00908.3022,W,200533.00,A,*35
$GPGSA,A,3,,,,,,,,,,,,,0.0,0.0,0.0*32
$GPRMC,200534.00,A,3844.3176,N,00908.3014,W,2.927954,65.924174,060617,,*10
$GPGGA,200534.00,3844.3176,N,00908.3014,W,1,00,0.0,139.437958,M,0.0,M,,*7E
$GPGLL,3844.3176,N,00908.3014,W,200534.00,A,*35
$GPGSA,A,3,,,,,,,,,,,,,0.0,0.0,0.0*32
$GPRMC,200535.00,A,3844.3183,N,00908.3005,W,2.571458,50.282387,060617,,*1A
$GPGGA,200535.00,3844.3183,N,00908.3005,W,1,00,0.0,139.405914,M,0.0,M,,*7C
$GPGLL,3844.3183,N,00908.3005,W,200535.00,A,*3E
$GPGSA,A,3,,,,,,,,,,,,,0.0,0.0,0.0*32
$GPRMC,200536.00,A,3844.3186,N,00908.2996,W,2.607745,64.969118,060617,,*1E
$GPGGA,200536.00,3844.3186,N,00908.2996,W,1,00,0.0,139.127853,M,0.0,M,,*7F
$GPGLL,3844.3186,N,00908.2996,W,200536.00,A,*3A
$GPGSA,A,3,,,,,,,,,,,,,0.0,0.0,0.0*32
$GPRMC,200537.00,A,3844.3188,N,00908.2990,W,2.666439,68.109090,060617,,*1B
$GPGGA,200537.00,3844.3188,N,00908.2990,W,1,00,0.0,139.270508,M,0.0,M,,*74
$GPGLL,3844.3188,N,00908.2990,W,200537.00,A,*33
$GPGSA,A,3,,,,,,,,,,,,,0.0,0.0,0.0*32
$GPRMC,200538.00,A,3844.3189,N,00908.2982,W,1.971251,78.629360,060617,,*1C
$GPGGA,200538.00,3844.3189,N,00908.2982,W,1,00,0.0,139.244553,M,0.0,M,,*70
$GPGLL,3844.3189,N,00908.2982,W,200538.00,A,*3E
$GPGSA,A,3,,,,,,,,,,,,,0.0,0.0,0.0*32
$GPRMC,200539.00,A,3844.3190,N,00908.2976,W,2.684754,81.856425,060617,,*1E
$GPGGA,200539.00,3844.3190,N,00908.2976,W,1,00,0.0,139.301498,M,0.0,M,,*74
$GPGLL,3844.3190,N,00908.2976,W,200539.00,A,*3C
$GPGSA,A,3,,,,,,,,,,,,,0.0,0.0,0.0*32
$GPRMC,200540.00,A,3844.3196,N,00908.2967,W,2.891325,48.798265,060617,,*14
$GPGGA,200540.00,3844.3196,N,00908.2967,W,1,00,0.0,139.217438,M,0.0,M,,*70
$GPGLL,3844.3196,N,00908.2967,W,200540.00,A,*34
$GPGSA,A,3,,,,,,,,,,,,,0.0,0.0,0.0*32
$GPRMC,200541.00,A,3844.3205,N,00908.2958,W,2.716760,39.527925,060617,,*1A
$GPGGA,200541.00,3844.3205,N,00908.2958,W,1,00,0.0,139.303452,M,0.0,M,,*7C
$GPGLL,3844.3205,N,00908.2958,W,200541.00,A,*30
$GPGSA,A,3,,,,,,,,,,,,,0.0,0.0,0.0*32
$GPRMC,200542.00,A,3844.3212,N,00908.2949,W,3.326783,41.050010,060617,,*11
$GPGGA,200542.00,3844.3212,N,00908.2949,W,1,00,0.0,139.297913,M,0.0,M,,*7D
$GPGLL,3844.3212,N,00908.2949,W,200542.00,A,*35
$GPGSA,A,3,,,,,,,,,,,,,0.0,0.0,0.0*32
$GPRMC,200543.00,A,3844.3219,N,00908.2943,W,2.620177,36.130269,060617,,*15
$GPGGA,200543.00,3844.3219,N,00908.2943,W,1,00,0.0,139.545609,M,0.0,M,,*71
$GPGLL,3844.3219,N,00908.2943,W,200543.00,A,*35
$GPGSA,A,3,,,,,,,,,,,,,0.0,0.0,0.0*32
$GPRMC,200544.00,A,3844.3225,N,00908.2938,W,3.046779,35.392044,060617,,*1A
$GPGGA,200544.00,3844.3225,N,00908.2938,W,1,00,0.0,139.900650,M,0.0,M,,*74
$GPGLL,3844.3225,N,00908.2938,W,200544.00,A,*31
$GPGSA,A,3,,,,,,,,,,,,,0.0,0.0,0.0*32
$GPRMC,200545.00,A,3844.3233,N,00908.2930,W,3.082974,36.529938,060617,,*18
$GPGGA,200545.00,3844.3233,N,00908.2930,W,1,00,0.0,139.942612,M,0.0,M,,*7A
$GPGLL,3844.3233,N,00908.2930,W,200545.00,A,*3F
$GPGSA,A,3,,,,,,,,,,,,,0.0,0.0,0.0*32
$GPRMC,200546.00,A,3844.3238,N,00908.2921,W,3.368401,52.670493,060617,,*19
$GPGGA,200546.00,3844.3238,N,00908.2921,W,1,00,0.0,140.077408,M,0.0,M,,*7A
$GPGLL,3844.3238,N,00908.2921,W,200546.00,A,*37
$GPGSA,A,3,,,,,,,,,,,,,0.0,0.0,0.0*32
$GPRMC,200547.00,A,3844.3246,N,00908.2916,W,3.161288,29.995856,060617,,*14
$GPGGA,200547.00,3844.3246,N,00908.2916,W,1,00,0.0,140.125153,M,0.0,M,,*7B
$GPGLL,3844.3246,N,00908.2916,W,200547.00,A,*3B
$GPGSA,A,3,,,,,,,,,,,,,0.0,0.0,0.0*32
$GPRMC,200548.00,A,3844.3252,N,00908.2906,W,3.193612,47.852118,060617,,*14
$GPGGA,200548.00,3844.3252,N,00908.2906,W,1,00,0.0,140.027054,M,0.0,M,,*75
$GPGLL,3844.3252,N,00908.2906,W,200548.00,A,*30
$GPGSA,A,3,,,,,,,,,,,,,0.0,0.0,0.0*32
$GPRMC,200549.00,A,3844.3257,N,00908.2904,W,2.914883,21.702541,060617,,*10
$GPGGA,200549.00,3844.3257,N,00908.2904,W,1,00,0.0,140.078964,M,0.0,M,,*73
$GPGLL,3844.3257,N,00908.2904,W,200549.00,A,*36
$GPGSA,A,3,,,,,,,,,,,,,0.0,0.0,0.0*32
$GPRMC,200550.00,A,3844.3263,N,00908.2898,W,3.042429,42.013660,060617,,*1E
$GPGGA,200550.00,3844.3263,N,00908.2898,W,1,00,0.0,140.232880,M,0.0,M,,*7F
$GPGLL,3844.3263,N,00908.2898,W,200550.00,A,*3D
$GPGSA,A,3,,,,,,,,,,,,,0.0,0.0,0.0*32
$GPRMC,200551.00,A,3844.3269,N,00908.2887,W,3.354608,50.825687,060617,,*19
$GPGGA,200551.00,3844.3269,N,00908.2887,W,1,00,0.0,140.230530,M,0.0,M,,*7E
$GPGLL,3844.3269,N,00908.2887,W,200551.00,A,*38
$GPGSA,A,3,,,,,,,,,,,,,0.0,0.0,0.0*32
$GPRMC,200552.00,A,3844.3272,N,00908.2878,W,2.896387,69.302577,060617,,*1E
$GPGGA,200552.00,3844.3272,N,00908.2878,W,1,00,0.0,140.240280,M,0.0,M,,*7C
$GPGLL,3844.3272,N,00908.2878,W,200552.00,A,*31
$GPGSA,A,3,,,,,,,,,,,,,0.0,0.0,0.0*32
$GPRMC,200553.00,A,3844.3272,N,00908.2865,W,2.796254,89.715362,060617,,*1D
$GPGGA,200553.00,3844.3272,N,00908.2865,W,1,00,0.0,140.549149,M,0.0,M,,*79
$GPGLL,3844.3272,N,00908.2865,W,200553.00,A,*3C
$GPGSA,A,3,,,,,,,,,,,,,0.0,0.0,0.0*32
$GPRMC,200554.00,A,3844.3278,N,00908.2857,W,2.889443,48.914593,060617,,*1A
$GPGGA,200554.00,3844.3278,N,00908.2857,W,1,00,0.0,140.369339,M,0.0,M,,*74
$GPGLL,3844.3278,N,00908.2857,W,200554.00,A,*30
$GPGSA,A,3,,,,,,,,,,,,,0.0,0.0,0.0*32
$GPRMC,200555.00,A,3844.3282,N,00908.2851,W,2.279563,46.102264,060617,,*10
$GPGGA,200555.00,3844.3282,N,00908.2851,W,1,00,0.0,140.219360,M,0.0,M,,*7C
$GPGLL,3844.3282,N,00908.2851,W,200555.00,A,*32
$GPGSA,A,3,,,,,,,,,,,,,0.0,0.0,0.0*32
$GPRMC,200556.00,A,3844.3286,N,00908.2844,W,2.100167,53.523590,060617,,*11
$GPGGA,200556.00,3844.3286,N,00908.2844,W,1,00,0.0,140.298416,M,0.0,M,,*70
$GPGLL,3844.3286,N,00908.2844,W,200556.00,A,*31
$GPGSA,A,3,,,,,,,,,,,,,0.0,0.0,0.0*32
$GPRMC,200557.00,A,3844.3289,N,00908.2836,W,2.584557,66.793319,060617,,*1D
$GPGGA,200557.00,3844.3289,N,00908.2836,W,1,00,0.0,140.367661,M,0.0,M,,*78
$GPGLL,3844.3289,N,00908.2836,W,200557.00,A,*3A
$GPGSA,A,3,,,,,,,,,,,,,0.0,0.0,0.0*32
$GPRMC,200558.00,A,3844.3291,N,00908.2824,W,2.615524,78.415935,060617,,*11
$GPGGA,200558.00,3844.3291,N,00908.2824,W,1,00,0.0,140.114410,M,0.0,M,,*7F
$GPGLL,3844.3291,N,00908.2824,W,200558.00,A,*3F
$GPGSA,A,3,,,,,,,,,,,,,0.0,0.0,0.0*32
$GPRMC,200559.00,A,3844.3297,N,00908.2815,W,3.190260,46.140007,060617,,*18
$GPGGA,200559.00,3844.3297,N,00908.2815,W,1,00,0.0,140.058441,M,0.0,M,,*77
$GPGLL,3844.3297,N,00908.2815,W,200559.00,A,*3A
$GPGSA,A,3,,,,,,,,,,,,,0.0,0.0,0.0*32
$GPRMC,200600.00,A,3844.3302,N,00908.2804,W,2.982707,62.924875,060617,,*15
$GPGGA,200600.00,3844.3302,N,00908.2804,W,1,00,0.0,139.907166,M,0.0,M,,*78
$GPGLL,3844.3302,N,00908.2804,W,200600.00,A,*38
$GPGSA,A,3,,,,,,,,,,,,,0.0,0.0,0.0*32
$GPRMC,200601.00,A,3844.3307,N,00908.2792,W,2.791746,61.764430,060617,,*1C
$GPGGA,200601.00,3844.3307,N,00908.2792,W,1,00,0.0,139.631989,M,0.0,M,,*7F
$GPGLL,3844.3307,N,00908.2792,W,200601.00,A,*3C
$GPGSA,A,3,,,,,,,,,,,,,0.0,0.0,0.0*32
$GPRMC,200602.00,A,3844.3310,N,00908.2787,W,2.420546,44.518798,060617,,*19
$GPGGA,200602.00,3844.3310,N,00908.2787,W,1,00,0.0,139.707199,M,0.0,M,,*73
$GPGLL,3844.3310,N,00908.2787,W,200602.00,A,*3D
$GPGSA,A,3,,,,,,,,,,,,,0.0,0.0,0.0*32
$GPRMC,200603.00,A,3844.3313,N,00908.2780,W,2.076839,68.822545,060617,,*16
$GPGGA,200603.00,3844.3313,N,00908.2780,W,1,00,0.0,139.620621,M,0.0,M,,*76
$GPGLL,3844.3313,N,00908.2780,W,200603.00,A,*38
$GPGSA,A,3,,,,,,,,,,,,,0.0,0.0,0.0*32
$GPRMC,200604.00,A,3844.3319,N,00908.2770,W,2.734890,51.964240,060617,,*1D
$GPGGA,200604.00,3844.3319,N,00908.2770,W,1,00,0.0,139.389938,M,0.0,M,,*75
$GPGLL,3844.3319,N,00908.2770,W,200604.00,A,*3A
$GPGSA,A,3,,,,,,,,,,,,,0.0,0.0,0.0*32
$GPRMC,200605.00,A,3844.3324,N,00908.2761,W,2.789749,51.673856,060617,,*1B
$GPGGA,200605.00,3844.3324,N,00908.2761,W,1,00,0.0,139.297226,M,0.0,M,,*70
$GPGLL,3844.3324,N,00908.2761,W,200605.00,A,*35
$GPGSA,A,3,,,,,,,,,,,,,0.0,0.0,0.0*32
$GPRMC,200606.00,A,3844.3328,N,00908.2753,W,1.922180,58.786535,060617,,*10
$GPGGA,200606.00,3844.3328,N,00908.2753,W,1,00,0.0,139.101471,M,0.0,M,,*76
$GPGLL,3844.3328,N,00908.2753,W,200606.00,A,*3B
$GPGSA,A,3,,,,,,,,,,,,,0.0,0.0,0.0*32
$GPRMC,200607.00,A,3844.3331,N,00908.2745,W,2.362780,59.729933,060617,,*1B
$GPGGA,200607.00,3844.3331,N,00908.2745,W,1,00,0.0,138.934616,M,0.0,M,,*74
$GPGLL,3844.3331,N,00908.2745,W,200607.00,A,*35
$GPGSA,A,3,,,,,,,,,,,,,0.0,0.0,0.0*32
$GPRMC,200608.00,A,3844.3336,N,00908.2738,W,1.958877,51.736827,060617,,*1C
$GPGGA,200608.00,3844.3336,N,00908.2738,W,1,00,0.0,138.734940,M,0.0,M,,*74
$GPGLL,3844.3336,N,00908.2738,W,200608.00,A,*37
$GPGSA,A,3,,,,,,,,,,,,,0.0,0.0,0.0*32
$GPRMC,200609.00,A,3844.3339,N,00908.2729,W,2.558057,71.887202,060617,,*1D
$GPGGA,200609.00,3844.3339,N,00908.2729,W,1,00,0.0,138.640686,M,0.0,M,,*7D
$GPGLL,3844.3339,N,00908.2729,W,200609.00,A,*39
$GPGSA,A,3,,,,,,,,,,,,,0.0,0.0,0.0*32
$GPRMC,200610.00,A,3844.3345,N,00908.2723,W,2.320138,34.488079,060617,,*19
$GPGGA,200610.00,3844.3345,N,00908.2723,W,1,00,0.0,138.533600,M,0.0,M,,*7D
$GPGLL,3844.3345,N,00908.2723,W,200610.00,A,*30
$GPGSA,A,3,,,,,,,,,,,,,0.0,0.0,0.0*32
$GPRMC,200611.00,A,3844.3353,N,00908.2714,W,2.756965,42.818214,060617,,*13
$GPGGA,200611.00,3844.3353,N,00908.2714,W,1,00,0.0,138.371185,M,0.0,M,,*75
$GPGLL,3844.3353,N,00908.2714,W,200611.00,A,*32
$GPGSA,A,3,,,,,,,,,,,,,0.0,0.0,0.0*32
$GPRMC,200612.00,A,3844.3363,N,00908.2709,W,2.301065,21.201150,060617,,*14
$GPGGA,200612.00,3844.3363,N,00908.2709,W,1,00,0.0,138.717422,M,0.0,M,,*75
$GPGLL,3844.3363,N,00908.2709,W,200612.00,A,*3E
$GPGSA,A,3,,,,,,,,,,,,,0.0,0.0,0.0*32
$GPRMC,200613.00,A,3844.3370,N,00908.2704,W,2.448780,28.799997,060617,,*12
$GPGGA,200613.00,3844.3370,N,00908.2704,W,1,00,0.0,138.828888,M,0.0,M,,*74
$GPGLL,3844.3370,N,00908.2704,W,200613.00,A,*30
$GPGSA,A,3,,,,,,,,,,,,,0.0,0.0,0.0*32
$GPRMC,200614.00,A,3844.3377,N,00908.2696,W,2.406048,40.449750,060617,,*14
$GPGGA,200614.00,3844.3377,N,00908.2696,W,1,00,0.0,138.531464,M,0.0,M,,*75
$GPGLL,3844.3377,N,00908.2696,W,200614.00,A,*3A
$GPGSA,A,3,,,,,,,,,,,,,0.0,0.0,0.0*32
$GPRMC,200615.00,A,3844.3381,N,00908.2688,W,2.728842,59.552124,060617,,*18
$GPGGA,200615.00,3844.3381,N,00908.2688,W,1,00,0.0,138.091583,M,0.0,M,,*75
$GPGLL,3844.3381,N,00908.2688,W,200615.00,A,*3D
$GPGSA,A,3,,,,,,,,,,,,,0.0,0.0,0.0*32
$GPRMC,200616.00,A,3844.3381,N,00908.2670,W,3.727278,87.217705,060617,,*11
$GPGGA,200616.00,3844.3381,N,00908.2670,W,1,00,0.0,138.035309,M,0.0,M,,*7B
$GPGLL,3844.3381,N,00908.2670,W,200616.00,A,*39
$GPGSA,A,3,,,,,,,,,,,,,0.0,0.0,0.0*32
$GPRMC,200617.00,A,3844.3389,N,00908.2653,W,2.891883,60.667920,060617,,*17
$GPGGA,200617.00,3844.3389,N,00908.2653,W,1,00,0.0,137.816620,M,0.0,M,,*7B
$GPGLL,3844.3389,N,00908.2653,W,200617.00,A,*31
$GPGSA,A,3,,,,,,,,,,,,,0.0,0.0,0.0*32
$GPRMC,200618.00,A,3844.3395,N,00908.2642,W,3.208685,55.721234,060617,,*1D
$GPGGA,200618.00,3844.3395,N,00908.2642,W,1,00,0.0,136.574951,M,0.0,M,,*78
$GPGLL,3844.3395,N,00908.2642,W,200618.00,A,*33
$GPGSA,A,3,,,,,,,,,,,,,0.0,0.0,0.0*32
$GPRMC,200619.00,A,3844.3402,N,00908.2633,W,3.334546,43.427229,060617,,*1F
$GPGGA,200619.00,3844.3402,N,00908.2633,W,1,00,0.0,136.660263,M,0.0,M,,*7A
$GPGLL,3844.3402,N,00908.2633,W,200619.00,A,*3D
$GPGSA,A,3,,,,,,,,,,,,,0.0,0.0,0.0*32
$GPRMC,200620.00,A,3844.3417,N,00908.2647,W,3.208553,322.737975,060617,,*2C
$GPGGA,200620.00,3844.3417,N,00908.2647,W,1,00,0.0,133.785172,M,0.0,M,,*7B
$GPGLL,3844.3417,N,00908.2647,W,200620.00,A,*30
$GPGSA,A,3,,,,,,,,,,,,,0.0,0.0,0.0*32
$GPRMC,200621.00,A,3844.3422,N,00908.2642,W,3.055801,32.410551,060617,,*10
$GPGGA,200621.00,3844.3422,N,00908.2642,W,1,00,0.0,132.812805,M,0.0,M,,*70
$GPGLL,3844.3422,N,00908.2642,W,200621.00,A,*32
$GPGSA,A,3,,,,,,,,,,,,,0.0,0.0,0.0*32
$GPRMC,200622.00,A,3844.3424,N,00908.2635,W,2.440964,74.779299,060617,,*1B
$GPGGA,200622.00,3844.3424,N,00908.2635,W,1,00,0.0,131.864655,M,0.0,M,,*7C
$GPGLL,3844.3424,N,00908.2635,W,200622.00,A,*37
$GPGSA,A,3,,,,,,,,,,,,,0.0,0.0,0.0*32
$GPRMC,200623.00,A,3844.3430,N,00908.2626,W,2.892712,47.387907,060617,,*18
$GPGGA,200623.00,3844.3430,N,00908.2626,W,1,00,0.0,131.152679,M,0.0,M,,*78
$GPGLL,3844.3430,N,00908.2626,W,200623.00,A,*31
$GPGSA,A,3,,,,,,,,,,,,,0.0,0.0,0.0*32
$GPRMC,200624.00,A,3844.3436,N,00908.2620,W,2.066578,36.836271,060617,,*1F
$GPGGA,200624.00,3844.3436,N,00908.2620,W,1,00,0.0,130.275269,M,0.0,M,,*7D
$GPGLL,3844.3436,N,00908.2620,W,200624.00,A,*36
$GPGSA,A,3,,,,,,,,,,,,,0.0,0.0,0.0*32
$GPRMC,200625.00,A,3844.3446,N,00908.2613,W,2.584254,32.685395,060617,,*10
$GPGGA,200625.00,3844.3446,N,00908.2613,W,1,00,0.0,130.491470,M,0.0,M,,*79
$GPGLL,3844.3446,N,00908.2613,W,200625.00,A,*30
$GPGSA,A,3,,,,,,,,,,,,,0.0,0.0,0.0*32
$GPRMC,200626.00,A,3844.3452,N,00908.2606,W,2.661556,42.311661,060617,,*1E
$GPGGA,200626.00,3844.3452,N,00908.2606,W,1,00,0.0,130.301620,M,0.0,M,,*72
$GPGLL,3844.3452,N,00908.2606,W,200626.00,A,*32
$GPGSA,A,3,,,,,,,,,,,,,0.0,0.0,0.0*32
$GPRMC,200627.00,A,3844.3454,N,00908.2600,W,2.637466,58.164218,060617,,*1F
$GPGGA,200627.00,3844.3454,N,00908.2600,W,1,00,0.0,129.939224,M,0.0,M,,*7A
$GPGLL,3844.3454,N,00908.2600,W,200627.00,A,*33
$GPGSA,A,3,,,,,,,,,,,,,0.0,0.0,0.0*32
$GPRMC,200628.00,A,3844.3462,N,00908.2594,W,2.924679,28.809310,060617,,*16
$GPGGA,200628.00,3844.3462,N,00908.2594,W,1,00,0.0,130.107986,M,0.0,M,,*70
$GPGLL,3844.3462,N,00908.2594,W,200628.00,A,*37
$GPGSA,A,3,,,,,,,,,,,,,0.0,0.0,0.0*32
$GPRMC,200629.00,A,3844.3470,N,00908.2586,W,2.966152,40.942301,060617,,*1F
$GPGGA,200629.00,3844.3470,N,00908.2586,W,1,00,0.0,129.889511,M,0.0,M,,*74
$GPGLL,3844.3470,N,00908.2586,W,200629.00,A,*36
$GPGSA,A,3,,,,,,,,,,,,,0.0,0.0,0.0*32
$GPRMC,200630.00,A,3844.3480,N,00908.2576,W,3.883484,38.047330,060617,,*13
$GPGGA,200630.00,3844.3480,N,00908.2576,W,1,00,0.0,129.683868,M,0.0,M,,*7B
$GPGLL,3844.3480,N,00908.2576,W,200630.00,A,*3E
$GPGSA,A,3,,,,,,,,,,,,,0.0,0.0,0.0*32
$GPRMC,200631.00,A,3844.3494,N,00908.2563,W,2.946322,36.608440,060617,,*12
$GPGGA,200631.00,3844.3494,N,00908.2563,W,1,00,0.0,129.082443,M,0.0,M,,*79
$GPGLL,3844.3494,N,00908.2563,W,200631.00,A,*3E
$GPGSA,A,3,,,,,,,,,,,,,0.0,0.0,0.0*32
$GPRMC,200632.00,A,3844.3496,N,00908.2550,W,2.632626,78.478475,060617,,*17
$GPGGA,200632.00,3844.3496,N,00908.2550,W,1,00,0.0,128.460342,M,0.0,M,,*77
$GPGLL,3844.3496,N,00908.2550,W,200632.00,A,*3F
$GPGSA,A,3,,,,,,,,,,,,,0.0,0.0,0.0*32
$GPRMC,200633.00,A,3844.3498,N,00908.2548,W,2.686726,33.297751,060617,,*12
$GPGGA,200633.00,3844.3498,N,00908.2548,W,1,00,0.0,128.615051,M,0.0,M,,*70
$GPGLL,3844.3498,N,00908.2548,W,200633.00,A,*39
$GPGSA,A,3,,,,,,,,,,,,,0.0,0.0,0.0*32
$GPRMC,200634.00,A,3844.3508,N,00908.2534,W,2.603344,46.811745,060617,,*18
$GPGGA,200634.00,3844.3508,N,00908.2534,W,1,00,0.0,128.171585,M,0.0,M,,*7D
$GPGLL,3844.3508,N,00908.2534,W,200634.00,A,*3D
$GPGSA,A,3,,,,,,,,,,,,,0.0,0.0,0.0*32
$GPRMC,200635.00,A,3844.3516,N,00908.2529,W,3.025676,27.654490,060617,,*1E
$GPGGA,200635.00,3844.3516,N,00908.2529,W,1,00,0.0,128.159714,M,0.0,M,,*7F
$GPGLL,3844.3516,N,00908.2529,W,200635.00,A,*3F
$GPGSA,A,3,,,,,,,,,,,,,0.0,0.0,0.0*32
$GPRMC,200636.00,A,3844.3522,N,00908.2525,W,4.187342,29.560084,060617,,*11
$GPGGA,200636.00,3844.3522,N,00908.2525,W,1,00,0.0,128.138687,M,0.0,M,,*7B
$GPGLL,3844.3522,N,00908.2525,W,200636.00,A,*37
$GPGSA,A,3,,,,,,,,,,,,,0.0,0.0,0.0*32
$GPRMC,200637.00,A,3844.3532,N,00908.2518,W,3.586743,27.698025,060617,,*19
$GPGGA,200637.00,3844.3532,N,00908.2518,W,1,00,0.0,128.063126,M,0.0,M,,*76
$GPGLL,3844.3532,N,00908.2518,W,200637.00,A,*39
$GPGSA,A,3,,,,,,,,,,,,,0.0,0.0,0.0*32
$GPRMC,200638.00,A,3844.3541,N,00908.2513,W,2.813867,22.162262,060617,,*16
$GPGGA,200638.00,3844.3541,N,00908.2513,W,1,00,0.0,128.127945,M,0.0,M,,*7A
$GPGLL,3844.3541,N,00908.2513,W,200638.00,A,*39
$GPGSA,A,3,,,,,,,,,,,,,0.0,0.0,0.0*32
$GPRMC,200639.00,A,3844.3550,N,00908.2509,W,2.523378,23.377823,060617,,*1F
$GPGGA,200639.00,3844.3550,N,00908.2509,W,1,00,0.0,127.948074,M,0.0,M,,*75
$GPGLL,3844.3550,N,00908.2509,W,200639.00,A,*33
$GPGSA,A,3,,,,,,,,,,,,,0.0,0.0,0.0*32
$GPRMC,200640.00,A,3844.3563,N,00908.2504,W,2.626793,14.535888,060617,,*1E
$GPGGA,200640.00,3844.3563,N,00908.2504,W,1,00,0.0,128.173676,M,0.0,M,,*7D
$GPGLL,3844.3563,N,00908.2504,W,200640.00,A,*30
$GPGSA,A,3,,,,,,,,,,,,,0.0,0.0,0.0*32
$GPRMC,200641.00,A,3844.3575,N,00908.2504,W,3.016274,0.982909,060617,,*2D
$GPGGA,200641.00,3844.3575,N,00908.2504,W,1,00,0.0,128.175247,M,0.0,M,,*7B
$GPGLL,3844.3575,N,00908.2504,W,200641.00,A,*36
$GPGSA,A,3,,,,,,,,,,,,,0.0,0.0,0.0*32
$GPRMC,200642.00,A,3844.3581,N,00908.2503,W,2.919979,9.464144,060617,,*2E
$GPGGA,200642.00,3844.3581,N,00908.2503,W,1,00,0.0,128.155518,M,0.0,M,,*7B
$GPGLL,3844.3581,N,00908.2503,W,200642.00,A,*39
$GPGSA,A,3,,,,,,,,,,,,,0.0,0.0,0.0*32
$GPRMC,200643.00,A,3844.3588,N,00908.2502,W,2.741684,1.424285,060617,,*2B
$GPGGA,200643.00,3844.3588,N,00908.2502,W,1,00,0.0,127.854065,M,0.0,M,,*7A
$GPGLL,3844.3588,N,00908.2502,W,200643.00,A,*30
$GPGSA,A,3,,,,,,,,,,,,,0.0,0.0,0.0*32
$GPRMC,200644.00,A,3844.3603,N,00908.2499,W,3.195705,8.987147,060617,,*29
$GPGGA,200644.00,3844.3603,N,00908.2499,W,1,00,0.0,128.371796,M,0.0,M,,*76
$GPGLL,3844.3603,N,00908.2499,W,200644.00,A,*34
$GPGSA,A,3,,,,,,,,,,,,,0.0,0.0,0.0*32
$GPRMC,200645.00,A,3844.3610,N,00908.2495,W,2.599573,23.667899,060617,,*1E
$GPGGA,200645.00,3844.3610,N,00908.2495,W,1,00,0.0,129.045059,M,0.0,M,,*78
$GPGLL,3844.3610,N,00908.2495,W,200645.00,A,*3B
$GPGSA,A,3,,,,,,,,,,,,,0.0,0.0,0.0*32
$GPRMC,200646.00,A,3844.3616,N,00908.2490,W,2.911181,32.986667,060617,,*14
$GPGGA,200646.00,3844.3616,N,00908.2490,W,1,00,0.0,129.037109,M,0.0,M,,*79
$GPGLL,3844.3616,N,00908.2490,W,200646.00,A,*3B
$GPGSA,A,3,,,,,,,,,,,,,0.0,0.0,0.0*32
$GPRMC,200647.00,A,3844.3624,N,00908.2486,W,2.864833,21.148039,060617,,*15
$GPGGA,200647.00,3844.3624,N,00908.2486,W,1,00,0.0,129.047684,M,0.0,M,,*7B
$GPGLL,3844.3624,N,00908.2486,W,200647.00,A,*3C
$GPGSA,A,3,,,,,,,,,,,,,0.0,0.0,0.0*32
$GPRMC,200648.00,A,3844.3632,N,00908.2489,W,2.049300,345.025773,060617,,*2C
$GPGGA,200648.00,3844.3632,N,00908.2489,W,1,00,0.0,128.317337,M,0.0,M,,*76
$GPGLL,3844.3632,N,00908.2489,W,200648.00,A,*3B
$GPGSA,A,3,,,,,,,,,,,,,0.0,0.0,0.0*32
$GPRMC,200649.00,A,3844.3640,N,00908.2489,W,2.351765,359.662488,060617,,*2A
$GPGGA,200649.00,3844.3640,N,00908.2489,W,1,00,0.0,127.763687,M,0.0,M,,*74
$GPGLL,3844.3640,N,00908.2489,W,200649.00,A,*3F
$GPGSA,A,3,,,,,,,,,,,,,0.0,0.0,0.0*32
$GPRMC,200650.00,A,3844.3647,N,00908.2485,W,2.818712,22.443481,060617,,*18
$GPGGA,200650.00,3844.3647,N,00908.2485,W,1,00,0.0,127.718239,M,0.0,M,,*7A
$GPGLL,3844.3647,N,00908.2485,W,200650.00,A,*3C
$GPGSA,A,3,,,,,,,,,,,,,0.0,0.0,0.0*32
$GPRMC,200651.00,A,3844.3654,N,00908.2480,W,2.460363,29.803728,060617,,*1C
$GPGGA,200651.00,3844.3654,N,00908.2480,W,1,00,0.0,127.725357,M,0.0,M,,*7B
$GPGLL,3844.3654,N,00908.2480,W,200651.00,A,*3A
$GPGSA,A,3,,,,,,,,,,,,,0.0,0.0,0.0*32
$GPRMC,200652.00,A,3844.3656,N,00908.2476,W,2.614125,54.799945,060617,,*16
$GPGGA,200652.00,3844.3656,N,00908.2476,W,1,00,0.0,126.990944,M,0.0,M,,*7A
$GPGLL,3844.3656,N,00908.2476,W,200652.00,A,*32
$GPGSA,A,3,,,,,,,,,,,,,0.0,0.0,0.0*32
$GPRMC,200653.00,A,3844.3661,N,00908.2470,W,2.416556,46.234267,060617,,*1F
$GPGGA,200653.00,3844.3661,N,00908.2470,W,1,00,0.0,126.974548,M,0.0,M,,*73
$GPGLL,3844.3661,N,00908.2470,W,200653.00,A,*31
$GPGSA,A,3,,,,,,,,,,,,,0.0,0.0,0.0*32
$GPRMC,200654.00,A,3844.3671,N,00908.2463,W,3.004867,28.578169,060617,,*18
$GPGGA,200654.00,3844.3671,N,00908.2463,W,1,00,0.0,126.689346,M,0.0,M,,*72
$GPGLL,3844.3671,N,00908.2463,W,200654.00,A,*35
$GPGSA,A,3,,,,,,,,,,,,,0.0,0.0,0.0*32
$GPRMC,200655.00,A,3844.3679,N,00908.2455,W,3.097762,39.551764,060617,,*14
$GPGGA,200655.00,3844.3679,N,00908.2455,W,1,00,0.0,126.992088,M,0.0,M,,*7A
$GPGLL,3844.3679,N,00908.2455,W,200655.00,A,*39
$GPGSA,A,3,,,,,,,,,,,,,0.0,0.0,0.0*32
$GPRMC,200656.00,A,3844.3688,N,00908.2452,W,2.981556,13.857079,060617,,*1C
$GPGGA,200656.00,3844.3688,N,00908.2452,W,1,00,0.0,126.731712,M,0.0,M,,*73
$GPGLL,3844.3688,N,00908.2452,W,200656.00,A,*33
$GPGSA,A,3,,,,,,,,,,,,,0.0,0.0,0.0*32
$GPRMC,200657.00,A,3844.3700,N,00908.2444,W,2.095247,25.521174,060617,,*15
$GPGGA,200657.00,3844.3700,N,00908.2444,W,1,00,0.0,126.528519,M,0.0,M,,*77
$GPGLL,3844.3700,N,00908.2444,W,200657.00,A,*34
$GPGSA,A,3,,,,,,,,,,,,,0.0,0.0,0.0*32
$GPRMC,200658.00,A,3844.3709,N,00908.2443,W,2.624849,6.059912,060617,,*2F
$GPGGA,200658.00,3844.3709,N,00908.2443,W,1,00,0.0,126.121384,M,0.0,M,,*79
$GPGLL,3844.3709,N,00908.2443,W,200658.00,A,*35
$GPGSA,A,3,,,,,,,,,,,,,0.0,0.0,0.0*32
$GPRMC,200659.00,A,3844.3718,N,00908.2443,W,2.260573,1.959943,060617,,*24
$GPGGA,200659.00,3844.3718,N,00908.2443,W,1,00,0.0,125.648445,M,0.0,M,,*79
$GPGLL,3844.3718,N,00908.2443,W,200659.00,A,*34
$GPGSA,A,3,,,,,,,,,,,,,0.0,0.0,0.0*32
$GPRMC,200700.00,A,3844.3725,N,00908.2440,W,2.646114,16.616212,060617,,*1C
$GPGGA,200700.00,3844.3725,N,00908.2440,W,1,00,0.0,125.826012,M,0.0,M,,*79
$GPGLL,3844.3725,N,00908.2440,W,200700.00,A,*34
$GPGSA,A,3,,,,,,,,,,,,,0.0,0.0,0.0*32
$GPRMC,200701.00,A,3844.3733,N,00908.2432,W,2.949712,40.196051,060617,,*16
$GPGGA,200701.00,3844.3733,N,00908.2432,W,1,00,0.0,125.954582,M,0.0,M,,*72
$GPGLL,3844.3733,N,00908.2432,W,200701.00,A,*37
$GPGSA,A,3,,,,,,,,,,,,,0.0,0.0,0.0*32
$GPRMC,200702.00,A,3844.3738,N,00908.2425,W,2.764308,45.866255,060617,,*13
$GPGGA,200702.00,3844.3738,N,00908.2425,W,1,00,0.0,125.722992,M,0.0,M,,*7E
$GPGLL,3844.3738,N,00908.2425,W,200702.00,A,*39
$GPGSA,A,3,,,,,,,,,,,,,0.0,0.0,0.0*32
$GPRMC,200703.00,A,3844.3749,N,00908.2427,W,2.925356,348.974194,060617,,*24
$GPGGA,200703.00,3844.3749,N,00908.2427,W,1,00,0.0,125.334900,M,0.0,M,,*73
$GPGLL,3844.3749,N,00908.2427,W,200703.00,A,*3C
$GPGSA,A,3,,,,,,,,,,,,,0.0,0.0,0.0*32
$GPRMC,200704.00,A,3844.3752,N,00908.2426,W,2.427481,14.040989,060617,,*1A
$GPGGA,200704.00,3844.3752,N,00908.2426,W,1,00,0.0,125.300735,M,0.0,M,,*70
$GPGLL,3844.3752,N,00908.2426,W,200704.00,A,*30
$GPGSA,A,3,,,,,,,,,,,,,0.0,0.0,0.0*32
$GPRMC,200705.00,A,3844.3756,N,00908.2421,W,2.991306,50.412797,060617,,*12
$GPGGA,200705.00,3844.3756,N,00908.2421,W,1,00,0.0,125.975395,M,0.0,M,,*74
$GPGLL,3844.3756,N,00908.2421,W,200705.00,A,*32
$GPGSA,A,3,,,,,,,,,,,,,0.0,0.0,0.0*32
$GPRMC,200706.00,A,3844.3761,N,00908.2418,W,2.364824,22.762610,060617,,*1B
$GPGGA,200706.00,3844.3761,N,00908.2418,W,1,00,0.0,125.900291,M,0.0,M,,*7E
$GPGLL,3844.3761,N,00908.2418,W,200706.00,A,*3F
$GPGSA,A,3,,,,,,,,,,,,,0.0,0.0,0.0*32
$GPRMC,200707.00,A,3844.3769,N,00908.2411,W,2.872655,35.280627,060617,,*14
$GPGGA,200707.00,3844.3769,N,00908.2411,W,1,00,0.0,126.269943,M,0.0,M,,*7D
$GPGLL,3844.3769,N,00908.2411,W,200707.00,A,*3F
$GPGSA,A,3,,,,,,,,,,,,,0.0,0.0,0.0*32
$GPRMC,200708.00,A,3844.3784,N,00908.2402,W,4.034987,25.307782,060617,,*17
$GPGGA,200708.00,3844.3784,N,00908.2402,W,1,00,0.0,126.058929,M,0.0,M,,*7F
$GPGLL,3844.3784,N,00908.2402,W,200708.00,A,*31
$GPGSA,A,3,,,,,,,,,,,,,0.0,0.0,0.0*32
$GPRMC,200709.00,A,3844.3794,N,00908.2399,W,3.095126,12.393291,060617,,*13
$GPGGA,200709.00,3844.3794,N,00908.2399,W,1,00,0.0,125.976547,M,0.0,M,,*78
$GPGLL,3844.3794,N,00908.2399,W,200709.00,A,*34
$GPGSA,A,3,,,,,,,,,,,,,0.0,0.0,0.0*32
$GPRMC,200710.00,A,3844.3802,N,00908.2394,W,2.922346,25.857584,060617,,*12
$GPGGA,200710.00,3844.3802,N,00908.2394,W,1,00,0.0,125.145142,M,0.0,M,,*74
$GPGLL,3844.3802,N,00908.2394,W,200710.00,A,*31
$GPGSA,A,3,,,,,,,,,,,,,0.0,0.0,0.0*32
$GPRMC,200711.00,A,3844.3811,N,00908.2389,W,2.961977,21.883202,060617,,*16
$GPGGA,200711.00,3844.3811,N,00908.2389,W,1,00,0.0,124.810326,M,0.0,M,,*73
$GPGLL,3844.3811,N,00908.2389,W,200711.00,A,*3E
$GPGSA,A,3,,,,,,,,,,,,,0.0,0.0,0.0*32
$GPRMC,200712.00,A,3844.3820,N,00908.2385,W,2.685635,21.530712,060617,,*16
$GPGGA,200712.00,3844.3820,N,00908.2385,W,1,00,0.0,124.468597,M,0.0,M,,*71
$GPGLL,3844.3820,N,00908.2385,W,200712.00,A,*33
$GPGSA,A,3,,,,,,,,,,,,,0.0,0.0,0.0*32
$GPRMC,200713.00,A,3844.3823,N,00908.2383,W,2.278500,25.385901,060617,,*11
$GPGGA,200713.00,3844.3823,N,00908.2383,W,1,00,0.0,124.550270,M,0.0,M,,*71
$GPGLL,3844.3823,N,00908.2383,W,200713.00,A,*37
$GPGSA,A,3,,,,,,,,,,,,,0.0,0.0,0.0*32
$GPRMC,200714.00,A,3844.3829,N,00908.2381,W,2.507186,14.153612,060617,,*1D
$GPGGA,200714.00,3844.3829,N,00908.2381,W,1,00,0.0,124.271301,M,0.0,M,,*7D
$GPGLL,3844.3829,N,00908.2381,W,200714.00,A,*38
$GPGSA,A,3,,,,,,,,,,,,,0.0,0.0,0.0*32
$GPRMC,200715.00,A,3844.3837,N,00908.2378,W,2.453711,19.078155,060617,,*1C
$GPGGA,200715.00,3844.3837,N,00908.2378,W,1,00,0.0,124.342712,M,0.0,M,,*72
$GPGLL,3844.3837,N,00908.2378,W,200715.00,A,*30
$GPGSA,A,3,,,,,,,,,,,,,0.0,0.0,0.0*32
$GPRMC,200716.00,A,3844.3843,N,00908.2374,W,2.579989,24.935734,060617,,*19
$GPGGA,200716.00,3844.3843,N,00908.2374,W,1,00,0.0,124.081947,M,0.0,M,,*7C
$GPGLL,3844.3843,N,00908.2374,W,200716.00,A,*3C
$GPGSA,A,3,,,,,,,,,,,,,0.0,0.0,0.0*32
$GPRMC,200717.00,A,3844.3871,N,00908.2367,W,2.799687,11.821194,060617,,*18
$GPGGA,200717.00,3844.3871,N,00908.2367,W,1,00,0.0,124.619034,M,0.0,M,,*74
$GPGLL,3844.3871,N,00908.2367,W,200717.00,A,*3E
$GPGSA,A,3,,,,,,,,,,,,,0.0,0.0,0.0*32
$GPRMC,200718.00,A,3844.3879,N,00908.2369,W,3.059391,349.010510,060617,,*25
$GPGGA,200718.00,3844.3879,N,00908.2369,W,1,00,0.0,124.838120,M,0.0,M,,*74
$GPGLL,3844.3879,N,00908.2369,W,200718.00,A,*37
$GPGSA,A,3,,,,,,,,,,,,,0.0,0.0,0.0*32
$GPRMC,200719.00,A,3844.3886,N,00908.2372,W,2.887844,341.357741,060617,,*29
$GPGGA,200719.00,3844.3886,N,00908.2372,W,1,00,0.0,124.885376,M,0.0,M,,*78
$GPGLL,3844.3886,N,00908.2372,W,200719.00,A,*3C
$GPGSA,A,3,,,,,,,,,,,,,0.0,0.0,0.0*32
$GPRMC,200720.00,A,3844.3896,N,00908.2373,W,3.043708,354.388460,060617,,*23
$GPGGA,200720.00,3844.3896,N,00908.2373,W,1,00,0.0,125.258690,M,0.0,M,,*74
$GPGLL,3844.3896,N,00908.2373,W,200720.00,A,*36
$GPGSA,A,3,,,,,,,,,,,,,0.0,0.0,0.0*32
$GPRMC,200721.00,A,3844.3907,N,00908.2376,W,2.936810,349.741023,060617,,*2C
$GPGGA,200721.00,3844.3907,N,00908.2376,W,1,00,0.0,125.577072,M,0.0,M,,*79
$GPGLL,3844.3907,N,00908.2376,W,200721.00,A,*3B
$GPGSA,A,3,,,,,,,,,,,,,0.0,0.0,0.0*32
$GPRMC,200722.00,A,3844.3913,N,00908.2382,W,2.559795,317.624898,060617,,*27
$GPGGA,200722.00,3844.3913,N,00908.2382,W,1,00,0.0,125.719879,M,0.0,M,,*7D
$GPGLL,3844.3913,N,00908.2382,W,200722.00,A,*36
$GPGSA,A,3,,,,,,,,,,,,,0.0,0.0,0.0*32
$GPRMC,200723.00,A,3844.3921,N,00908.2383,W,2.942198,351.462092,060617,,*2B
$GPGGA,200723.00,3844.3921,N,00908.2383,W,1,00,0.0,125.871338,M,0.0,M,,*73
$GPGLL,3844.3921,N,00908.2383,W,200723.00,A,*37
$GPGSA,A,3,,,,,,,,,,,,,0.0,0.0,0.0*32
$GPRMC,200724.00,A,3844.3926,N,00908.2387,W,2.110835,330.635459,060617,,*2A
$GPGGA,200724.00,3844.3926,N,00908.2387,W,1,00,0.0,125.998131,M,0.0,M,,*7A
$GPGLL,3844.3926,N,00908.2387,W,200724.00,A,*33
$GPGSA,A,3,,,,,,,,,,,,,0.0,0.0,0.0*32
$GPRMC,200725.00,A,3844.3936,N,00908.2391,W,2.706900,341.548202,060617,,*2C
$GPGGA,200725.00,3844.3936,N,00908.2391,W,1,00,0.0,125.059303,M,0.0,M,,*7A
$GPGLL,3844.3936,N,00908.2391,W,200725.00,A,*34
$GPGSA,A,3,,,,,,,,,,,,,0.0,0.0,0.0*32
$GPRMC,200726.00,A,3844.3942,N,00908.2391,W,2.999776,3.345800,060617,,*2D
$GPGGA,200726.00,3844.3942,N,00908.2391,W,1,00,0.0,125.430397,M,0.0,M,,*7C
$GPGLL,3844.3942,N,00908.2391,W,200726.00,A,*34
$GPGSA,A,3,,,,,,,,,,,,,0.0,0.0,0.0*32
$GPRMC,200727.00,A,3844.3954,N,00908.2391,W,3.069190,359.318313,060617,,*2F
$GPGGA,200727.00,3844.3954,N,00908.2391,W,1,00,0.0,125.736626,M,0.0,M,,*70
$GPGLL,3844.3954,N,00908.2391,W,200727.00,A,*32
$GPGSA,A,3,,,,,,,,,,,,,0.0,0.0,0.0*32
$GPRMC,200728.00,A,3844.3967,N,00908.2391,W,2.990406,358.991585,060617,,*27
$GPGGA,200728.00,3844.3967,N,00908.2391,W,1,00,0.0,125.724548,M,0.0,M,,*77
$GPGLL,3844.3967,N,00908.2391,W,200728.00,A,*3D
$GPGSA,A,3,,,,,,,,,,,,,0.0,0.0,0.0*32
$GPRMC,200729.00,A,3844.3974,N,00908.2394,W,2.983078,342.293873,060617,,*28
$GPGGA,200729.00,3844.3974,N,00908.2394,W,1,00,0.0,125.547813,M,0.0,M,,*75
$GPGLL,3844.3974,N,00908.2394,W,200729.00,A,*3B
$GPGSA,A,3,,,,,,,,,,,,,0.0,0.0,0.0*32
$GPRMC,200730.00,A,3844.3983,N,00908.2395,W,2.965378,353.076082,060617,,*2D
$GPGGA,200730.00,3844.3983,N,00908.2395,W,1,00,0.0,125.549744,M,0.0,M,,*77
$GPGLL,3844.3983,N,00908.2395,W,200730.00,A,*3A
$GPGSA,A,3,,,,,,,,,,,,,0.0,0.0,0.0*32
$GPRMC,200731.00,A,3844.3996,N,00908.2402,W,3.147170,335.905642,060617,,*25
$GPGGA,200731.00,3844.3996,N,00908.2402,W,1,00,0.0,125.285225,M,0.0,M,,*7E
$GPGLL,3844.3996,N,00908.2402,W,200731.00,A,*36
$GPGSA,A,3,,,,,,,,,,,,,0.0,0.0,0.0*32
$GPRMC,200732.00,A,3844.4005,N,00908.2406,W,3.121331,342.903212,060617,,*26
$GPGGA,200732.00,3844.4005,N,00908.2406,W,1,00,0.0,125.837059,M,0.0,M,,*77
$GPGLL,3844.4005,N,00908.2406,W,200732.00,A,*35
$GPGSA,A,3,,,,,,,,,,,,,0.0,0.0,0.0*32
$GPRMC,200733.00,A,3844.4013,N,00908.2409,W,2.968655,344.134790,060617,,*29
$GPGGA,200733.00,3844.4013,N,00908.2409,W,1,00,0.0,126.292320,M,0.0,M,,*75
$GPGLL,3844.4013,N,00908.2409,W,200733.00,A,*3C
$GPGSA,A,3,,,,,,,,,,,,,0.0,0.0,0.0*32
$GPRMC,200734.00,A,3844.4022,N,00908.2413,W,3.027092,342.153422,060617,,*24
$GPGGA,200734.00,3844.4022,N,00908.2413,W,1,00,0.0,125.958511,M,0.0,M,,*71
$GPGLL,3844.4022,N,00908.2413,W,200734.00,A,*32
$GPGSA,A,3,,,,,,,,,,,,,0.0,0.0,0.0*32
$GPRMC,200735.00,A,3844.4029,N,00908.2413,W,3.068286,357.920022,060617,,*2E
$GPGGA,200735.00,3844.4029,N,00908.2413,W,1,00,0.0,125.593285,M,0.0,M,,*7A
$GPGLL,3844.4029,N,00908.2413,W,200735.00,A,*38
$GPGSA,A,3,,,,,,,,,,,,,0.0,0.0,0.0*32
$GPRMC,200736.00,A,3844.4039,N,00908.2417,W,2.998605,343.838669,060617,,*24
$GPGGA,200736.00,3844.4039,N,00908.2417,W,1,00,0.0,125.861649,M,0.0,M,,*78
$GPGLL,3844.4039,N,00908.2417,W,200736.00,A,*3E
$GPGSA,A,3,,,,,,,,,,,,,0.0,0.0,0.0*32
$GPRMC,200737.00,A,3844.4048,N,00908.2425,W,3.076118,324.034040,060617,,*29
$GPGGA,200737.00,3844.4048,N,00908.2425,W,1,00,0.0,126.114845,M,0.0,M,,*74
$GPGLL,3844.4048,N,00908.2425,W,200737.00,A,*38
$GPGSA,A,3,,,,,,,,,,,,,0.0,0.0,0.0*32
$GPRMC,200738.00,A,3844.4057,N,00908.2430,W,2.887767,336.842652,060617,,*2A
$GPGGA,200738.00,3844.4057,N,00908.2430,W,1,00,0.0,125.711098,M,0.0,M,,*79
$GPGLL,3844.4057,N,00908.2430,W,200738.00,A,*3D
$GPGSA,A,3,,,,,,,,,,,,,0.0,0.0,0.0*32
$GPRMC,200739.00,A,3844.4065,N,00908.2430,W,2.961291,1.345510,060617,,*21
$GPGGA,200739.00,3844.4065,N,00908.2430,W,1,00,0.0,125.969940,M,0.0,M,,*74
$GPGLL,3844.4065,N,00908.2430,W,200739.00,A,*3D
$GPGSA,A,3,,,,,,,,,,,,,0.0,0.0,0.0*32
$GPRMC,200740.00,A,3844.4075,N,00908.2434,W,2.951087,341.709452,060617,,*20
$GPGGA,200740.00,3844.4075,N,00908.2434,W,1,00,0.0,126.742508,M,0.0,M,,*7B
$GPGLL,3844.4075,N,00908.2434,W,200740.00,A,*36
$GPGSA,A,3,,,,,,,,,,,,,0.0,0.0,0.0*32
$GPRMC,200741.00,A,3844.4082,N,00908.2437,W,3.017707,336.402917,060617,,*2B
$GPGGA,200741.00,3844.4082,N,00908.2437,W,1,00,0.0,126.966934,M,0.0,M,,*7A
$GPGLL,3844.4082,N,00908.2437,W,200741.00,A,*3C
$GPGSA,A,3,,,,,,,,,,,,,0.0,0.0,0.0*32
$GPRMC,200742.00,A,3844.4088,N,00908.2440,W,2.978671,340.976329,060617,,*2B
$GPGGA,200742.00,3844.4088,N,00908.2440,W,1,00,0.0,126.495171,M,0.0,M,,*7B
$GPGLL,3844.4088,N,00908.2440,W,200742.00,A,*35
$GPGSA,A,3,,,,,,,,,,,,,0.0,0.0,0.0*32
$GPRMC,200743.00,A,3844.4098,N,00908.2446,W,2.877482,334.369097,060617,,*2C
$GPGGA,200743.00,3844.4098,N,00908.2446,W,1,00,0.0,126.763947,M,0.0,M,,*7A
$GPGLL,3844.4098,N,00908.2446,W,200743.00,A,*33
$GPGSA,A,3,,,,,,,,,,,,,0.0,0.0,0.0*32
$GPRMC,200744.00,A,3844.4105,N,00908.2447,W,2.845167,354.827365,060617,,*29
$GPGGA,200744.00,3844.4105,N,00908.2447,W,1,00,0.0,126.366356,M,0.0,M,,*72
$GPGLL,3844.4105,N,00908.2447,W,200744.00,A,*30
$GPGSA,A,3,,,,,,,,,,,,,0.0,0.0,0.0*32
$GPRMC,200745.00,A,3844.4112,N,00908.2450,W,2.981275,343.556844,060617,,*24
$GPGGA,200745.00,3844.4112,N,00908.2450,W,1,00,0.0,126.698288,M,0.0,M,,*75
$GPGLL,3844.4112,N,00908.2450,W,200745.00,A,*31
$GPGSA,A,3,,,,,,,,,,,,,0.0,0.0,0.0*32
$GPRMC,200746.00,A,3844.4119,N,00908.2453,W,3.431423,338.142359,060617,,*27
$GPGGA,200746.00,3844.4119,N,00908.2453,W,1,00,0.0,126.163086,M,0.0,M,,*71
$GPGLL,3844.4119,N,00908.2453,W,200746.00,A,*3A
$GPGSA,A,3,,,,,,,,,,,,,0.0,0.0,0.0*32
$GPRMC,200747.00,A,3844.4129,N,00908.2457,W,3.006964,344.841969,060617,,*27
$GPGGA,200747.00,3844.4129,N,00908.2457,W,1,00,0.0,126.123619,M,0.0,M,,*73
$GPGLL,3844.4129,N,00908.2457,W,200747.00,A,*3C
$GPGSA,A,3,,,,,,,,,,,,,0.0,0.0,0.0*32
$GPRMC,200748.00,A,3844.4137,N,00908.2462,W,2.779935,332.891294,060617,,*2E
$GPGGA,200748.00,3844.4137,N,00908.2462,W,1,00,0.0,126.396194,M,0.0,M,,*7B
$GPGLL,3844.4137,N,00908.2462,W,200748.00,A,*3A
$GPGSA,A,3,,,,,,,,,,,,,0.0,0.0,0.0*32
$GPRMC,200749.00,A,3844.4145,N,00908.2464,W,2.861832,348.085259,060617,,*2D
$GPGGA,200749.00,3844.4145,N,00908.2464,W,1,00,0.0,126.133896,M,0.0,M,,*7F
$GPGLL,3844.4145,N,00908.2464,W,200749.00,A,*38
$GPGSA,A,3,,,,,,,,,,,,,0.0,0.0,0.0*32
$GPRMC,200750.00,A,3844.4150,N,00908.2466,W,2.948076,350.938365,060617,,*29
$GPGGA,200750.00,3844.4150,N,00908.2466,W,1,00,0.0,125.668556,M,0.0,M,,*7A
$GPGLL,3844.4150,N,00908.2466,W,200750.00,A,*36
$GPGSA,A,3,,,,,,,,,,,,,0.0,0.0,0.0*32
$GPRMC,200751.00,A,3844.4157,N,00908.2468,W,3.136394,345.466160,060617,,*2B
$GPGGA,200751.00,3844.4157,N,00908.2468,W,1,00,0.0,125.446167,M,0.0,M,,*7A
$GPGLL,3844.4157,N,00908.2468,W,200751.00,A,*3E
$GPGSA,A,3,,,,,,,,,,,,,0.0,0.0,0.0*32
$GPRMC,200752.00,A,3844.4164,N,00908.2471,W,2.797157,338.254273,060617,,*2D
$GPGGA,200752.00,3844.4164,N,00908.2471,W,1,00,0.0,125.534073,M,0.0,M,,*71
$GPGLL,3844.4164,N,00908.2471,W,200752.00,A,*35
$GPGSA,A,3,,,,,,,,,,,,,0.0,0.0,0.0*32
$GPRMC,200753.00,A,3844.4171,N,00908.2474,W,2.801889,347.224691,060617,,*20
$GPGGA,200753.00,3844.4171,N,00908.2474,W,1,00,0.0,125.737961,M,0.0,M,,*7A
$GPGLL,3844.4171,N,00908.2474,W,200753.00,A,*35
$GPGSA,A,3,,,,,,,,,,,,,0.0,0.0,0.0*32
$GPRMC,200754.00,A,3844.4178,N,00908.2475,W,2.710556,347.417117,060617,,*20
$GPGGA,200754.00,3844.4178,N,00908.2475,W,1,00,0.0,126.076332,M,0.0,M,,*78
$GPGLL,3844.4178,N,00908.2475,W,200754.00,A,*3A
$GPGSA,A,3,,,,,,,,,,,,,0.0,0.0,0.0*32
$GPRMC,200755.00,A,3844.4187,N,00908.2477,W,2.900015,354.657402,060617,,*2B
$GPGGA,200755.00,3844.4187,N,00908.2477,W,1,00,0.0,125.964539,M,0.0,M,,*7F
$GPGLL,3844.4187,N,00908.2477,W,200755.00,A,*39
$GPGSA,A,3,,,,,,,,,,,,,0.0,0.0,0.0*32
$GPRMC,200756.00,A,3844.4194,N,00908.2478,W,2.812494,349.360883,060617,,*22
$GPGGA,200756.00,3844.4194,N,00908.2478,W,1,00,0.0,125.602150,M,0.0,M,,*75
$GPGLL,3844.4194,N,00908.2478,W,200756.00,A,*37
$GPGSA,A,3,,,,,,,,,,,,,0.0,0.0,0.0*32
$GPRMC,200757.00,A,3844.4203,N,00908.2481,W,2.966838,343.955370,060617,,*21
$GPGGA,200757.00,3844.4203,N,00908.2481,W,1,00,0.0,126.038551,M,0.0,M,,*76
$GPGLL,3844.4203,N,00908.2481,W,200757.00,A,*3D
$GPGSA,A,3,,,,,,,,,,,,,0.0,0.0,0.0*32
$GPRMC,200758.00,A,3844.4210,N,00908.2485,W,2.922855,337.969241,060617,,*2C
$GPGGA,200758.00,3844.4210,N,00908.2485,W,1,00,0.0,126.055054,M,0.0,M,,*74
$GPGLL,3844.4210,N,00908.2485,W,200758.00,A,*34
$GPGSA,A,3,,,,,,,,,,,,,0.0,0.0,0.0*32
$GPRMC,200759.00,A,3844.4218,N,00908.2486,W,2.856830,356.849576,060617,,*20
$GPGGA,200759.00,3844.4218,N,00908.2486,W,1,00,0.0,125.930214,M,0.0,M,,*71
$GPGLL,3844.4218,N,00908.2486,W,200759.00,A,*3E
$GPGSA,A,3,,,,,,,,,,,,,0.0,0.0,0.0*32
$GPRMC,200800.00,A,3844.4224,N,00908.2490,W,2.752111,330.305306,060617,,*28
$GPGGA,200800.00,3844.4224,N,00908.2490,W,1,00,0.0,126.314758,M,0.0,M,,*78
$GPGLL,3844.4224,N,00908.2490,W,200800.00,A,*35
$GPGSA,A,3,,,,,,,,,,,,,0.0,0.0,0.0*32
$GPRMC,200801.00,A,3844.4232,N,00908.2496,W,3.255627,334.783664,060617,,*26
$GPGGA,200801.00,3844.4232,N,00908.2496,W,1,00,0.0,126.636002,M,0.0,M,,*75
$GPGLL,3844.4232,N,00908.2496,W,200801.00,A,*35
$GPGSA,A,3,,,,,,,,,,,,,0.0,0.0,0.0*32
$GPRMC,200802.00,A,3844.4241,N,00908.2500,W,3.002261,337.279777,060617,,*29
$GPGGA,200802.00,3844.4241,N,00908.2500,W,1,00,0.0,126.788940,M,0.0,M,,*77
$GPGLL,3844.4241,N,00908.2500,W,200802.00,A,*3C
$GPGSA,A,3,,,,,,,,,,,,,0.0,0.0,0.0*32
$GPRMC,200803.00,A,3844.4250,N,00908.2504,W,2.994295,340.110916,060617,,*25
$GPGGA,200803.00,3844.4250,N,00908.2504,W,1,00,0.0,127.113701,M,0.0,M,,*7C
$GPGLL,3844.4250,N,00908.2504,W,200803.00,A,*39
$GPGSA,A,3,,,,,,,,,,,,,0.0,0.0,0.0*32
$GPRMC,200804.00,A,3844.4257,N,00908.2508,W,2.300558,337.534120,060617,,*27
$GPGGA,200804.00,3844.4257,N,00908.2508,W,1,00,0.0,127.108215,M,0.0,M,,*7A
$GPGLL,3844.4257,N,00908.2508,W,200804.00,A,*35
$GPGSA,A,3,,,,,,,,,,,,,0.0,0.0,0.0*32
$GPRMC,200805.00,A,3844.4261,N,00908.2509,W,1.656388,349.316733,060617,,*27
$GPGGA,200805.00,3844.4261,N,00908.2509,W,1,00,0.0,127.028320,M,0.0,M,,*7B
$GPGLL,3844.4261,N,00908.2509,W,200805.00,A,*30
$GPGSA,A,3,,,,,,,,,,,,,0.0,0.0,0.0*32
$GPRMC,200806.00,A,3844.4268,N,00908.2508,W,2.487682,3.772005,060617,,*27
$GPGGA,200806.00,3844.4268,N,00908.2508,W,1,00,0.0,126.928787,M,0.0,M,,*71
$GPGLL,3844.4268,N,00908.2508,W,200806.00,A,*3B
$GPGSA,A,3,,,,,,,,,,,,,0.0,0.0,0.0*32
$GPRMC,200807.00,A,3844.4276,N,00908.2510,W,2.642214,350.450410,060617,,*26
$GPGGA,200807.00,3844.4276,N,00908.2510,W,1,00,0.0,126.889992,M,0.0,M,,*76
$GPGLL,3844.4276,N,00908.2510,W,200807.00,A,*3C
$GPGSA,A,3,,,,,,,,,,,,,0.0,0.0,0.0*32
$GPRMC,200808.00,A,3844.4283,N,00908.2515,W,3.127032,333.390303,060617,,*2E
$GPGGA,200808.00,3844.4283,N,00908.2515,W,1,00,0.0,126.885216,M,0.0,M,,*7D
$GPGLL,3844.4283,N,00908.2515,W,200808.00,A,*3C
$GPGSA,A,3,,,,,,,,,,,,,0.0,0.0,0.0*32
$GPRMC,200809.00,A,3844.4286,N,00908.2516,W,1.712843,342.034210,060617,,*2D
$GPGGA,200809.00,3844.4286,N,00908.2516,W,1,00,0.0,126.682106,M,0.0,M,,*71
$GPGLL,3844.4286,N,00908.2516,W,200809.00,A,*3B
$GPGSA,A,3,,,,,,,,,,,,,0.0,0.0,0.0*32
$GPRMC,200810.00,A,3844.4287,N,00908.2514,W,2.061786,42.896201,060617,,*13
$GPGGA,200810.00,3844.4287,N,00908.2514,W,1,00,0.0,126.759850,M,0.0,M,,*77
$GPGLL,3844.4287,N,00908.2514,W,200810.00,A,*30
$GPGSA,A,3,,,,,,,,,,,,,0.0,0.0,0.0*32
$GPRMC,200811.00,A,3844.4292,N,00908.2519,W,2.347203,327.490534,060617,,*2F
$GPGGA,200811.00,3844.4292,N,00908.2519,W,1,00,0.0,126.362831,M,0.0,M,,*74
$GPGLL,3844.4292,N,00908.2519,W,200811.00,A,*38
$GPGSA,A,3,,,,,,,,,,,,,0.0,0.0,0.0*32
$GPRMC,200812.00,A,3844.4300,N,00908.2522,W,2.303348,338.170217,060617,,*23
$GPGGA,200812.00,3844.4300,N,00908.2522,W,1,00,0.0,126.530220,M,0.0,M,,*7E
$GPGLL,3844.4300,N,00908.2522,W,200812.00,A,*39
$GPGSA,A,3,,,,,,,,,,,,,0.0,0.0,0.0*32
$GPRMC,200813.00,A,3844.4289,N,00908.2546,W,1.455874,240.819602,060617,,*2B
$GPGGA,200813.00,3844.4289,N,00908.2546,W,1,00,0.0,126.468811,M,0.0,M,,*79
$GPGLL,3844.4289,N,00908.2546,W,200813.00,A,*3A
$GPGSA,A,3,,,,,,,,,,,,,0.0,0.0,0.0*32
$GPRMC,200814.00,A,3844.4293,N,00908.2549,W,1.949862,332.942228,060617,,*28
$GPGGA,200814.00,3844.4293,N,00908.2549,W,1,00,0.0,126.035385,M,0.0,M,,*70
$GPGLL,3844.4293,N,00908.2549,W,200814.00,A,*39
$GPGSA,A,3,,,,,,,,,,,,,0.0,0.0,0.0*32
$GPRMC,200815.00,A,3844.4302,N,00908.2547,W,2.124026,6.640185,060617,,*2B
$GPGGA,200815.00,3844.4302,N,00908.2547,W,1,00,0.0,126.068550,M,0.0,M,,*70
$GPGLL,3844.4302,N,00908.2547,W,200815.00,A,*3F
$GPGSA,A,3,,,,,,,,,,,,,0.0,0.0,0.0*32
$GPRMC,200816.00,A,3844.4318,N,00908.2548,W,2.667399,359.704348,060617,,*20
$GPGGA,200816.00,3844.4318,N,00908.2548,W,1,00,0.0,125.974716,M,0.0,M,,*70
$GPGLL,3844.4318,N,00908.2548,W,200816.00,A,*38
$GPGSA,A,3,,,,,,,,,,,,,0.0,0.0,0.0*32
$GPRMC,200817.00,A,3844.4327,N,00908.2556,W,2.191648,322.497151,060617,,*2A
$GPGGA,200817.00,3844.4327,N,00908.2556,W,1,00,0.0,125.204918,M,0.0,M,,*7E
$GPGLL,3844.4327,N,00908.2556,W,200817.00,A,*3A
$GPGSA,A,3,,,,,,,,,,,,,0.0,0.0,0.0*32
$GPRMC,200818.00,A,3844.4332,N,00908.2559,W,2.359920,336.738872,060617,,*22
$GPGGA,200818.00,3844.4332,N,00908.2559,W,1,00,0.0,125.203156,M,0.0,M,,*7F
$GPGLL,3844.4332,N,00908.2559,W,200818.00,A,*3E
$GPGSA,A,3,,,,,,,,,,,,,0.0,0.0,0.0*32
$GPRMC,200819.00,A,3844.4339,N,00908.2563,W,2.080699,334.837077,060617,,*24
$GPGGA,200819.00,3844.4339,N,00908.2563,W,1,00,0.0,125.339684,M,0.0,M,,*7C
$GPGLL,3844.4339,N,00908.2563,W,200819.00,A,*3D
$GPGSA,A,3,,,,,,,,,,,,,0.0,0.0,0.0*32
$GPRMC,200820.00,A,3844.4341,N,00908.2566,W,2.486189,303.989698,060617,,*27
$GPGGA,200820.00,3844.4341,N,00908.2566,W,1,00,0.0,125.517731,M,0.0,M,,*79
$GPGLL,3844.4341,N,00908.2566,W,200820.00,A,*3D
$GPGSA,A,3,,,,,,,,,,,,,0.0,0.0,0.0*32
$GPRMC,200821.00,A,3844.4347,N,00908.2568,W,3.118912,347.492614,060617,,*24
$GPGGA,200821.00,3844.4347,N,00908.2568,W,1,00,0.0,125.448967,M,0.0,M,,*76
$GPGLL,3844.4347,N,00908.2568,W,200821.00,A,*34
$GPGSA,A,3,,,,,,,,,,,,,0.0,0.0,0.0*32
$GPRMC,200822.00,A,3844.4358,N,00908.2570,W,3.287974,349.797507,060617,,*2C
$GPGGA,200822.00,3844.4358,N,00908.2570,W,1,00,0.0,125.917442,M,0.0,M,,*7F
$GPGLL,3844.4358,N,00908.2570,W,200822.00,A,*30
$GPGSA,A,3,,,,,,,,,,,,,0.0,0.0,0.0*32
$GPRMC,200823.00,A,3844.4371,N,00908.2571,W,3.277011,357.617852,060617,,*29
$GPGGA,200823.00,3844.4371,N,00908.2571,W,1,00,0.0,126.345764,M,0.0,M,,*7D
$GPGLL,3844.4371,N,00908.2571,W,200823.00,A,*3B
$GPGSA,A,3,,,,,,,,,,,,,0.0,0.0,0.0*32
$GPRMC,200824.00,A,3844.4381,N,00908.2578,W,2.997068,328.213913,060617,,*2E
$GPGGA,200824.00,3844.4381,N,00908.2578,W,1,00,0.0,125.964088,M,0.0,M,,*73
$GPGLL,3844.4381,N,00908.2578,W,200824.00,A,*3A
$GPGSA,A,3,,,,,,,,,,,,,0.0,0.0,0.0*32
$GPRMC,200825.00,A,3844.4395,N,00908.2584,W,2.918215,342.285419,060617,,*22
$GPGGA,200825.00,3844.4395,N,00908.2584,W,1,00,0.0,125.829102,M,0.0,M,,*7F
$GPGLL,3844.4395,N,00908.2584,W,200825.00,A,*3D
$GPGSA,A,3,,,,,,,,,,,,,0.0,0.0,0.0*32
$GPRMC,200826.00,A,3844.4410,N,00908.2591,W,3.398993,341.680869,060617,,*20
$GPGGA,200826.00,3844.4410,N,00908.2591,W,1,00,0.0,125.778236,M,0.0,M,,*7D
$GPGLL,3844.4410,N,00908.2591,W,200826.00,A,*30
$GPGSA,A,3,,,,,,,,,,,,,0.0,0.0,0.0*32
$GPRMC,200827.00,A,3844.4418,N,00908.2596,W,2.754700,333.300377,060617,,*23
$GPGGA,200827.00,3844.4418,N,00908.2596,W,1,00,0.0,125.501732,M,0.0,M,,*7E
$GPGLL,3844.4418,N,00908.2596,W,200827.00,A,*3E
$GPGSA,A,3,,,,,,,,,,,,,0.0,0.0,0.0*32
$GPRMC,200828.00,A,3844.4438,N,00908.2599,W,2.873135,353.983829,060617,,*2C
$GPGGA,200828.00,3844.4438,N,00908.2599,W,1,00,0.0,125.719032,M,0.0,M,,*70
$GPGLL,3844.4438,N,00908.2599,W,200828.00,A,*3C
$GPGSA,A,3,,,,,,,,,,,,,0.0,0.0,0.0*32
$GPRMC,200829.00,A,3844.4443,N,00908.2598,W,2.849033,8.392030,060617,,*29
$GPGGA,200829.00,3844.4443,N,00908.2598,W,1,00,0.0,126.147179,M,0.0,M,,*7C
$GPGLL,3844.4443,N,00908.2598,W,200829.00,A,*30
$GPGSA,A,3,,,,,,,,,,,,,0.0,0.0,0.0*32
$GPRMC,200830.00,A,3844.4450,N,00908.2599,W,2.995864,351.116896,060617,,*2D
$GPGGA,200830.00,3844.4450,N,00908.2599,W,1,00,0.0,126.031136,M,0.0,M,,*7C
$GPGLL,3844.4450,N,00908.2599,W,200830.00,A,*3B
$GPGSA,A,3,,,,,,,,,,,,,0.0,0.0,0.0*32
$GPRMC,200831.00,A,3844.4457,N,00908.2606,W,3.071135,322.170630,060617,,*27
$GPGGA,200831.00,3844.4457,N,00908.2606,W,1,00,0.0,126.815887,M,0.0,M,,*72
$GPGLL,3844.4457,N,00908.2606,W,200831.00,A,*38
$GPGSA,A,3,,,,,,,,,,,,,0.0,0.0,0.0*32
$GPRMC,200832.00,A,3844.4463,N,00908.2602,W,2.105618,25.130969,060617,,*1F
$GPGGA,200832.00,3844.4463,N,00908.2602,W,1,00,0.0,127.291191,M,0.0,M,,*7B
$GPGLL,3844.4463,N,00908.2602,W,200832.00,A,*38
$GPGSA,A,3,,,,,,,,,,,,,0.0,0.0,0.0*32
$GPRMC,200833.00,A,3844.4467,N,00908.2594,W,1.277918,59.389679,060617,,*19
$GPGGA,200833.00,3844.4467,N,00908.2594,W,1,00,0.0,128.235214,M,0.0,M,,*7D
$GPGLL,3844.4467,N,00908.2594,W,200833.00,A,*31
$GPGSA,A,3,,,,,,,,,,,,,0.0,0.0,0.0*32
$GPRMC,200834.00,A,3844.4467,N,00908.2592,W,0.777108,80.614989,060617,,*10
$GPGGA,200834.00,3844.4467,N,00908.2592,W,1,00,0.0,128.530823,M,0.0,M,,*70
$GPGLL,3844.4467,N,00908.2592,W,200834.00,A,*30
