$GPRMC,194319.00,A,3844.3001,N,00908.3361,W,3.111429,0.000000,070617,,*23
$GPGGA,194319.00,3844.3001,N,00908.3361,W,1,00,0.0,149.915985,M,0.0,M,,*73
$GPGLL,3844.3001,N,00908.3361,W,194319.00,A,*32
$GPGSA,A,3,,,,,,,,,,,,,0.0,0.0,0.0*32
$GPRMC,194320.00,A,3844.2999,N,00908.3376,W,3.527610,262.388034,070617,,*2D
$GPGGA,194320.00,3844.2999,N,00908.3376,W,1,00,0.0,149.907608,M,0.0,M,,*7F
$GPGLL,3844.2999,N,00908.3376,W,194320.00,A,*37
$GPGSA,A,3,,,,,,,,,,,,,0.0,0.0,0.0*32
$GPRMC,194321.00,A,3844.3002,N,00908.3385,W,3.366619,291.615359,070617,,*25
$GPGGA,194321.00,3844.3002,N,00908.3385,W,1,00,0.0,149.904510,M,0.0,M,,*71
$GPGLL,3844.3002,N,00908.3385,W,194321.00,A,*30
$GPGSA,A,3,,,,,,,,,,,,,0.0,0.0,0.0*32
$GPRMC,194322.00,A,3844.3007,N,00908.3394,W,3.247129,306.300121,070617,,*26
$GPGGA,194322.00,3844.3007,N,00908.3394,W,1,00,0.0,149.901505,M,0.0,M,,*76
$GPGLL,3844.3007,N,00908.3394,W,194322.00,A,*36
$GPGSA,A,3,,,,,,,,,,,,,0.0,0.0,0.0*32
$GPRMC,194323.00,A,3844.3007,N,00908.3401,W,2.954691,273.241929,070617,,*27
$GPGGA,194323.00,3844.3007,N,00908.3401,W,1,00,0.0,149.896957,M,0.0,M,,*78
$GPGLL,3844.3007,N,00908.3401,W,194323.00,A,*3C
$GPGSA,A,3,,,,,,,,,,,,,0.0,0.0,0.0*32
$GPRMC,194324.00,A,3844.3030,N,00908.3341,W,0.732111,63.522693,070617,,*1B
$GPGGA,194324.00,3844.3030,N,00908.3341,W,1,00,0.0,149.880371,M,0.0,M,,*71
$GPGLL,3844.3030,N,00908.3341,W,194324.00,A,*3C
$GPGSA,A,3,,,,,,,,,,,,,0.0,0.0,0.0*32
$GPRMC,194325.00,A,3844.3027,N,00908.3340,W,0.411032,164.073768,070617,,*2D
$GPGGA,194325.00,3844.3027,N,00908.3340,W,1,00,0.0,149.879929,M,0.0,M,,*76
$GPGLL,3844.3027,N,00908.3340,W,194325.00,A,*3A
$GPGSA,A,3,,,,,,,,,,,,,0.0,0.0,0.0*32
$GPRMC,194326.00,A,3844.3019,N,00908.3336,W,0.090295,158.974259,070617,,*26
$GPGGA,194326.00,3844.3019,N,00908.3336,W,1,00,0.0,149.880905,M,0.0,M,,*71
$GPGLL,3844.3019,N,00908.3336,W,194326.00,A,*35
$GPGSA,A,3,,,,,,,,,,,,,0.0,0.0,0.0*32
$GPRMC,194327.00,A,3844.3023,N,00908.3325,W,0.348562,65.948514,070617,,*1B
$GPGGA,194327.00,3844.3023,N,00908.3325,W,1,00,0.0,149.880219,M,0.0,M,,*7D
$GPGLL,3844.3023,N,00908.3325,W,194327.00,A,*3F
$GPGSA,A,3,,,,,,,,,,,,,0.0,0.0,0.0*32
$GPRMC,194328.00,A,3844.2964,N,00908.3314,W,1.611265,171.788462,070617,,*23
$GPGGA,194328.00,3844.2964,N,00908.3314,W,1,00,0.0,149.901749,M,0.0,M,,*73
$GPGLL,3844.2964,N,00908.3314,W,194328.00,A,*39
$GPGSA,A,3,,,,,,,,,,,,,0.0,0.0,0.0*32
$GPRMC,194329.00,A,3844.2945,N,00908.3326,W,1.736980,205.792639,070617,,*23
$GPGGA,194329.00,3844.2945,N,00908.3326,W,1,00,0.0,149.916473,M,0.0,M,,*7C
$GPGLL,3844.2945,N,00908.3326,W,194329.00,A,*3A
$GPGSA,A,3,,,,,,,,,,,,,0.0,0.0,0.0*32
$GPRMC,194330.00,A,3844.2954,N,00908.3298,W,1.978410,68.864298,070617,,*1F
$GPGGA,194330.00,3844.2954,N,00908.3298,W,1,00,0.0,149.913727,M,0.0,M,,*77
$GPGLL,3844.2954,N,00908.3298,W,194330.00,A,*36
$GPGSA,A,3,,,,,,,,,,,,,0.0,0.0,0.0*32
$GPRMC,194331.00,A,3844.2949,N,00908.3295,W,1.914445,153.199740,070617,,*27
$GPGGA,194331.00,3844.2949,N,00908.3295,W,1,00,0.0,149.955887,M,0.0,M,,*70
$GPGLL,3844.2949,N,00908.3295,W,194331.00,A,*36
$GPGSA,A,3,,,,,,,,,,,,,0.0,0.0,0.0*32
$GPRMC,194332.00,A,3844.2949,N,00908.3285,W,1.805122,92.913211,070617,,*17
$GPGGA,194332.00,3844.2949,N,00908.3285,W,1,00,0.0,149.956696,M,0.0,M,,*7F
$GPGLL,3844.2949,N,00908.3285,W,194332.00,A,*34
$GPGSA,A,3,,,,,,,,,,,,,0.0,0.0,0.0*32
$GPRMC,194333.00,A,3844.2940,N,00908.3280,W,1.747743,152.788799,070617,,*26
$GPGGA,194333.00,3844.2940,N,00908.3280,W,1,00,0.0,149.958725,M,0.0,M,,*75
$GPGLL,3844.2940,N,00908.3280,W,194333.00,A,*39
$GPGSA,A,3,,,,,,,,,,,,,0.0,0.0,0.0*32
$GPRMC,194334.00,A,3844.2938,N,00908.3273,W,1.714653,115.972335,070617,,*2E
$GPGGA,194334.00,3844.2938,N,00908.3273,W,1,00,0.0,149.960999,M,0.0,M,,*73
$GPGLL,3844.2938,N,00908.3273,W,194334.00,A,*3D
$GPGSA,A,3,,,,,,,,,,,,,0.0,0.0,0.0*32
$GPRMC,194335.00,A,3844.2940,N,00908.3268,W,1.285148,58.259047,070617,,*16
$GPGGA,194335.00,3844.2940,N,00908.3268,W,1,00,0.0,149.957779,M,0.0,M,,*73
$GPGLL,3844.2940,N,00908.3268,W,194335.00,A,*39
$GPGSA,A,3,,,,,,,,,,,,,0.0,0.0,0.0*32
$GPRMC,194336.00,A,3844.2933,N,00908.3262,W,1.260303,147.657736,070617,,*29
$GPGGA,194336.00,3844.2933,N,00908.3262,W,1,00,0.0,149.966583,M,0.0,M,,*7B
$GPGLL,3844.2933,N,00908.3262,W,194336.00,A,*34
$GPGSA,A,3,,,,,,,,,,,,,0.0,0.0,0.0*32
$GPRMC,194337.00,A,3844.2941,N,00908.3262,W,0.489343,357.604506,070617,,*2D
$GPGGA,194337.00,3844.2941,N,00908.3262,W,1,00,0.0,149.977921,M,0.0,M,,*7B
$GPGLL,3844.2941,N,00908.3262,W,194337.00,A,*30
$GPGSA,A,3,,,,,,,,,,,,,0.0,0.0,0.0*32
$GPRMC,194338.00,A,3844.2936,N,00908.3265,W,0.182778,204.224030,070617,,*26
$GPGGA,194338.00,3844.2936,N,00908.3265,W,1,00,0.0,149.982605,M,0.0,M,,*70
$GPGLL,3844.2936,N,00908.3265,W,194338.00,A,*38
$GPGSA,A,3,,,,,,,,,,,,,0.0,0.0,0.0*32
$GPRMC,194339.00,A,3844.2937,N,00908.3268,W,0.261031,298.111270,070617,,*29
$GPGGA,194339.00,3844.2937,N,00908.3268,W,1,00,0.0,149.987839,M,0.0,M,,*79
$GPGLL,3844.2937,N,00908.3268,W,194339.00,A,*35
$GPGSA,A,3,,,,,,,,,,,,,0.0,0.0,0.0*32
$GPRMC,194340.00,A,3844.2951,N,00908.3255,W,0.570628,35.694578,070617,,*10
$GPGGA,194340.00,3844.2951,N,00908.3255,W,1,00,0.0,149.987488,M,0.0,M,,*7F
$GPGLL,3844.2951,N,00908.3255,W,194340.00,A,*35
$GPGSA,A,3,,,,,,,,,,,,,0.0,0.0,0.0*32
$GPRMC,194341.00,A,3844.3019,N,00908.3199,W,1.732636,32.330050,070617,,*1F
$GPGGA,194341.00,3844.3019,N,00908.3199,W,1,00,0.0,150.017563,M,0.0,M,,*75
$GPGLL,3844.3019,N,00908.3199,W,194341.00,A,*33
$GPGSA,A,3,,,,,,,,,,,,,0.0,0.0,0.0*32
$GPRMC,194342.00,A,3844.3018,N,00908.3199,W,1.708103,166.902892,070617,,*28
$GPGGA,194342.00,3844.3018,N,00908.3199,W,1,00,0.0,150.011169,M,0.0,M,,*7F
$GPGLL,3844.3018,N,00908.3199,W,194342.00,A,*31
$GPGSA,A,3,,,,,,,,,,,,,0.0,0.0,0.0*32
$GPRMC,194343.00,A,3844.3025,N,00908.3187,W,1.808603,52.221643,070617,,*1E
$GPGGA,194343.00,3844.3025,N,00908.3187,W,1,00,0.0,149.992569,M,0.0,M,,*71
$GPGLL,3844.3025,N,00908.3187,W,194343.00,A,*31
$GPGSA,A,3,,,,,,,,,,,,,0.0,0.0,0.0*32
$GPRMC,194344.00,A,3844.3031,N,00908.3182,W,1.960149,30.043950,070617,,*10
$GPGGA,194344.00,3844.3031,N,00908.3182,W,1,00,0.0,149.988602,M,0.0,M,,*73
$GPGLL,3844.3031,N,00908.3182,W,194344.00,A,*36
$GPGSA,A,3,,,,,,,,,,,,,0.0,0.0,0.0*32
$GPRMC,194345.00,A,3844.3032,N,00908.3186,W,1.910286,285.849669,070617,,*2A
$GPGGA,194345.00,3844.3032,N,00908.3186,W,1,00,0.0,149.996185,M,0.0,M,,*72
$GPGLL,3844.3032,N,00908.3186,W,194345.00,A,*30
$GPGSA,A,3,,,,,,,,,,,,,0.0,0.0,0.0*32
$GPRMC,194346.00,A,3844.3036,N,00908.3182,W,1.891504,43.422318,070617,,*16
$GPGGA,194346.00,3844.3036,N,00908.3182,W,1,00,0.0,149.995499,M,0.0,M,,*7A
$GPGLL,3844.3036,N,00908.3182,W,194346.00,A,*33
$GPGSA,A,3,,,,,,,,,,,,,0.0,0.0,0.0*32
$GPRMC,194347.00,A,3844.3041,N,00908.3182,W,1.915088,3.596208,070617,,*21
$GPGGA,194347.00,3844.3041,N,00908.3182,W,1,00,0.0,150.006195,M,0.0,M,,*79
$GPGLL,3844.3041,N,00908.3182,W,194347.00,A,*32
$GPGSA,A,3,,,,,,,,,,,,,0.0,0.0,0.0*32
$GPRMC,194348.00,A,3844.3052,N,00908.3165,W,2.064414,48.665965,070617,,*18
$GPGGA,194425.00,3844.3065,N,00908.3190,W,1,00,0.0,149.759338,M,0.0,M,,*7F
$GPGLL,3844.3065,N,00908.3190,W,194425.00,A,*34
$GPGSA,A,3,,,,,,,,,,,,,0.0,0.0,0.0*32
$GPRMC,194426.00,A,3844.3071,N,00908.3192,W,1.623039,344.740578,070617,,*2A
$GPGGA,194426.00,3844.3071,N,00908.3192,W,1,00,0.0,149.756073,M,0.0,M,,*78
$GPGLL,3844.3071,N,00908.3192,W,194426.00,A,*30
$GPGSA,A,3,,,,,,,,,,,,,0.0,0.0,0.0*32
$GPRMC,194427.00,A,3844.3078,N,00908.3196,W,1.722487,336.924774,070617,,*20
$GPGGA,194427.00,3844.3078,N,00908.3196,W,1,00,0.0,149.751404,M,0.0,M,,*77
$GPGLL,3844.3078,N,00908.3196,W,194427.00,A,*3C
$GPGSA,A,3,,,,,,,,,,,,,0.0,0.0,0.0*32
$GPRMC,194428.00,A,3844.3084,N,00908.3192,W,1.607542,24.140146,070617,,*1B
$GPGGA,194428.00,3844.3084,N,00908.3192,W,1,00,0.0,149.742371,M,0.0,M,,*78
$GPGLL,3844.3084,N,00908.3192,W,194428.00,A,*34
$GPGSA,A,3,,,,,,,,,,,,,0.0,0.0,0.0*32
$GPRMC,194429.00,A,3844.3092,N,00908.3193,W,1.619010,356.530960,070617,,*28
$GPGGA,194429.00,3844.3092,N,00908.3193,W,1,00,0.0,149.737534,M,0.0,M,,*7A
$GPGLL,3844.3092,N,00908.3193,W,194429.00,A,*33
$GPGSA,A,3,,,,,,,,,,,,,0.0,0.0,0.0*32
$GPRMC,194430.00,A,3844.3100,N,00908.3196,W,1.711736,343.561412,070617,,*2D
$GPGGA,194430.00,3844.3100,N,00908.3196,W,1,00,0.0,149.729584,M,0.0,M,,*79
$GPGLL,3844.3100,N,00908.3196,W,194430.00,A,*34
$GPGSA,A,3,,,,,,,,,,,,,0.0,0.0,0.0*32
$GPRMC,194431.00,A,3844.3112,N,00908.3199,W,1.896219,349.581730,070617,,*2F
$GPGGA,194431.00,3844.3112,N,00908.3199,W,1,00,0.0,149.723862,M,0.0,M,,*7B
$GPGLL,3844.3112,N,00908.3199,W,194431.00,A,*39
$GPGSA,A,3,,,,,,,,,,,,,0.0,0.0,0.0*32
$GPRMC,194432.00,A,3844.3132,N,00908.3190,W,1.892187,17.657977,070617,,*1A
$GPGGA,194432.00,3844.3132,N,00908.3190,W,1,00,0.0,149.722580,M,0.0,M,,*73
$GPGLL,3844.3132,N,00908.3190,W,194432.00,A,*31
$GPGSA,A,3,,,,,,,,,,,,,0.0,0.0,0.0*32
$GPRMC,194433.00,A,3844.3148,N,00908.3174,W,1.738903,39.814262,070617,,*1D
$GPGGA,194433.00,3844.3148,N,00908.3174,W,1,00,0.0,149.710907,M,0.0,M,,*77
$GPGLL,3844.3148,N,00908.3174,W,194433.00,A,*37
$GPGSA,A,3,,,,,,,,,,,,,0.0,0.0,0.0*32
$GPRMC,194434.00,A,3844.3147,N,00908.3180,W,1.675365,261.027223,070617,,*2E
$GPGGA,194434.00,3844.3147,N,00908.3180,W,1,00,0.0,149.699936,M,0.0,M,,*76
$GPGLL,3844.3147,N,00908.3180,W,194434.00,A,*34
$GPGSA,A,3,,,,,,,,,,,,,0.0,0.0,0.0*32
$GPRMC,194435.00,A,3844.3201,N,00908.3125,W,1.931100,38.925100,070617,,*18
$GPGGA,194435.00,3844.3201,N,00908.3125,W,1,00,0.0,149.688690,M,0.0,M,,*7A
$GPGLL,3844.3201,N,00908.3125,W,194435.00,A,*3B
$GPGSA,A,3,,,,,,,,,,,,,0.0,0.0,0.0*32
$GPRMC,194436.00,A,3844.3203,N,00908.3128,W,1.572977,319.320899,070617,,*21
$GPGGA,194436.00,3844.3203,N,00908.3128,W,1,00,0.0,149.670731,M,0.0,M,,*7B
$GPGLL,3844.3203,N,00908.3128,W,194436.00,A,*37
$GPGSA,A,3,,,,,,,,,,,,,0.0,0.0,0.0*32
$GPRMC,194437.00,A,3844.3232,N,00908.3090,W,2.010431,45.828270,070617,,*19
$GPGGA,194437.00,3844.3232,N,00908.3090,W,1,00,0.0,149.658524,M,0.0,M,,*76
$GPGLL,3844.3232,N,00908.3090,W,194437.00,A,*36
$GPGSA,A,3,,,,,,,,,,,,,0.0,0.0,0.0*32
$GPRMC,194438.00,A,3844.3238,N,00908.3087,W,2.076512,23.807208,070617,,*18
$GPGGA,194438.00,3844.3238,N,00908.3087,W,1,00,0.0,149.657913,M,0.0,M,,*72
$GPGLL,3844.3238,N,00908.3087,W,194438.00,A,*35
$GPGSA,A,3,,,,,,,,,,,,,0.0,0.0,0.0*32
$GPRMC,194439.00,A,3844.3227,N,00908.3078,W,2.201904,148.848192,070617,,*29
$GPGGA,194439.00,3844.3227,N,00908.3078,W,1,00,0.0,149.654785,M,0.0,M,,*7F
$GPGLL,3844.3227,N,00908.3078,W,194439.00,A,*3A
$GPGSA,A,3,,,,,,,,,,,,,0.0,0.0,0.0*32
$GPRMC,194440.00,A,3844.3240,N,00908.3069,W,2.267126,27.424888,070617,,*12
$GPGGA,194440.00,3844.3240,N,00908.3069,W,1,00,0.0,149.631042,M,0.0,M,,*7F
$GPGLL,3844.3240,N,00908.3069,W,194440.00,A,*35
$GPGSA,A,3,,,,,,,,,,,,,0.0,0.0,0.0*32
$GPRMC,194441.00,A,3844.3226,N,00908.3071,W,2.020813,185.486804,070617,,*21
$GPGGA,194441.00,3844.3226,N,00908.3071,W,1,00,0.0,149.639130,M,0.0,M,,*7B
$GPGLL,3844.3226,N,00908.3071,W,194441.00,A,*3D
$GPGSA,A,3,,,,,,,,,,,,,0.0,0.0,0.0*32
$GPRMC,194442.00,A,3844.3223,N,00908.3064,W,1.998988,119.009959,070617,,*26
$GPGGA,194442.00,3844.3223,N,00908.3064,W,1,00,0.0,149.639618,M,0.0,M,,*74
$GPGLL,3844.3223,N,00908.3064,W,194442.00,A,*3F
$GPGSA,A,3,,,,,,,,,,,,,0.0,0.0,0.0*32
$GPRMC,194443.00,A,3844.3220,N,00908.3060,W,1.973025,137.484293,070617,,*2B
$GPGGA,194443.00,3844.3220,N,00908.3060,W,1,00,0.0,149.629349,M,0.0,M,,*72
$GPGLL,3844.3220,N,00908.3060,W,194443.00,A,*39
$GPGSA,A,3,,,,,,,,,,,,,0.0,0.0,0.0*32
$GPRMC,194444.00,A,3844.3231,N,00908.3045,W,2.021107,46.539894,070617,,*1A
$GPGGA,194444.00,3844.3231,N,00908.3045,W,1,00,0.0,149.623093,M,0.0,M,,*7C
$GPGLL,3844.3231,N,00908.3045,W,194444.00,A,*39
$GPGSA,A,3,,,,,,,,,,,,,0.0,0.0,0.0*32
$GPRMC,194445.00,A,3844.3269,N,00908.2994,W,2.837812,45.961929,070617,,*15
$GPGGA,194445.00,3844.3269,N,00908.2994,W,1,00,0.0,149.651657,M,0.0,M,,*7F
$GPGLL,3844.3269,N,00908.2994,W,194445.00,A,*31
$GPGSA,A,3,,,,,,,,,,,,,0.0,0.0,0.0*32
$GPRMC,194446.00,A,3844.3275,N,00908.2980,W,2.881253,60.136842,070617,,*1D
$GPGGA,194446.00,3844.3275,N,00908.2980,W,1,00,0.0,149.642822,M,0.0,M,,*7A
$GPGLL,3844.3275,N,00908.2980,W,194446.00,A,*3A
$GPGSA,A,3,,,,,,,,,,,,,0.0,0.0,0.0*32
$GPRMC,194447.00,A,3844.3283,N,00908.2974,W,2.721313,27.457677,070617,,*17
$GPGGA,194447.00,3844.3283,N,00908.2974,W,1,00,0.0,149.610397,M,0.0,M,,*7B
$GPGLL,3844.3283,N,00908.2974,W,194447.00,A,*39
$GPGSA,A,3,,,,,,,,,,,,,0.0,0.0,0.0*32
$GPRMC,194448.00,A,3844.3272,N,00908.2989,W,2.358904,225.132556,070617,,*24
$GPGGA,194448.00,3844.3272,N,00908.2989,W,1,00,0.0,149.613449,M,0.0,M,,*7F
$GPGLL,3844.3272,N,00908.2989,W,194448.00,A,*3A
$GPGSA,A,3,,,,,,,,,,,,,0.0,0.0,0.0*32
$GPRMC,194449.00,A,3844.3281,N,00908.2979,W,2.502433,39.483227,070617,,*17
$GPGGA,194449.00,3844.3281,N,00908.2979,W,1,00,0.0,149.588562,M,0.0,M,,*74
$GPGLL,3844.3281,N,00908.2979,W,194449.00,A,*38
$GPGSA,A,3,,,,,,,,,,,,,0.0,0.0,0.0*32
$GPRMC,194450.00,A,3844.3313,N,00908.2943,W,3.248405,41.671759,070617,,*1D
$GPGGA,194450.00,3844.3313,N,00908.2943,W,1,00,0.0,149.548096,M,0.0,M,,*7D
$GPGLL,3844.3313,N,00908.2943,W,194450.00,A,*33
$GPGSA,A,3,,,,,,,,,,,,,0.0,0.0,0.0*32
$GPRMC,194451.00,A,3844.3328,N,00908.2928,W,3.104146,39.250796,070617,,*1B
$GPGGA,194451.00,3844.3328,N,00908.2928,W,1,00,0.0,149.489609,M,0.0,M,,*75
$GPGLL,3844.3328,N,00908.2928,W,194451.00,A,*37
$GPGSA,A,3,,,,,,,,,,,,,0.0,0.0,0.0*32
$GPRMC,194452.00,A,3844.3327,N,00908.2929,W,2.371308,259.603968,070617,,*26
$GPGGA,194452.00,3844.3327,N,00908.2929,W,1,00,0.0,149.424942,M,0.0,M,,*7F
$GPGLL,3844.3327,N,00908.2929,W,194452.00,A,*3A
$GPGSA,A,3,,,,,,,,,,,,,0.0,0.0,0.0*32
$GPRMC,194453.00,A,3844.3337,N,00908.2918,W,2.400064,44.645490,070617,,*1A
$GPGGA,194453.00,3844.3337,N,00908.2918,W,1,00,0.0,149.336792,M,0.0,M,,*7A
$GPGLL,3844.3337,N,00908.2918,W,194453.00,A,*38
$GPGSA,A,3,,,,,,,,,,,,,0.0,0.0,0.0*32
$GPRMC,194454.00,A,3844.3366,N,00908.2880,W,3.438561,45.439607,070617,,*17
$GPGGA,194454.00,3844.3366,N,00908.2880,W,1,00,0.0,149.173828,M,0.0,M,,*74
$GPGLL,3844.3366,N,00908.2880,W,194454.00,A,*3B
$GPGSA,A,3,,,,,,,,,,,,,0.0,0.0,0.0*32
$GPRMC,194455.00,A,3844.3276,N,00908.2971,W,2.326001,218.530836,070617,,*2D
$GPGGA,194455.00,3844.3276,N,00908.2971,W,1,00,0.0,152.211365,M,0.0,M,,*75
$GPGLL,3844.3276,N,00908.2971,W,194455.00,A,*35
$GPGSA,A,3,,,,,,,,,,,,,0.0,0.0,0.0*32
$GPRMC,194456.00,A,3844.3265,N,00908.2981,W,2.347762,215.550974,070617,,*2A
$GPGGA,194456.00,3844.3265,N,00908.2981,W,1,00,0.0,152.663788,M,0.0,M,,*7D
$GPGLL,3844.3265,N,00908.2981,W,194456.00,A,*3B
$GPGSA,A,3,,,,,,,,,,,,,0.0,0.0,0.0*32
$GPRMC,194457.00,A,3844.3259,N,00908.2987,W,2.461251,214.116117,070617,,*2E
$GPGGA,194457.00,3844.3259,N,00908.2987,W,1,00,0.0,152.878342,M,0.0,M,,*73
$GPGLL,3844.3259,N,00908.2987,W,194457.00,A,*33
$GPGSA,A,3,,,,,,,,,,,,,0.0,0.0,0.0*32
$GPRMC,194458.00,A,3844.3256,N,00908.2985,W,3.139871,162.195022,070617,,*23
$GPGGA,194458.00,3844.3256,N,00908.2985,W,1,00,0.0,153.105591,M,0.0,M,,*7B
$GPGLL,3844.3256,N,00908.2985,W,194458.00,A,*31
$GPGSA,A,3,,,,,,,,,,,,,0.0,0.0,0.0*32
$GPRMC,194459.00,A,3844.3260,N,00908.2974,W,3.421698,65.054323,070617,,*14
$GPGGA,194459.00,3844.3260,N,00908.2974,W,1,00,0.0,153.122589,M,0.0,M,,*7D
$GPGLL,3844.3260,N,00908.2974,W,194459.00,A,*3B
$GPGSA,A,3,,,,,,,,,,,,,0.0,0.0,0.0*32
$GPRMC,194500.00,A,3844.3269,N,00908.2956,W,2.989877,56.598096,070617,,*19
$GPGGA,194500.00,3844.3269,N,00908.2956,W,1,00,0.0,152.938705,M,0.0,M,,*7D
$GPGLL,3844.3269,N,00908.2956,W,194500.00,A,*3F
$GPGSA,A,3,,,,,,,,,,,,,0.0,0.0,0.0*32
$GPRMC,194501.00,A,3844.3274,N,00908.2947,W,3.068059,57.204171,070617,,*1C
$GPGGA,194501.00,3844.3274,N,00908.2947,W,1,00,0.0,152.986084,M,0.0,M,,*7B
$GPGLL,3844.3274,N,00908.2947,W,194501.00,A,*32
$GPGSA,A,3,,,,,,,,,,,,,0.0,0.0,0.0*32
$GPRMC,194502.00,A,3844.3275,N,00908.2939,W,3.121879,75.055743,070617,,*10
$GPGGA,194502.00,3844.3275,N,00908.2939,W,1,00,0.0,153.130234,M,0.0,M,,*7D
$GPGLL,3844.3275,N,00908.2939,W,194502.00,A,*39
$GPGSA,A,3,,,,,,,,,,,,,0.0,0.0,0.0*32
$GPRMC,194503.00,A,3844.3286,N,00908.2926,W,2.688673,43.723427,070617,,*10
$GPGGA,194503.00,3844.3286,N,00908.2926,W,1,00,0.0,153.038101,M,0.0,M,,*72
$GPGLL,3844.3286,N,00908.2926,W,194503.00,A,*3A
$GPGSA,A,3,,,,,,,,,,,,,0.0,0.0,0.0*32
$GPRMC,194504.00,A,3844.3283,N,00908.2918,W,2.328898,117.731115,070617,,*2C
$GPGGA,194504.00,3844.3283,N,00908.2918,W,1,00,0.0,153.240158,M,0.0,M,,*7C
$GPGLL,3844.3283,N,00908.2918,W,194504.00,A,*35
$GPGSA,A,3,,,,,,,,,,,,,0.0,0.0,0.0*32
$GPRMC,194505.00,A,3844.3291,N,00908.2910,W,3.629225,35.035986,070617,,*1F
$GPGGA,194505.00,3844.3291,N,00908.2910,W,1,00,0.0,153.023270,M,0.0,M,,*78
$GPGLL,3844.3291,N,00908.2910,W,194505.00,A,*3F
$GPGSA,A,3,,,,,,,,,,,,,0.0,0.0,0.0*32
$GPRMC,194506.00,A,3844.3303,N,00908.2905,W,2.964415,22.004154,070617,,*13
$GPGGA,194506.00,3844.3303,N,00908.2905,W,1,00,0.0,152.715622,M,0.0,M,,*75
$GPGLL,3844.3303,N,00908.2905,W,194506.00,A,*32
$GPGSA,A,3,,,,,,,,,,,,,0.0,0.0,0.0*32
$GPRMC,194507.00,A,3844.3313,N,00908.2899,W,2.906598,22.115103,070617,,*14
$GPGGA,194507.00,3844.3313,N,00908.2899,W,1,00,0.0,152.430511,M,0.0,M,,*76
$GPGLL,3844.3313,N,00908.2899,W,194507.00,A,*36
$GPGSA,A,3,,,,,,,,,,,,,0.0,0.0,0.0*32
$GPRMC,194508.00,A,3844.3315,N,00908.2891,W,1.845320,73.071712,070617,,*14
$GPGLL,3844.3315,N,00908.2891,W,194508.00,A,*37
$GPGSA,A,3,,,,,,,,,,,,,0.0,0.0,0.0*32
$GPRMC,194509.00,A,3844.3322,N,00908.2885,W,2.172002,32.950678,070617,,*1B
$GPGGA,194509.00,3844.3322,N,00908.2885,W,1,00,0.0,151.997803,M,0.0,M,,*7A
$GPGLL,3844.3322,N,00908.2885,W,194509.00,A,*37
$GPGSA,A,3,,,,,,,,,,,,,0.0,0.0,0.0*32
$GPRMC,194510.00,A,3844.3325,N,00908.2877,W,2.663659,64.087414,070617,,*1E
$GPGGA,194510.00,3844.3325,N,00908.2877,W,1,00,0.0,151.723083,M,0.0,M,,*79
$GPGLL,3844.3325,N,00908.2877,W,194510.00,A,*35
$GPGSA,A,3,,,,,,,,,,,,,0.0,0.0,0.0*32
$GPRMC,194511.00,A,3844.3332,N,00908.2865,W,4.477283,53.119480,070617,,*17
$GPGGA,194511.00,3844.3332,N,00908.2865,W,1,00,0.0,151.448914,M,0.0,M,,*74
$GPGLL,3844.3332,N,00908.2865,W,194511.00,A,*31
$GPGSA,A,3,,,,,,,,,,,,,0.0,0.0,0.0*32
$GPRMC,194512.00,A,3844.3337,N,00908.2853,W,3.051272,62.476821,070617,,*14
$GPGGA,194512.00,3844.3337,N,00908.2853,W,1,00,0.0,150.799591,M,0.0,M,,*78
$GPGLL,3844.3337,N,00908.2853,W,194512.00,A,*32
$GPGSA,A,3,,,,,,,,,,,,,0.0,0.0,0.0*32
$GPRMC,194513.00,A,3844.3349,N,00908.2861,W,2.574970,331.616404,070617,,*2D
$GPGGA,194513.00,3844.3349,N,00908.2861,W,1,00,0.0,150.261078,M,0.0,M,,*71
$GPGLL,3844.3349,N,00908.2861,W,194513.00,A,*3B
$GPGSA,A,3,,,,,,,,,,,,,0.0,0.0,0.0*32
$GPRMC,194514.00,A,3844.3355,N,00908.2854,W,1.507068,39.453102,070617,,*1D
$GPGGA,194514.00,3844.3355,N,00908.2854,W,1,00,0.0,149.714569,M,0.0,M,,*77
$GPGLL,3844.3355,N,00908.2854,W,194514.00,A,*37
$GPGSA,A,3,,,,,,,,,,,,,0.0,0.0,0.0*32
$GPRMC,194515.00,A,3844.3356,N,00908.2844,W,1.928579,83.317117,070617,,*18
$GPGGA,194515.00,3844.3356,N,00908.2844,W,1,00,0.0,149.797424,M,0.0,M,,*77
$GPGLL,3844.3356,N,00908.2844,W,194515.00,A,*34
$GPGSA,A,3,,,,,,,,,,,,,0.0,0.0,0.0*32
$GPRMC,194516.00,A,3844.3355,N,00908.2839,W,2.026775,102.169815,070617,,*20
$GPGGA,194516.00,3844.3355,N,00908.2839,W,1,00,0.0,149.044876,M,0.0,M,,*7F
$GPGLL,3844.3355,N,00908.2839,W,194516.00,A,*3E
$GPGSA,A,3,,,,,,,,,,,,,0.0,0.0,0.0*32
$GPRMC,194517.00,A,3844.3357,N,00908.2834,W,2.121018,63.641630,070617,,*16
$GPGGA,194517.00,3844.3357,N,00908.2834,W,1,00,0.0,148.744202,M,0.0,M,,*7E
$GPGLL,3844.3357,N,00908.2834,W,194517.00,A,*30
$GPGSA,A,3,,,,,,,,,,,,,0.0,0.0,0.0*32
$GPRMC,194518.00,A,3844.3352,N,00908.2832,W,2.385018,161.754115,070617,,*20
$GPGGA,194518.00,3844.3352,N,00908.2832,W,1,00,0.0,147.574127,M,0.0,M,,*78
$GPGLL,3844.3352,N,00908.2832,W,194518.00,A,*3C
$GPGSA,A,3,,,,,,,,,,,,,0.0,0.0,0.0*32
$GPRMC,194519.00,A,3844.3349,N,00908.2828,W,2.073001,127.546542,070617,,*27
$GPGGA,194519.00,3844.3349,N,00908.2828,W,1,00,0.0,147.147003,M,0.0,M,,*7B
$GPGLL,3844.3349,N,00908.2828,W,194519.00,A,*3C
$GPGSA,A,3,,,,,,,,,,,,,0.0,0.0,0.0*32
$GPRMC,194520.00,A,3844.3355,N,00908.2818,W,2.032935,50.937554,070617,,*14
$GPGGA,194520.00,3844.3355,N,00908.2818,W,1,00,0.0,146.952744,M,0.0,M,,*76
$GPGLL,3844.3355,N,00908.2818,W,194520.00,A,*38
$GPGSA,A,3,,,,,,,,,,,,,0.0,0.0,0.0*32
$GPRMC,194521.00,A,3844.3361,N,00908.2812,W,2.199215,37.259169,070617,,*19
$GPGGA,194521.00,3844.3361,N,00908.2812,W,1,00,0.0,146.607651,M,0.0,M,,*70
$GPGLL,3844.3361,N,00908.2812,W,194521.00,A,*34
$GPGSA,A,3,,,,,,,,,,,,,0.0,0.0,0.0*32
$GPRMC,194522.00,A,3844.3363,N,00908.2807,W,1.806214,64.303614,070617,,*14
$GPGGA,194522.00,3844.3363,N,00908.2807,W,1,00,0.0,146.380951,M,0.0,M,,*70
$GPGLL,3844.3363,N,00908.2807,W,194522.00,A,*31
$GPGSA,A,3,,,,,,,,,,,,,0.0,0.0,0.0*32
$GPRMC,194523.00,A,3844.3374,N,00908.2807,W,1.552818,0.608464,070617,,*20
$GPGGA,194523.00,3844.3374,N,00908.2807,W,1,00,0.0,147.440063,M,0.0,M,,*75
$GPGLL,3844.3374,N,00908.2807,W,194523.00,A,*36
$GPGSA,A,3,,,,,,,,,,,,,0.0,0.0,0.0*32
$GPRMC,194524.00,A,3844.3379,N,00908.2803,W,2.477161,29.202634,070617,,*1E
$GPGGA,194524.00,3844.3379,N,00908.2803,W,1,00,0.0,147.300491,M,0.0,M,,*71
$GPGLL,3844.3379,N,00908.2803,W,194524.00,A,*38
$GPGSA,A,3,,,,,,,,,,,,,0.0,0.0,0.0*32
$GPRMC,194525.00,A,3844.3386,N,00908.2793,W,2.607549,51.521751,070617,,*19
$GPGGA,194525.00,3844.3386,N,00908.2793,W,1,00,0.0,147.052094,M,0.0,M,,*73
$GPGLL,3844.3386,N,00908.2793,W,194525.00,A,*3F
$GPGSA,A,3,,,,,,,,,,,,,0.0,0.0,0.0*32
$GPRMC,194526.00,A,3844.3386,N,00908.2787,W,2.762988,79.996610,070617,,*12
$GPGGA,194526.00,3844.3386,N,00908.2787,W,1,00,0.0,146.755951,M,0.0,M,,*74
$GPGLL,3844.3386,N,00908.2787,W,194526.00,A,*39
$GPGSA,A,3,,,,,,,,,,,,,0.0,0.0,0.0*32
$GPRMC,194527.00,A,3844.3385,N,00908.2784,W,2.402817,125.796697,070617,,*28
$GPGGA,194527.00,3844.3385,N,00908.2784,W,1,00,0.0,146.573151,M,0.0,M,,*7B
$GPGLL,3844.3385,N,00908.2784,W,194527.00,A,*38
$GPGSA,A,3,,,,,,,,,,,,,0.0,0.0,0.0*32
$GPRMC,194528.00,A,3844.3388,N,00908.2775,W,2.631576,66.582403,070617,,*12
$GPGGA,194528.00,3844.3388,N,00908.2775,W,1,00,0.0,146.409882,M,0.0,M,,*7C
$GPGLL,3844.3388,N,00908.2775,W,194528.00,A,*34
$GPGSA,A,3,,,,,,,,,,,,,0.0,0.0,0.0*32
$GPRMC,194529.00,A,3844.3388,N,00908.2770,W,1.833701,79.589322,070617,,*1A
$GPGGA,194529.00,3844.3388,N,00908.2770,W,1,00,0.0,146.230057,M,0.0,M,,*74
$GPGLL,3844.3388,N,00908.2770,W,194529.00,A,*30
$GPGSA,A,3,,,,,,,,,,,,,0.0,0.0,0.0*32
$GPRMC,194530.00,A,3844.3395,N,00908.2767,W,2.049592,20.968561,070617,,*18
$GPGGA,194530.00,3844.3395,N,00908.2767,W,1,00,0.0,145.953781,M,0.0,M,,*77
$GPGLL,3844.3395,N,00908.2767,W,194530.00,A,*32
$GPGSA,A,3,,,,,,,,,,,,,0.0,0.0,0.0*32
$GPRMC,194531.00,A,3844.3406,N,00908.2748,W,4.403385,52.590462,070617,,*19
$GPGGA,194531.00,3844.3406,N,00908.2748,W,1,00,0.0,145.727158,M,0.0,M,,*79
$GPGLL,3844.3406,N,00908.2748,W,194531.00,A,*33
$GPGSA,A,3,,,,,,,,,,,,,0.0,0.0,0.0*32
$GPRMC,194532.00,A,3844.3408,N,00908.2739,W,2.205917,68.614347,070617,,*13
$GPGGA,194532.00,3844.3408,N,00908.2739,W,1,00,0.0,145.519714,M,0.0,M,,*73
$GPGLL,3844.3408,N,00908.2739,W,194532.00,A,*38
$GPGSA,A,3,,,,,,,,,,,,,0.0,0.0,0.0*32
$GPRMC,194533.00,A,3844.3415,N,00908.2733,W,2.211875,37.653336,070617,,*1B
$GPGGA,194533.00,3844.3415,N,00908.2733,W,1,00,0.0,145.211151,M,0.0,M,,*7C
$GPGLL,3844.3415,N,00908.2733,W,194533.00,A,*3F
$GPGSA,A,3,,,,,,,,,,,,,0.0,0.0,0.0*32
$GPRMC,194534.00,A,3844.3424,N,00908.2727,W,2.259364,26.307852,070617,,*11
$GPGGA,194534.00,3844.3424,N,00908.2727,W,1,00,0.0,144.821564,M,0.0,M,,*76
$GPGLL,3844.3424,N,00908.2727,W,194534.00,A,*3F
$GPGSA,A,3,,,,,,,,,,,,,0.0,0.0,0.0*32
$GPRMC,194535.00,A,3844.3426,N,00908.2722,W,2.106843,67.645480,070617,,*15
$GPGGA,194535.00,3844.3426,N,00908.2722,W,1,00,0.0,144.549026,M,0.0,M,,*70
$GPGLL,3844.3426,N,00908.2722,W,194535.00,A,*39
$GPGSA,A,3,,,,,,,,,,,,,0.0,0.0,0.0*32
$GPRMC,194536.00,A,3844.3429,N,00908.2713,W,2.220443,65.009340,070617,,*17
$GPGGA,194536.00,3844.3429,N,00908.2713,W,1,00,0.0,144.313797,M,0.0,M,,*7A
$GPGLL,3844.3429,N,00908.2713,W,194536.00,A,*37
$GPGSA,A,3,,,,,,,,,,,,,0.0,0.0,0.0*32
$GPRMC,194537.00,A,3844.3435,N,00908.2707,W,1.812926,41.341648,070617,,*1C
$GPGGA,194537.00,3844.3435,N,00908.2707,W,1,00,0.0,144.011429,M,0.0,M,,*74
$GPGLL,3844.3435,N,00908.2707,W,194537.00,A,*3E
$GPGSA,A,3,,,,,,,,,,,,,0.0,0.0,0.0*32
$GPRMC,194538.00,A,3844.3434,N,00908.2699,W,2.474424,95.092155,070617,,*1B
$GPGGA,194538.00,3844.3434,N,00908.2699,W,1,00,0.0,143.870056,M,0.0,M,,*78
$GPGLL,3844.3434,N,00908.2699,W,194538.00,A,*36
$GPGSA,A,3,,,,,,,,,,,,,0.0,0.0,0.0*32
$GPRMC,194539.00,A,3844.3442,N,00908.2689,W,2.024194,42.491630,070617,,*1C
$GPGGA,194539.00,3844.3442,N,00908.2689,W,1,00,0.0,143.522934,M,0.0,M,,*7E
$GPGLL,3844.3442,N,00908.2689,W,194539.00,A,*37
$GPGSA,A,3,,,,,,,,,,,,,0.0,0.0,0.0*32
$GPRMC,194540.00,A,3844.3450,N,00908.2678,W,2.485773,46.742198,070617,,*13
$GPGGA,194540.00,3844.3450,N,00908.2678,W,1,00,0.0,143.184753,M,0.0,M,,*7A
$GPGLL,3844.3450,N,00908.2678,W,194540.00,A,*34
$GPGSA,A,3,,,,,,,,,,,,,0.0,0.0,0.0*32
$GPRMC,194541.00,A,3844.3456,N,00908.2675,W,2.222241,25.149604,070617,,*1C
$GPGGA,194541.00,3844.3456,N,00908.2675,W,1,00,0.0,142.865219,M,0.0,M,,*7C
$GPGLL,3844.3456,N,00908.2675,W,194541.00,A,*3E
$GPGSA,A,3,,,,,,,,,,,,,0.0,0.0,0.0*32
$GPRMC,194542.00,A,3844.3452,N,00908.2654,W,2.461715,105.533517,070617,,*26
$GPGGA,194542.00,3844.3452,N,00908.2654,W,1,00,0.0,143.093857,M,0.0,M,,*78
$GPGLL,3844.3452,N,00908.2654,W,194542.00,A,*3A
$GPGSA,A,3,,,,,,,,,,,,,0.0,0.0,0.0*32
$GPRMC,194543.00,A,3844.3458,N,00908.2647,W,1.873515,39.143383,070617,,*17
$GPGGA,194543.00,3844.3458,N,00908.2647,W,1,00,0.0,142.781555,M,0.0,M,,*7B
$GPGLL,3844.3458,N,00908.2647,W,194543.00,A,*33
$GPGSA,A,3,,,,,,,,,,,,,0.0,0.0,0.0*32
$GPRMC,194544.00,A,3844.3465,N,00908.2648,W,2.718322,357.551801,070617,,*2F
$GPGGA,194544.00,3844.3465,N,00908.2648,W,1,00,0.0,142.432617,M,0.0,M,,*73
$GPGLL,3844.3465,N,00908.2648,W,194544.00,A,*35
$GPGSA,A,3,,,,,,,,,,,,,0.0,0.0,0.0*32
$GPRMC,194545.00,A,3844.3465,N,00908.2641,W,1.943852,87.272562,070617,,*18
$GPGGA,194545.00,3844.3465,N,00908.2641,W,1,00,0.0,141.907242,M,0.0,M,,*77
$GPGLL,3844.3465,N,00908.2641,W,194545.00,A,*3D
$GPGSA,A,3,,,,,,,,,,,,,0.0,0.0,0.0*32
$GPRMC,194546.00,A,3844.3468,N,00908.2639,W,2.058825,29.196756,070617,,*11
$GPGGA,194546.00,3844.3468,N,00908.2639,W,1,00,0.0,141.725510,M,0.0,M,,*78
$GPGLL,3844.3468,N,00908.2639,W,194546.00,A,*3C
$GPGSA,A,3,,,,,,,,,,,,,0.0,0.0,0.0*32
$GPRMC,194547.00,A,3844.3469,N,00908.2630,W,2.140011,81.967841,070617,,*12
$GPGGA,194547.00,3844.3469,N,00908.2630,W,1,00,0.0,141.419266,M,0.0,M,,*7B
$GPGLL,3844.3469,N,00908.2630,W,194547.00,A,*35
$GPGSA,A,3,,,,,,,,,,,,,0.0,0.0,0.0*32
$GPRMC,194548.00,A,3844.3471,N,00908.2621,W,1.900121,79.376547,070617,,*1F
$GPGGA,194548.00,3844.3471,N,00908.2621,W,1,00,0.0,140.564468,M,0.0,M,,*7F
$GPGLL,3844.3471,N,00908.2621,W,194548.00,A,*33
$GPGSA,A,3,,,,,,,,,,,,,0.0,0.0,0.0*32
$GPRMC,194549.00,A,3844.3481,N,00908.2618,W,2.474729,13.874125,070617,,*1D
$GPGGA,194549.00,3844.3481,N,00908.2618,W,1,00,0.0,139.842514,M,0.0,M,,*76
$GPGLL,3844.3481,N,00908.2618,W,194549.00,A,*37
$GPGSA,A,3,,,,,,,,,,,,,0.0,0.0,0.0*32
$GPRMC,194550.00,A,3844.3487,N,00908.2612,W,2.425915,38.063483,070617,,*12
$GPGGA,194550.00,3844.3487,N,00908.2612,W,1,00,0.0,139.503342,M,0.0,M,,*7F
$GPGLL,3844.3487,N,00908.2612,W,194550.00,A,*33
$GPGSA,A,3,,,,,,,,,,,,,0.0,0.0,0.0*32
$GPRMC,194551.00,A,3844.3498,N,00908.2605,W,2.761279,27.375381,070617,,*16
$GPGGA,194551.00,3844.3498,N,00908.2605,W,1,00,0.0,139.194321,M,0.0,M,,*79
$GPGLL,3844.3498,N,00908.2605,W,194551.00,A,*3A
$GPGSA,A,3,,,,,,,,,,,,,0.0,0.0,0.0*32
$GPRMC,194552.00,A,3844.3507,N,00908.2597,W,2.485765,33.405549,070617,,*1C
$GPGGA,194552.00,3844.3507,N,00908.2597,W,1,00,0.0,138.831131,M,0.0,M,,*71
$GPGLL,3844.3507,N,00908.2597,W,194552.00,A,*36
$GPGSA,A,3,,,,,,,,,,,,,0.0,0.0,0.0*32
$GPRMC,194553.00,A,3844.3513,N,00908.2592,W,2.362678,29.616419,070617,,*11
$GPGGA,194553.00,3844.3513,N,00908.2592,W,1,00,0.0,138.378250,M,0.0,M,,*72
$GPGLL,3844.3513,N,00908.2592,W,194553.00,A,*37
$GPGSA,A,3,,,,,,,,,,,,,0.0,0.0,0.0*32
$GPRMC,194554.00,A,3844.3518,N,00908.2587,W,2.487376,40.115895,070617,,*1D
$GPGGA,194554.00,3844.3518,N,00908.2587,W,1,00,0.0,138.129471,M,0.0,M,,*79
$GPGLL,3844.3518,N,00908.2587,W,194554.00,A,*3F
$GPGSA,A,3,,,,,,,,,,,,,0.0,0.0,0.0*32
$GPRMC,194555.00,A,3844.3524,N,00908.2583,W,2.487311,28.468031,070617,,*11
$GPGGA,194555.00,3844.3524,N,00908.2583,W,1,00,0.0,138.157059,M,0.0,M,,*74
$GPGLL,3844.3524,N,00908.2583,W,194555.00,A,*35
$GPGSA,A,3,,,,,,,,,,,,,0.0,0.0,0.0*32
$GPRMC,194556.00,A,3844.3531,N,00908.2579,W,2.338344,23.276537,070617,,*11
$GPGGA,194556.00,3844.3531,N,00908.2579,W,1,00,0.0,137.773056,M,0.0,M,,*76
$GPGLL,3844.3531,N,00908.2579,W,194556.00,A,*37
$GPGSA,A,3,,,,,,,,,,,,,0.0,0.0,0.0*32
$GPRMC,194557.00,A,3844.3536,N,00908.2575,W,2.528420,35.303926,070617,,*11
$GPGGA,194557.00,3844.3536,N,00908.2575,W,1,00,0.0,137.419724,M,0.0,M,,*71
$GPGLL,3844.3536,N,00908.2575,W,194557.00,A,*3D
$GPGSA,A,3,,,,,,,,,,,,,0.0,0.0,0.0*32
$GPRMC,194558.00,A,3844.3543,N,00908.2566,W,2.047501,41.995020,070617,,*19
$GPGGA,194558.00,3844.3543,N,00908.2566,W,1,00,0.0,137.087677,M,0.0,M,,*7A
$GPGLL,3844.3543,N,00908.2566,W,194558.00,A,*32
$GPGSA,A,3,,,,,,,,,,,,,0.0,0.0,0.0*32
$GPRMC,194559.00,A,3844.3546,N,00908.2565,W,1.714171,9.794602,070617,,*2A
$GPGGA,194559.00,3844.3546,N,00908.2565,W,1,00,0.0,136.745850,M,0.0,M,,*7E
$GPGLL,3844.3546,N,00908.2565,W,194559.00,A,*35
$GPGSA,A,3,,,,,,,,,,,,,0.0,0.0,0.0*32
$GPRMC,194600.00,A,3844.3552,N,00908.2564,W,2.176144,10.072977,070617,,*1C
$GPGGA,194600.00,3844.3552,N,00908.2564,W,1,00,0.0,136.266479,M,0.0,M,,*76
$GPGLL,3844.3552,N,00908.2564,W,194600.00,A,*3E
$GPGSA,A,3,,,,,,,,,,,,,0.0,0.0,0.0*32
$GPRMC,194601.00,A,3844.3554,N,00908.2562,W,2.504781,36.595995,070617,,*17
$GPGGA,194601.00,3844.3554,N,00908.2562,W,1,00,0.0,135.860672,M,0.0,M,,*71
$GPGLL,3844.3554,N,00908.2562,W,194601.00,A,*3F
$GPGSA,A,3,,,,,,,,,,,,,0.0,0.0,0.0*32
$GPRMC,194602.00,A,3844.3566,N,00908.2555,W,2.942900,22.117996,070617,,*10
$GPGGA,194602.00,3844.3566,N,00908.2555,W,1,00,0.0,135.395309,M,0.0,M,,*7F
$GPGLL,3844.3566,N,00908.2555,W,194602.00,A,*39
$GPGSA,A,3,,,,,,,,,,,,,0.0,0.0,0.0*32
$GPRMC,194603.00,A,3844.3583,N,00908.2548,W,2.999065,19.934294,070617,,*12
$GPGGA,194603.00,3844.3583,N,00908.2548,W,1,00,0.0,134.845398,M,0.0,M,,*76
$GPGLL,3844.3583,N,00908.2548,W,194603.00,A,*3F
$GPGSA,A,3,,,,,,,,,,,,,0.0,0.0,0.0*32
$GPRMC,194604.00,A,3844.3589,N,00908.2540,W,2.571174,46.232711,070617,,*13
$GPGGA,194604.00,3844.3589,N,00908.2540,W,1,00,0.0,134.466400,M,0.0,M,,*78
$GPGLL,3844.3589,N,00908.2540,W,194604.00,A,*3A
$GPGSA,A,3,,,,,,,,,,,,,0.0,0.0,0.0*32
$GPRMC,194605.00,A,3844.3594,N,00908.2542,W,1.932672,338.341328,070617,,*24
$GPGGA,194605.00,3844.3594,N,00908.2542,W,1,00,0.0,134.315460,M,0.0,M,,*72
$GPGLL,3844.3594,N,00908.2542,W,194605.00,A,*35
$GPGSA,A,3,,,,,,,,,,,,,0.0,0.0,0.0*32
$GPRMC,194606.00,A,3844.3597,N,00908.2536,W,1.905136,58.281227,070617,,*12
$GPGGA,194606.00,3844.3597,N,00908.2536,W,1,00,0.0,134.148590,M,0.0,M,,*75
$GPGLL,3844.3597,N,00908.2536,W,194606.00,A,*36
$GPGSA,A,3,,,,,,,,,,,,,0.0,0.0,0.0*32
$GPRMC,194607.00,A,3844.3602,N,00908.2535,W,0.695252,5.906059,070617,,*2E
$GPGGA,194607.00,3844.3602,N,00908.2535,W,1,00,0.0,133.748413,M,0.0,M,,*73
$GPGLL,3844.3602,N,00908.2535,W,194607.00,A,*3B
$GPGSA,A,3,,,,,,,,,,,,,0.0,0.0,0.0*32
$GPRMC,194608.00,A,3844.3599,N,00908.2524,W,1.015682,107.500086,070617,,*2D
$GPGGA,194608.00,3844.3599,N,00908.2524,W,1,00,0.0,133.840988,M,0.0,M,,*75
$GPGLL,3844.3599,N,00908.2524,W,194608.00,A,*35
$GPGSA,A,3,,,,,,,,,,,,,0.0,0.0,0.0*32
$GPRMC,194609.00,A,3844.3599,N,00908.2523,W,1.050502,129.393689,070617,,*28
$GPGGA,194609.00,3844.3599,N,00908.2523,W,1,00,0.0,133.391708,M,0.0,M,,*72
$GPGLL,3844.3599,N,00908.2523,W,194609.00,A,*33
$GPGSA,A,3,,,,,,,,,,,,,0.0,0.0,0.0*32
$GPRMC,194610.00,A,3844.3598,N,00908.2525,W,1.389182,241.030180,070617,,*25
$GPGGA,194610.00,3844.3598,N,00908.2525,W,1,00,0.0,132.820358,M,0.0,M,,*7C
$GPGLL,3844.3598,N,00908.2525,W,194610.00,A,*3C
$GPGSA,A,3,,,,,,,,,,,,,0.0,0.0,0.0*32
$GPRMC,194611.00,A,3844.3606,N,00908.2517,W,1.678982,38.674126,070617,,*14
$GPGGA,194611.00,3844.3606,N,00908.2517,W,1,00,0.0,132.256638,M,0.0,M,,*70
$GPGLL,3844.3606,N,00908.2517,W,194611.00,A,*38
$GPGSA,A,3,,,,,,,,,,,,,0.0,0.0,0.0*32
$GPRMC,194612.00,A,3844.3607,N,00908.2513,W,1.498078,66.447347,070617,,*1E
$GPGGA,194612.00,3844.3607,N,00908.2513,W,1,00,0.0,132.111435,M,0.0,M,,*79
$GPGLL,3844.3607,N,00908.2513,W,194612.00,A,*3E
$GPGSA,A,3,,,,,,,,,,,,,0.0,0.0,0.0*32
$GPRMC,194613.00,A,3844.3612,N,00908.2507,W,1.606110,43.324986,070617,,*16
$GPGGA,194613.00,3844.3612,N,00908.2507,W,1,00,0.0,132.266876,M,0.0,M,,*71
$GPGLL,3844.3612,N,00908.2507,W,194613.00,A,*3E
$GPGSA,A,3,,,,,,,,,,,,,0.0,0.0,0.0*32
$GPRMC,194614.00,A,3844.3619,N,00908.2497,W,1.546177,47.313356,070617,,*13
$GPGGA,194614.00,3844.3619,N,00908.2497,W,1,00,0.0,133.235428,M,0.0,M,,*75
$GPGLL,3844.3619,N,00908.2497,W,194614.00,A,*3A
$GPGSA,A,3,,,,,,,,,,,,,0.0,0.0,0.0*32
$GPRMC,194615.00,A,3844.3630,N,00908.2487,W,1.930801,36.738618,070617,,*19
$GPGGA,194615.00,3844.3630,N,00908.2487,W,1,00,0.0,132.876450,M,0.0,M,,*7D
$GPGLL,3844.3630,N,00908.2487,W,194615.00,A,*31
$GPGSA,A,3,,,,,,,,,,,,,0.0,0.0,0.0*32
$GPRMC,194616.00,A,3844.3638,N,00908.2483,W,2.171032,23.157232,070617,,*17
$GPGGA,194616.00,3844.3638,N,00908.2483,W,1,00,0.0,132.506485,M,0.0,M,,*70
$GPGLL,3844.3638,N,00908.2483,W,194616.00,A,*3E
$GPGSA,A,3,,,,,,,,,,,,,0.0,0.0,0.0*32
$GPRMC,194617.00,A,3844.3656,N,00908.2477,W,2.774709,13.533659,070617,,*15
$GPGGA,194617.00,3844.3656,N,00908.2477,W,1,00,0.0,132.399506,M,0.0,M,,*78
$GPGLL,3844.3656,N,00908.2477,W,194617.00,A,*3C
$GPGSA,A,3,,,,,,,,,,,,,0.0,0.0,0.0*32
$GPRMC,194618.00,A,3844.3661,N,00908.2474,W,1.770331,23.521267,070617,,*1C
$GPGGA,194618.00,3844.3661,N,00908.2474,W,1,00,0.0,132.115738,M,0.0,M,,*79
$GPGLL,3844.3661,N,00908.2474,W,194618.00,A,*34
$GPGSA,A,3,,,,,,,,,,,,,0.0,0.0,0.0*32
$GPRMC,194619.00,A,3844.3667,N,00908.2472,W,1.853761,14.233436,070617,,*10
$GPGGA,194619.00,3844.3667,N,00908.2472,W,1,00,0.0,131.751083,M,0.0,M,,*7A
$GPGLL,3844.3667,N,00908.2472,W,194619.00,A,*35
$GPGSA,A,3,,,,,,,,,,,,,0.0,0.0,0.0*32
$GPRMC,194620.00,A,3844.3672,N,00908.2471,W,1.702027,11.391145,070617,,*1E
$GPGGA,194620.00,3844.3672,N,00908.2471,W,1,00,0.0,131.394714,M,0.0,M,,*73
$GPGLL,3844.3672,N,00908.2471,W,194620.00,A,*38
$GPGSA,A,3,,,,,,,,,,,,,0.0,0.0,0.0*32
$GPRMC,194621.00,A,3844.3678,N,00908.2471,W,1.766776,0.336302,070617,,*28
$GPGGA,194621.00,3844.3678,N,00908.2471,W,1,00,0.0,131.045410,M,0.0,M,,*70
$GPGLL,3844.3678,N,00908.2471,W,194621.00,A,*33
$GPGSA,A,3,,,,,,,,,,,,,0.0,0.0,0.0*32
$GPRMC,194622.00,A,3844.3682,N,00908.2469,W,1.319354,23.675302,070617,,*1C
$GPGGA,194622.00,3844.3682,N,00908.2469,W,1,00,0.0,130.736771,M,0.0,M,,*79
$GPGLL,3844.3682,N,00908.2469,W,194622.00,A,*3C
$GPGSA,A,3,,,,,,,,,,,,,0.0,0.0,0.0*32
$GPRMC,194623.00,A,3844.3691,N,00908.2472,W,1.380818,343.324437,070617,,*23
$GPGGA,194623.00,3844.3691,N,00908.2472,W,1,00,0.0,130.071243,M,0.0,M,,*70
$GPGLL,3844.3691,N,00908.2472,W,194623.00,A,*35
$GPGSA,A,3,,,,,,,,,,,,,0.0,0.0,0.0*32
$GPRMC,194624.00,A,3844.3697,N,00908.2471,W,1.561248,4.143306,070617,,*21
$GPGGA,194624.00,3844.3697,N,00908.2471,W,1,00,0.0,129.892654,M,0.0,M,,*7D
$GPGLL,3844.3697,N,00908.2471,W,194624.00,A,*37
$GPGSA,A,3,,,,,,,,,,,,,0.0,0.0,0.0*32
$GPRMC,194625.00,A,3844.3699,N,00908.2467,W,1.282226,57.982497,070617,,*17
$GPGGA,194625.00,3844.3699,N,00908.2467,W,1,00,0.0,130.052841,M,0.0,M,,*73
$GPGLL,3844.3699,N,00908.2467,W,194625.00,A,*3F
$GPGSA,A,3,,,,,,,,,,,,,0.0,0.0,0.0*32
$GPRMC,194626.00,A,3844.3704,N,00908.2467,W,1.412833,4.963994,070617,,*27
$GPGGA,194626.00,3844.3704,N,00908.2467,W,1,00,0.0,129.603470,M,0.0,M,,*71
$GPGLL,3844.3704,N,00908.2467,W,194626.00,A,*39
$GPGSA,A,3,,,,,,,,,,,,,0.0,0.0,0.0*32
$GPRMC,194627.00,A,3844.3712,N,00908.2468,W,1.725784,353.532344,070617,,*24
$GPGGA,194627.00,3844.3712,N,00908.2468,W,1,00,0.0,128.927902,M,0.0,M,,*78
$GPGLL,3844.3712,N,00908.2468,W,194627.00,A,*30
$GPGSA,A,3,,,,,,,,,,,,,0.0,0.0,0.0*32
$GPRMC,194628.00,A,3844.3717,N,00908.2465,W,2.035937,20.858752,070617,,*15
$GPGGA,194628.00,3844.3717,N,00908.2465,W,1,00,0.0,128.471573,M,0.0,M,,*7B
$GPGLL,3844.3717,N,00908.2465,W,194628.00,A,*37
$GPGSA,A,3,,,,,,,,,,,,,0.0,0.0,0.0*32
$GPRMC,194629.00,A,3844.3726,N,00908.2458,W,2.782190,33.177506,070617,,*13
$GPGGA,194629.00,3844.3726,N,00908.2458,W,1,00,0.0,128.287872,M,0.0,M,,*75
$GPGLL,3844.3726,N,00908.2458,W,194629.00,A,*3A
$GPGSA,A,3,,,,,,,,,,,,,0.0,0.0,0.0*32
$GPRMC,194630.00,A,3844.3729,N,00908.2460,W,2.834638,332.565364,070617,,*2F
$GPGGA,194630.00,3844.3729,N,00908.2460,W,1,00,0.0,127.982132,M,0.0,M,,*75
$GPGLL,3844.3729,N,00908.2460,W,194630.00,A,*36
$GPGSA,A,3,,,,,,,,,,,,,0.0,0.0,0.0*32
$GPRMC,194631.00,A,3844.3735,N,00908.2455,W,2.220323,28.023262,070617,,*1D
$GPGGA,194631.00,3844.3735,N,00908.2455,W,1,00,0.0,127.690720,M,0.0,M,,*76
$GPGLL,3844.3735,N,00908.2455,W,194631.00,A,*3C
$GPGSA,A,3,,,,,,,,,,,,,0.0,0.0,0.0*32
$GPRMC,194632.00,A,3844.3735,N,00908.2461,W,2.202685,269.653677,070617,,*26
$GPGGA,194632.00,3844.3735,N,00908.2461,W,1,00,0.0,127.388947,M,0.0,M,,*71
$GPGLL,3844.3735,N,00908.2461,W,194632.00,A,*38
$GPGSA,A,3,,,,,,,,,,,,,0.0,0.0,0.0*32
$GPRMC,194633.00,A,3844.3737,N,00908.2458,W,2.245945,49.650371,070617,,*1F
$GPGGA,194633.00,3844.3737,N,00908.2458,W,1,00,0.0,126.978622,M,0.0,M,,*70
$GPGLL,3844.3737,N,00908.2458,W,194633.00,A,*31
$GPGSA,A,3,,,,,,,,,,,,,0.0,0.0,0.0*32
$GPRMC,194634.00,A,3844.3744,N,00908.2451,W,1.330830,36.983371,070617,,*1F
$GPGGA,194634.00,3844.3744,N,00908.2451,W,1,00,0.0,126.755356,M,0.0,M,,*7D
$GPGLL,3844.3744,N,00908.2451,W,194634.00,A,*3B
$GPGSA,A,3,,,,,,,,,,,,,0.0,0.0,0.0*32
$GPRMC,194635.00,A,3844.3749,N,00908.2449,W,1.619517,18.583867,070617,,*10
$GPGGA,194635.00,3844.3749,N,00908.2449,W,1,00,0.0,126.520073,M,0.0,M,,*7C
$GPGLL,3844.3749,N,00908.2449,W,194635.00,A,*3E
$GPGSA,A,3,,,,,,,,,,,,,0.0,0.0,0.0*32
$GPRMC,194636.00,A,3844.3755,N,00908.2446,W,1.617969,21.290696,070617,,*15
$GPGGA,194636.00,3844.3755,N,00908.2446,W,1,00,0.0,126.376106,M,0.0,M,,*7B
$GPGLL,3844.3755,N,00908.2446,W,194636.00,A,*3F
$GPGSA,A,3,,,,,,,,,,,,,0.0,0.0,0.0*32
$GPRMC,194637.00,A,3844.3763,N,00908.2438,W,1.800129,35.833597,070617,,*18
$GPGGA,194637.00,3844.3763,N,00908.2438,W,1,00,0.0,125.999191,M,0.0,M,,*70
$GPGLL,3844.3763,N,00908.2438,W,194637.00,A,*32
$GPGSA,A,3,,,,,,,,,,,,,0.0,0.0,0.0*32
$GPRMC,194638.00,A,3844.3775,N,00908.2427,W,2.497012,37.133063,070617,,*13
$GPGGA,194638.00,3844.3775,N,00908.2427,W,1,00,0.0,125.714577,M,0.0,M,,*71
$GPGLL,3844.3775,N,00908.2427,W,194638.00,A,*34
$GPGSA,A,3,,,,,,,,,,,,,0.0,0.0,0.0*32
$GPRMC,194639.00,A,3844.3785,N,00908.2420,W,2.462577,27.333920,070617,,*1B
$GPGGA,194639.00,3844.3785,N,00908.2420,W,1,00,0.0,125.769478,M,0.0,M,,*7C
$GPGLL,3844.3785,N,00908.2420,W,194639.00,A,*3D
$GPGSA,A,3,,,,,,,,,,,,,0.0,0.0,0.0*32
$GPRMC,194640.00,A,3844.3794,N,00908.2408,W,2.353210,49.195711,070617,,*16
$GPGGA,194640.00,3844.3794,N,00908.2408,W,1,00,0.0,125.764114,M,0.0,M,,*7A
$GPGLL,3844.3794,N,00908.2408,W,194640.00,A,*39
$GPGSA,A,3,,,,,,,,,,,,,0.0,0.0,0.0*32
$GPRMC,194641.00,A,3844.3813,N,00908.2404,W,2.813363,9.338268,070617,,*2B
$GPGGA,194641.00,3844.3813,N,00908.2404,W,1,00,0.0,125.441879,M,0.0,M,,*71
$GPGLL,3844.3813,N,00908.2404,W,194641.00,A,*34
$GPGSA,A,3,,,,,,,,,,,,,0.0,0.0,0.0*32
$GPRMC,194642.00,A,3844.3814,N,00908.2406,W,3.209045,285.258439,070617,,*29
$GPGGA,194642.00,3844.3814,N,00908.2406,W,1,00,0.0,125.328911,M,0.0,M,,*70
$GPGLL,3844.3814,N,00908.2406,W,194642.00,A,*32
$GPGSA,A,3,,,,,,,,,,,,,0.0,0.0,0.0*32
$GPRMC,194643.00,A,3844.3820,N,00908.2403,W,2.656709,21.459909,070617,,*1F
$GPGGA,194643.00,3844.3820,N,00908.2403,W,1,00,0.0,125.313477,M,0.0,M,,*76
$GPGLL,3844.3820,N,00908.2403,W,194643.00,A,*31
$GPGSA,A,3,,,,,,,,,,,,,0.0,0.0,0.0*32
$GPRMC,194644.00,A,3844.3829,N,00908.2399,W,1.939624,21.587380,070617,,*17
$GPGGA,194644.00,3844.3829,N,00908.2399,W,1,00,0.0,124.908684,M,0.0,M,,*73
$GPGLL,3844.3829,N,00908.2399,W,194644.00,A,*3B
$GPGSA,A,3,,,,,,,,,,,,,0.0,0.0,0.0*32
$GPRMC,194645.00,A,3844.3838,N,00908.2388,W,3.247164,41.598029,070617,,*1D
$GPGGA,194645.00,3844.3838,N,00908.2388,W,1,00,0.0,124.750374,M,0.0,M,,*7B
$GPGLL,3844.3838,N,00908.2388,W,194645.00,A,*3A
$GPGSA,A,3,,,,,,,,,,,,,0.0,0.0,0.0*32
$GPRMC,194646.00,A,3844.3845,N,00908.2385,W,1.827066,19.841744,070617,,*1C
$GPGGA,194646.00,3844.3845,N,00908.2385,W,1,00,0.0,124.476639,M,0.0,M,,*74
$GPGLL,3844.3845,N,00908.2385,W,194646.00,A,*3E
$GPGSA,A,3,,,,,,,,,,,,,0.0,0.0,0.0*32
$GPRMC,194647.00,A,3844.3854,N,00908.2377,W,3.208862,34.416547,070617,,*19
$GPGGA,194647.00,3844.3854,N,00908.2377,W,1,00,0.0,124.178314,M,0.0,M,,*79
$GPGLL,3844.3854,N,00908.2377,W,194647.00,A,*32
$GPGSA,A,3,,,,,,,,,,,,,0.0,0.0,0.0*32
$GPRMC,194648.00,A,3844.3860,N,00908.2375,W,1.901358,16.382713,070617,,*18
$GPGGA,194648.00,3844.3860,N,00908.2375,W,1,00,0.0,123.967773,M,0.0,M,,*77
$GPGLL,3844.3860,N,00908.2375,W,194648.00,A,*38
$GPGSA,A,3,,,,,,,,,,,,,0.0,0.0,0.0*32
$GPRMC,194649.00,A,3844.3868,N,00908.2370,W,1.465673,23.505708,070617,,*12
$GPGGA,194649.00,3844.3868,N,00908.2370,W,1,00,0.0,124.047653,M,0.0,M,,*74
$GPGLL,3844.3868,N,00908.2370,W,194649.00,A,*34
$GPGSA,A,3,,,,,,,,,,,,,0.0,0.0,0.0*32
$GPRMC,194650.00,A,3844.3871,N,00908.2370,W,0.435014,1.754952,070617,,*26
$GPGGA,194650.00,3844.3871,N,00908.2370,W,1,00,0.0,123.863213,M,0.0,M,,*7D
$GPGLL,3844.3871,N,00908.2370,W,194650.00,A,*34
$GPGSA,A,3,,,,,,,,,,,,,0.0,0.0,0.0*32
$GPRMC,194651.00,A,3844.3874,N,00908.2370,W,0.692231,352.483125,070617,,*2C
$GPGGA,194651.00,3844.3874,N,00908.2370,W,1,00,0.0,123.787590,M,0.0,M,,*70
$GPGLL,3844.3874,N,00908.2370,W,194651.00,A,*30
$GPGSA,A,3,,,,,,,,,,,,,0.0,0.0,0.0*32
$GPRMC,194652.00,A,3844.3882,N,00908.2374,W,1.605823,340.229638,070617,,*2A
$GPGGA,194652.00,3844.3882,N,00908.2374,W,1,00,0.0,123.612312,M,0.0,M,,*7F
$GPGLL,3844.3882,N,00908.2374,W,194652.00,A,*3E
$GPGSA,A,3,,,,,,,,,,,,,0.0,0.0,0.0*32
$GPRMC,194653.00,A,3844.3888,N,00908.2375,W,1.816732,349.592182,070617,,*2B
$GPGGA,194653.00,3844.3888,N,00908.2375,W,1,00,0.0,123.673477,M,0.0,M,,*76
$GPGLL,3844.3888,N,00908.2375,W,194653.00,A,*34
$GPGSA,A,3,,,,,,,,,,,,,0.0,0.0,0.0*32
$GPRMC,194654.00,A,3844.3894,N,00908.2378,W,2.045281,339.381002,070617,,*26
$GPGGA,194654.00,3844.3894,N,00908.2378,W,1,00,0.0,123.529678,M,0.0,M,,*70
$GPGLL,3844.3894,N,00908.2378,W,194654.00,A,*33
$GPGSA,A,3,,,,,,,,,,,,,0.0,0.0,0.0*32
$GPRMC,194655.00,A,3844.3899,N,00908.2381,W,2.079270,330.907677,070617,,*24
$GPGGA,194655.00,3844.3899,N,00908.2381,W,1,00,0.0,123.337288,M,0.0,M,,*78
$GPGLL,3844.3899,N,00908.2381,W,194655.00,A,*39
$GPGSA,A,3,,,,,,,,,,,,,0.0,0.0,0.0*32
$GPRMC,194656.00,A,3844.3907,N,00908.2390,W,2.400284,319.418440,070617,,*2E
$GPGGA,194656.00,3844.3907,N,00908.2390,W,1,00,0.0,123.159058,M,0.0,M,,*78
$GPGLL,3844.3907,N,00908.2390,W,194656.00,A,*3C
$GPGSA,A,3,,,,,,,,,,,,,0.0,0.0,0.0*32
$GPRMC,194657.00,A,3844.3911,N,00908.2394,W,2.082068,325.444562,070617,,*25
$GPGGA,194657.00,3844.3911,N,00908.2394,W,1,00,0.0,122.954384,M,0.0,M,,*7C
$GPGLL,3844.3911,N,00908.2394,W,194657.00,A,*3E
$GPGSA,A,3,,,,,,,,,,,,,0.0,0.0,0.0*32
$GPRMC,194658.00,A,3844.3918,N,00908.2393,W,2.040187,1.207064,070617,,*2D
$GPGGA,194658.00,3844.3918,N,00908.2393,W,1,00,0.0,122.803406,M,0.0,M,,*73
$GPGLL,3844.3918,N,00908.2393,W,194658.00,A,*3F
$GPGSA,A,3,,,,,,,,,,,,,0.0,0.0,0.0*32
$GPRMC,194659.00,A,3844.3922,N,00908.2394,W,1.970584,353.241738,070617,,*24
$GPGGA,194659.00,3844.3922,N,00908.2394,W,1,00,0.0,122.726875,M,0.0,M,,*7C
$GPGLL,3844.3922,N,00908.2394,W,194659.00,A,*30
$GPGSA,A,3,,,,,,,,,,,,,0.0,0.0,0.0*32
$GPRMC,194700.00,A,3844.3928,N,00908.2393,W,2.105324,8.160302,070617,,*21
$GPGGA,194700.00,3844.3928,N,00908.2393,W,1,00,0.0,122.730202,M,0.0,M,,*71
$GPGLL,3844.3928,N,00908.2393,W,194700.00,A,*30
$GPGSA,A,3,,,,,,,,,,,,,0.0,0.0,0.0*32
$GPRMC,194701.00,A,3844.3934,N,00908.2394,W,2.216090,356.415330,070617,,*29
$GPGGA,194701.00,3844.3934,N,00908.2394,W,1,00,0.0,122.792648,M,0.0,M,,*78
$GPGLL,3844.3934,N,00908.2394,W,194701.00,A,*3B
$GPGSA,A,3,,,,,,,,,,,,,0.0,0.0,0.0*32
$GPRMC,194702.00,A,3844.3944,N,00908.2396,W,2.463117,349.462697,070617,,*23
$GPGGA,194702.00,3844.3944,N,00908.2396,W,1,00,0.0,122.637291,M,0.0,M,,*70
$GPGLL,3844.3944,N,00908.2396,W,194702.00,A,*3D
$GPGSA,A,3,,,,,,,,,,,,,0.0,0.0,0.0*32
$GPRMC,194703.00,A,3844.3952,N,00908.2397,W,2.519032,352.845738,070617,,*29
$GPGGA,194703.00,3844.3952,N,00908.2397,W,1,00,0.0,122.558487,M,0.0,M,,*7C
$GPGLL,3844.3952,N,00908.2397,W,194703.00,A,*3A
$GPGSA,A,3,,,,,,,,,,,,,0.0,0.0,0.0*32
$GPRMC,194704.00,A,3844.3960,N,00908.2400,W,2.569591,347.023797,070617,,*24
$GPGGA,194704.00,3844.3960,N,00908.2400,W,1,00,0.0,122.567108,M,0.0,M,,*7D
$GPGLL,3844.3960,N,00908.2400,W,194704.00,A,*35
$GPGSA,A,3,,,,,,,,,,,,,0.0,0.0,0.0*32
$GPRMC,194705.00,A,3844.3965,N,00908.2402,W,2.544438,339.567415,070617,,*2A
$GPGGA,194705.00,3844.3965,N,00908.2402,W,1,00,0.0,122.675148,M,0.0,M,,*7F
$GPGLL,3844.3965,N,00908.2402,W,194705.00,A,*33
$GPGSA,A,3,,,,,,,,,,,,,0.0,0.0,0.0*32
$GPRMC,194706.00,A,3844.3965,N,00908.2404,W,2.203438,249.554628,070617,,*21
$GPGGA,194706.00,3844.3965,N,00908.2404,W,1,00,0.0,122.745476,M,0.0,M,,*70
$GPGLL,3844.3965,N,00908.2404,W,194706.00,A,*36
$GPGSA,A,3,,,,,,,,,,,,,0.0,0.0,0.0*32
$GPRMC,194707.00,A,3844.3970,N,00908.2409,W,2.240959,322.386605,070617,,*2E
$GPGGA,194707.00,3844.3970,N,00908.2409,W,1,00,0.0,123.019569,M,0.0,M,,*78
$GPGLL,3844.3970,N,00908.2409,W,194707.00,A,*3E
$GPGSA,A,3,,,,,,,,,,,,,0.0,0.0,0.0*32
$GPRMC,194708.00,A,3844.3977,N,00908.2411,W,2.281484,350.592099,070617,,*2A
$GPGGA,194708.00,3844.3977,N,00908.2411,W,1,00,0.0,122.957657,M,0.0,M,,*75
$GPGLL,3844.3977,N,00908.2411,W,194708.00,A,*3F
$GPGSA,A,3,,,,,,,,,,,,,0.0,0.0,0.0*32
$GPRMC,194709.00,A,3844.3985,N,00908.2413,W,2.249463,344.032723,070617,,*25
$GPGGA,194709.00,3844.3985,N,00908.2413,W,1,00,0.0,122.782516,M,0.0,M,,*7B
$GPGLL,3844.3985,N,00908.2413,W,194709.00,A,*31
$GPGSA,A,3,,,,,,,,,,,,,0.0,0.0,0.0*32
$GPRMC,194710.00,A,3844.3991,N,00908.2417,W,2.269007,339.446946,070617,,*28
$GPGGA,194710.00,3844.3991,N,00908.2417,W,1,00,0.0,122.682220,M,0.0,M,,*71
$GPGLL,3844.3991,N,00908.2417,W,194710.00,A,*38
$GPGSA,A,3,,,,,,,,,,,,,0.0,0.0,0.0*32
$GPRMC,194711.00,A,3844.3998,N,00908.2421,W,2.343295,335.071093,070617,,*28
$GPGGA,194711.00,3844.3998,N,00908.2421,W,1,00,0.0,122.735214,M,0.0,M,,*76
$GPGLL,3844.3998,N,00908.2421,W,194711.00,A,*35
$GPGSA,A,3,,,,,,,,,,,,,0.0,0.0,0.0*32
$GPRMC,194712.00,A,3844.4005,N,00908.2425,W,2.373421,334.058046,070617,,*2D
$GPGGA,194712.00,3844.4005,N,00908.2425,W,1,00,0.0,122.960686,M,0.0,M,,*7A
$GPGLL,3844.4005,N,00908.2425,W,194712.00,A,*38
$GPGSA,A,3,,,,,,,,,,,,,0.0,0.0,0.0*32
$GPRMC,194713.00,A,3844.4011,N,00908.2437,W,2.740511,304.135472,070617,,*26
$GPGGA,194713.00,3844.4011,N,00908.2437,W,1,00,0.0,123.035469,M,0.0,M,,*76
$GPGLL,3844.4011,N,00908.2437,W,194713.00,A,*3F
$GPGSA,A,3,,,,,,,,,,,,,0.0,0.0,0.0*32
$GPRMC,194714.00,A,3844.4018,N,00908.2438,W,2.855135,352.489492,070617,,*21
$GPGGA,194714.00,3844.4018,N,00908.2438,W,1,00,0.0,122.864624,M,0.0,M,,*71
$GPGLL,3844.4018,N,00908.2438,W,194714.00,A,*3E
$GPGSA,A,3,,,,,,,,,,,,,0.0,0.0,0.0*32
$GPRMC,194715.00,A,3844.4023,N,00908.2439,W,2.664971,347.173815,070617,,*2A
$GPGGA,194715.00,3844.4023,N,00908.2439,W,1,00,0.0,122.811089,M,0.0,M,,*7A
$GPGLL,3844.4023,N,00908.2439,W,194715.00,A,*36
$GPGSA,A,3,,,,,,,,,,,,,0.0,0.0,0.0*32
$GPRMC,194716.00,A,3844.4024,N,00908.2434,W,2.403369,77.882334,070617,,*1C
$GPGGA,194716.00,3844.4024,N,00908.2434,W,1,00,0.0,123.073540,M,0.0,M,,*7E
$GPGLL,3844.4024,N,00908.2434,W,194716.00,A,*3F
$GPGSA,A,3,,,,,,,,,,,,,0.0,0.0,0.0*32
$GPRMC,194717.00,A,3844.4031,N,00908.2439,W,2.467058,334.605411,070617,,*22
$GPGGA,194717.00,3844.4031,N,00908.2439,W,1,00,0.0,122.967415,M,0.0,M,,*7A
$GPGLL,3844.4031,N,00908.2439,W,194717.00,A,*37
$GPGSA,A,3,,,,,,,,,,,,,0.0,0.0,0.0*32
$GPRMC,194718.00,A,3844.4037,N,00908.2443,W,2.247581,331.950505,070617,,*2D
$GPGGA,194718.00,3844.4037,N,00908.2443,W,1,00,0.0,122.975418,M,0.0,M,,*70
$GPGLL,3844.4037,N,00908.2443,W,194718.00,A,*33
$GPGSA,A,3,,,,,,,,,,,,,0.0,0.0,0.0*32
$GPRMC,194719.00,A,3844.4043,N,00908.2445,W,2.177218,345.335573,070617,,*25
$GPGGA,194719.00,3844.4043,N,00908.2445,W,1,00,0.0,123.393623,M,0.0,M,,*7D
$GPGLL,3844.4043,N,00908.2445,W,194719.00,A,*37
$GPGSA,A,3,,,,,,,,,,,,,0.0,0.0,0.0*32
$GPRMC,194720.00,A,3844.4044,N,00908.2450,W,1.920217,274.960081,070617,,*2B
$GPGGA,194720.00,3844.4044,N,00908.2450,W,1,00,0.0,123.209961,M,0.0,M,,*7F
$GPGLL,3844.4044,N,00908.2450,W,194720.00,A,*3E
$GPGSA,A,3,,,,,,,,,,,,,0.0,0.0,0.0*32
$GPRMC,194721.00,A,3844.4050,N,00908.2455,W,2.120635,329.072610,070617,,*28
$GPGGA,194721.00,3844.4050,N,00908.2455,W,1,00,0.0,123.018600,M,0.0,M,,*74
$GPGLL,3844.4050,N,00908.2455,W,194721.00,A,*3F
$GPGSA,A,3,,,,,,,,,,,,,0.0,0.0,0.0*32
$GPRMC,194722.00,A,3844.4061,N,00908.2450,W,2.545061,20.979420,070617,,*15
$GPGGA,194722.00,3844.4061,N,00908.2450,W,1,00,0.0,124.662048,M,0.0,M,,*76
$GPGLL,3844.4061,N,00908.2450,W,194722.00,A,*3B
$GPGSA,A,3,,,,,,,,,,,,,0.0,0.0,0.0*32
$GPRMC,194723.00,A,3844.4064,N,00908.2446,W,2.078161,37.540234,070617,,*1F
$GPGGA,194723.00,3844.4064,N,00908.2446,W,1,00,0.0,125.109978,M,0.0,M,,*74
$GPGLL,3844.4064,N,00908.2446,W,194723.00,A,*38
$GPGSA,A,3,,,,,,,,,,,,,0.0,0.0,0.0*32
$GPRMC,194724.00,A,3844.4069,N,00908.2448,W,2.034580,349.430218,070617,,*2A
$GPGGA,194724.00,3844.4069,N,00908.2448,W,1,00,0.0,125.157112,M,0.0,M,,*7F
$GPGLL,3844.4069,N,00908.2448,W,194724.00,A,*3C
$GPGSA,A,3,,,,,,,,,,,,,0.0,0.0,0.0*32
$GPRMC,194725.00,A,3844.4081,N,00908.2452,W,2.212426,343.490626,070617,,*24
$GPGGA,194725.00,3844.4081,N,00908.2452,W,1,00,0.0,126.005852,M,0.0,M,,*7B
$GPGLL,3844.4081,N,00908.2452,W,194725.00,A,*30
$GPGSA,A,3,,,,,,,,,,,,,0.0,0.0,0.0*32
$GPRMC,194726.00,A,3844.4089,N,00908.2456,W,1.978727,335.517242,070617,,*24
$GPGGA,194726.00,3844.4089,N,00908.2456,W,1,00,0.0,126.263458,M,0.0,M,,*70
$GPGLL,3844.4089,N,00908.2456,W,194726.00,A,*3F
$GPGSA,A,3,,,,,,,,,,,,,0.0,0.0,0.0*32
$GPRMC,194727.00,A,3844.4095,N,00908.2461,W,1.944109,333.370211,070617,,*2E
$GPGGA,194727.00,3844.4095,N,00908.2461,W,1,00,0.0,126.421799,M,0.0,M,,*76
$GPGLL,3844.4095,N,00908.2461,W,194727.00,A,*37
$GPGSA,A,3,,,,,,,,,,,,,0.0,0.0,0.0*32
$GPRMC,194728.00,A,3844.4101,N,00908.2467,W,2.022632,321.237144,070617,,*2C
$GPGGA,194728.00,3844.4101,N,00908.2467,W,1,00,0.0,126.456223,M,0.0,M,,*77
$GPGLL,3844.4101,N,00908.2467,W,194728.00,A,*32
$GPGSA,A,3,,,,,,,,,,,,,0.0,0.0,0.0*32
$GPRMC,194729.00,A,3844.4107,N,00908.2467,W,1.932219,3.118091,070617,,*29
$GPGGA,194729.00,3844.4107,N,00908.2467,W,1,00,0.0,126.395332,M,0.0,M,,*79
$GPGLL,3844.4107,N,00908.2467,W,194729.00,A,*35
$GPGSA,A,3,,,,,,,,,,,,,0.0,0.0,0.0*32
$GPRMC,194730.00,A,3844.4112,N,00908.2466,W,1.592241,2.503039,070617,,*22
$GPGGA,194730.00,3844.4112,N,00908.2466,W,1,00,0.0,126.424202,M,0.0,M,,*7B
$GPGLL,3844.4112,N,00908.2466,W,194730.00,A,*38
$GPGSA,A,3,,,,,,,,,,,,,0.0,0.0,0.0*32
$GPRMC,194731.00,A,3844.4113,N,00908.2469,W,1.368427,304.807407,070617,,*2D
$GPGGA,194731.00,3844.4113,N,00908.2469,W,1,00,0.0,126.396759,M,0.0,M,,*71
$GPGLL,3844.4113,N,00908.2469,W,194731.00,A,*37
$GPGSA,A,3,,,,,,,,,,,,,0.0,0.0,0.0*32
$GPRMC,194732.00,A,3844.4117,N,00908.2472,W,1.244927,327.321999,070617,,*26
$GPGGA,194732.00,3844.4117,N,00908.2472,W,1,00,0.0,126.529953,M,0.0,M,,*7A
$GPGLL,3844.4117,N,00908.2472,W,194732.00,A,*3A
$GPGSA,A,3,,,,,,,,,,,,,0.0,0.0,0.0*32
$GPRMC,194733.00,A,3844.4132,N,00908.2474,W,1.494137,353.986075,070617,,*2B
$GPGGA,194733.00,3844.4132,N,00908.2474,W,1,00,0.0,126.784981,M,0.0,M,,*70
$GPGLL,3844.4132,N,00908.2474,W,194733.00,A,*3A
$GPGSA,A,3,,,,,,,,,,,,,0.0,0.0,0.0*32
$GPRMC,194734.00,A,3844.4144,N,00908.2472,W,1.843078,7.118387,070617,,*24
$GPGGA,194734.00,3844.4144,N,00908.2472,W,1,00,0.0,126.651466,M,0.0,M,,*7D
$GPGLL,3844.4144,N,00908.2472,W,194734.00,A,*3A
$GPGSA,A,3,,,,,,,,,,,,,0.0,0.0,0.0*32
$GPRMC,194735.00,A,3844.4151,N,00908.2484,W,2.010517,307.180543,070617,,*25
$GPGGA,194735.00,3844.4151,N,00908.2484,W,1,00,0.0,127.316940,M,0.0,M,,*7F
$GPGLL,3844.4151,N,00908.2484,W,194735.00,A,*36
$GPGSA,A,3,,,,,,,,,,,,,0.0,0.0,0.0*32
$GPRMC,194736.00,A,3844.4162,N,00908.2497,W,2.448662,317.736230,070617,,*25
$GPGGA,194736.00,3844.4162,N,00908.2497,W,1,00,0.0,127.310585,M,0.0,M,,*7D
$GPGLL,3844.4162,N,00908.2497,W,194736.00,A,*37
$GPGSA,A,3,,,,,,,,,,,,,0.0,0.0,0.0*32
$GPRMC,194737.00,A,3844.4171,N,00908.2504,W,2.483412,329.710904,070617,,*2A
$GPGGA,194737.00,3844.4171,N,00908.2504,W,1,00,0.0,127.836678,M,0.0,M,,*7B
$GPGLL,3844.4171,N,00908.2504,W,194737.00,A,*3F
$GPGSA,A,3,,,,,,,,,,,,,0.0,0.0,0.0*32
$GPRMC,194738.00,A,3844.4174,N,00908.2503,W,2.123272,9.292079,070617,,*25
$GPGGA,194738.00,3844.4174,N,00908.2503,W,1,00,0.0,128.088730,M,0.0,M,,*79
$GPGLL,3844.4174,N,00908.2503,W,194738.00,A,*32
$GPGSA,A,3,,,,,,,,,,,,,0.0,0.0,0.0*32
$GPRMC,194739.00,A,3844.4184,N,00908.2502,W,1.802567,4.016866,070617,,*25
$GPGGA,194739.00,3844.4184,N,00908.2502,W,1,00,0.0,128.088074,M,0.0,M,,*71
$GPGLL,3844.4184,N,00908.2502,W,194739.00,A,*3D
$GPGSA,A,3,,,,,,,,,,,,,0.0,0.0,0.0*32
$GPRMC,194740.00,A,3844.4188,N,00908.2504,W,1.434952,340.240691,070617,,*26
$GPGGA,194740.00,3844.4188,N,00908.2504,W,1,00,0.0,128.331558,M,0.0,M,,*7F
$GPGLL,3844.4188,N,00908.2504,W,194740.00,A,*39
$GPGSA,A,3,,,,,,,,,,,,,0.0,0.0,0.0*32
$GPRMC,194741.00,A,3844.4191,N,00908.2504,W,1.669380,350.236097,070617,,*20
$GPGGA,194741.00,3844.4191,N,00908.2504,W,1,00,0.0,128.544968,M,0.0,M,,*7D
$GPGLL,3844.4191,N,00908.2504,W,194741.00,A,*30
$GPGSA,A,3,,,,,,,,,,,,,0.0,0.0,0.0*32
$GPRMC,194742.00,A,3844.4196,N,00908.2505,W,1.629399,353.885562,070617,,*27
$GPGGA,194742.00,3844.4196,N,00908.2505,W,1,00,0.0,128.517624,M,0.0,M,,*79
$GPGLL,3844.4196,N,00908.2505,W,194742.00,A,*35
$GPGSA,A,3,,,,,,,,,,,,,0.0,0.0,0.0*32
$GPRMC,194743.00,A,3844.4202,N,00908.2507,W,1.721368,349.351317,070617,,*20
$GPGGA,194743.00,3844.4202,N,00908.2507,W,1,00,0.0,128.816681,M,0.0,M,,*77
$GPGLL,3844.4202,N,00908.2507,W,194743.00,A,*38
$GPGSA,A,3,,,,,,,,,,,,,0.0,0.0,0.0*32
$GPRMC,194744.00,A,3844.4208,N,00908.2510,W,1.636299,335.455924,070617,,*21
$GPGGA,194744.00,3844.4208,N,00908.2510,W,1,00,0.0,129.118164,M,0.0,M,,*76
$GPGLL,3844.4208,N,00908.2510,W,194744.00,A,*33
$GPGSA,A,3,,,,,,,,,,,,,0.0,0.0,0.0*32
$GPRMC,194745.00,A,3844.4212,N,00908.2515,W,1.759633,320.188691,070617,,*22
$GPGGA,194745.00,3844.4212,N,00908.2515,W,1,00,0.0,129.716064,M,0.0,M,,*70
$GPGLL,3844.4212,N,00908.2515,W,194745.00,A,*3C
$GPGSA,A,3,,,,,,,,,,,,,0.0,0.0,0.0*32
$GPRMC,194746.00,A,3844.4218,N,00908.2521,W,1.917993,320.843135,070617,,*2A
$GPGGA,194746.00,3844.4218,N,00908.2521,W,1,00,0.0,129.911240,M,0.0,M,,*73
$GPGLL,3844.4218,N,00908.2521,W,194746.00,A,*32
$GPGSA,A,3,,,,,,,,,,,,,0.0,0.0,0.0*32
$GPRMC,194747.00,A,3844.4224,N,00908.2524,W,2.026915,337.770611,070617,,*2F
$GPGGA,194747.00,3844.4224,N,00908.2524,W,1,00,0.0,130.196121,M,0.0,M,,*73
$GPGLL,3844.4224,N,00908.2524,W,194747.00,A,*39
$GPGSA,A,3,,,,,,,,,,,,,0.0,0.0,0.0*32
$GPRMC,194748.00,A,3844.4226,N,00908.2522,W,1.818942,54.739055,070617,,*1D
$GPGGA,194748.00,3844.4226,N,00908.2522,W,1,00,0.0,130.957947,M,0.0,M,,*75
$GPGLL,3844.4226,N,00908.2522,W,194748.00,A,*32
$GPGSA,A,3,,,,,,,,,,,,,0.0,0.0,0.0*32
$GPRMC,194749.00,A,3844.4233,N,00908.2531,W,1.856523,317.978864,070617,,*2E
$GPGGA,194749.00,3844.4233,N,00908.2531,W,1,00,0.0,131.019577,M,0.0,M,,*7F
$GPGLL,3844.4233,N,00908.2531,W,194749.00,A,*35
$GPGSA,A,3,,,,,,,,,,,,,0.0,0.0,0.0*32
$GPRMC,194750.00,A,3844.4242,N,00908.2537,W,1.910935,332.439300,070617,,*28
$GPGGA,194750.00,3844.4242,N,00908.2537,W,1,00,0.0,130.994141,M,0.0,M,,*7B
$GPGLL,3844.4242,N,00908.2537,W,194750.00,A,*3D
$GPGSA,A,3,,,,,,,,,,,,,0.0,0.0,0.0*32
$GPRMC,194751.00,A,3844.4252,N,00908.2542,W,2.240004,339.597873,070617,,*2D
$GPGGA,194751.00,3844.4252,N,00908.2542,W,1,00,0.0,131.216629,M,0.0,M,,*70
$GPGLL,3844.4252,N,00908.2542,W,194751.00,A,*3F
$GPGSA,A,3,,,,,,,,,,,,,0.0,0.0,0.0*32
$GPRMC,194752.00,A,3844.4259,N,00908.2543,W,2.191787,350.489375,070617,,*2B
$GPGGA,194752.00,3844.4259,N,00908.2543,W,1,00,0.0,131.294556,M,0.0,M,,*78
$GPGLL,3844.4259,N,00908.2543,W,194752.00,A,*36
$GPGSA,A,3,,,,,,,,,,,,,0.0,0.0,0.0*32
$GPRMC,194753.00,A,3844.4262,N,00908.2547,W,2.040279,312.491496,070617,,*2A
$GPGGA,194753.00,3844.4262,N,00908.2547,W,1,00,0.0,131.382401,M,0.0,M,,*70
$GPGLL,3844.4262,N,00908.2547,W,194753.00,A,*3B
$GPGSA,A,3,,,,,,,,,,,,,0.0,0.0,0.0*32
$GPRMC,194754.00,A,3844.4272,N,00908.2549,W,2.041901,351.985837,070617,,*2F
$GPGGA,194754.00,3844.4272,N,00908.2549,W,1,00,0.0,131.430542,M,0.0,M,,*70
$GPGLL,3844.4272,N,00908.2549,W,194754.00,A,*33
$GPGSA,A,3,,,,,,,,,,,,,0.0,0.0,0.0*32
$GPRMC,194755.00,A,3844.4281,N,00908.2563,W,1.862640,307.607009,070617,,*29
$GPGGA,194755.00,3844.4281,N,00908.2563,W,1,00,0.0,131.093292,M,0.0,M,,*72
$GPGLL,3844.4281,N,00908.2563,W,194755.00,A,*36
$GPGSA,A,3,,,,,,,,,,,,,0.0,0.0,0.0*32
$GPRMC,194756.00,A,3844.4287,N,00908.2566,W,1.894249,340.107575,070617,,*27
$GPGGA,194756.00,3844.4287,N,00908.2566,W,1,00,0.0,131.160278,M,0.0,M,,*7B
$GPGLL,3844.4287,N,00908.2566,W,194756.00,A,*36
$GPGSA,A,3,,,,,,,,,,,,,0.0,0.0,0.0*32
$GPRMC,194757.00,A,3844.4293,N,00908.2568,W,1.853098,342.879309,070617,,*27
$GPGGA,194757.00,3844.4293,N,00908.2568,W,1,00,0.0,131.512314,M,0.0,M,,*7B
$GPGLL,3844.4293,N,00908.2568,W,194757.00,A,*3C
$GPGSA,A,3,,,,,,,,,,,,,0.0,0.0,0.0*32
$GPRMC,194758.00,A,3844.4294,N,00908.2572,W,1.651851,293.284251,070617,,*2C
$GPGGA,194758.00,3844.4294,N,00908.2572,W,1,00,0.0,131.690445,M,0.0,M,,*72
$GPGLL,3844.4294,N,00908.2572,W,194758.00,A,*3F
$GPGSA,A,3,,,,,,,,,,,,,0.0,0.0,0.0*32
$GPRMC,194759.00,A,3844.4299,N,00908.2580,W,1.951534,305.975800,070617,,*29
$GPGGA,194759.00,3844.4299,N,00908.2580,W,1,00,0.0,131.980148,M,0.0,M,,*75
$GPGLL,3844.4299,N,00908.2580,W,194759.00,A,*3E
$GPGSA,A,3,,,,,,,,,,,,,0.0,0.0,0.0*32
$GPRMC,194800.00,A,3844.4303,N,00908.2587,W,1.988192,309.958727,070617,,*2A
$GPGGA,194800.00,3844.4303,N,00908.2587,W,1,00,0.0,132.174942,M,0.0,M,,*71
$GPGLL,3844.4303,N,00908.2587,W,194800.00,A,*38
$GPGSA,A,3,,,,,,,,,,,,,0.0,0.0,0.0*32
$GPRMC,194801.00,A,3844.4310,N,00908.2587,W,1.870888,357.881834,070617,,*2E
$GPGGA,194801.00,3844.4310,N,00908.2587,W,1,00,0.0,132.332077,M,0.0,M,,*7D
$GPGLL,3844.4310,N,00908.2587,W,194801.00,A,*3B
$GPGSA,A,3,,,,,,,,,,,,,0.0,0.0,0.0*32
$GPRMC,194802.00,A,3844.4317,N,00908.2587,W,1.697915,359.767238,070617,,*27
$GPGGA,194802.00,3844.4317,N,00908.2587,W,1,00,0.0,132.569748,M,0.0,M,,*7A
$GPGLL,3844.4317,N,00908.2587,W,194802.00,A,*3F
$GPGSA,A,3,,,,,,,,,,,,,0.0,0.0,0.0*32
$GPRMC,194803.00,A,3844.4325,N,00908.2587,W,1.990391,359.567903,070617,,*28
$GPGGA,194803.00,3844.4325,N,00908.2587,W,1,00,0.0,132.804047,M,0.0,M,,*74
$GPGLL,3844.4325,N,00908.2587,W,194803.00,A,*3F
$GPGSA,A,3,,,,,,,,,,,,,0.0,0.0,0.0*32
$GPRMC,194804.00,A,3844.4336,N,00908.2590,W,2.083033,348.189997,070617,,*21
$GPGGA,194804.00,3844.4336,N,00908.2590,W,1,00,0.0,133.017517,M,0.0,M,,*7C
$GPGLL,3844.4336,N,00908.2590,W,194804.00,A,*3C
$GPGSA,A,3,,,,,,,,,,,,,0.0,0.0,0.0*32
$GPRMC,194805.00,A,3844.4344,N,00908.2586,W,2.204841,25.646999,070617,,*10
$GPGGA,194805.00,3844.4344,N,00908.2586,W,1,00,0.0,133.272873,M,0.0,M,,*71
$GPGLL,3844.4344,N,00908.2586,W,194805.00,A,*3F
$GPGSA,A,3,,,,,,,,,,,,,0.0,0.0,0.0*32
$GPRMC,194806.00,A,3844.4353,N,00908.2587,W,2.491606,351.051272,070617,,*2D
$GPGGA,194806.00,3844.4353,N,00908.2587,W,1,00,0.0,133.362732,M,0.0,M,,*7F
$GPGLL,3844.4353,N,00908.2587,W,194806.00,A,*3B
$GPGSA,A,3,,,,,,,,,,,,,0.0,0.0,0.0*32
$GPRMC,194807.00,A,3844.4363,N,00908.2586,W,2.744730,5.443099,070617,,*23
$GPGGA,194807.00,3844.4363,N,00908.2586,W,1,00,0.0,133.497757,M,0.0,M,,*72
$GPGLL,3844.4363,N,00908.2586,W,194807.00,A,*38
$GPGSA,A,3,,,,,,,,,,,,,0.0,0.0,0.0*32
$GPRMC,194808.00,A,3844.4396,N,00908.2599,W,3.095143,343.039752,070617,,*28
$GPGGA,194808.00,3844.4396,N,00908.2599,W,1,00,0.0,133.339218,M,0.0,M,,*74
$GPGLL,3844.4396,N,00908.2599,W,194808.00,A,*33
$GPGSA,A,3,,,,,,,,,,,,,0.0,0.0,0.0*32
$GPRMC,194809.00,A,3844.4402,N,00908.2602,W,2.396945,340.528849,070617,,*2E
$GPGGA,194809.00,3844.4402,N,00908.2602,W,1,00,0.0,133.247726,M,0.0,M,,*7E
$GPGLL,3844.4402,N,00908.2602,W,194809.00,A,*39
$GPGSA,A,3,,,,,,,,,,,,,0.0,0.0,0.0*32
