$GPGGA,085026.00,3945.1653,N,00807.5334,W,1,18,0.609,316.565,M,,M,0,*59
$GPGSA,A,3,5,10,12,13,15,17,18,19,20,24,28,69,1.109,0.609,0.927*0F
$GPGSV,5,1,19,5,6,172,20,10,12,320,36,12,35,199,45,13,51,107,40*77
$GPGSV,5,2,19,15,86,341,35,17,20,80,42,18,29,299,37,19,17,105,44*48
$GPGSV,5,3,19,20,35,210,39,24,56,288,46,28,14,39,22,69,40,168,25*49
$GPGSV,5,4,19,70,70,291,38,71,21,327,36,73,32,248,39,79,25,39,28*4F
$GPGSV,5,5,19,80,68,318,29,81,7,72,36,88,6,25,*49
$GPRMC,085026.00,A,3945.1653,N,00807.5334,W,0.000,225.812,140517,,E,A*0C
$GPGGA,085027.00,3945.1655,N,00807.5333,W,1,16,0.632,316.690,M,,M,0,*56
$GPGSA,A,3,5,10,12,13,15,17,18,19,20,24,28,70,1.184,0.632,1.001*06
$GPGSV,5,1,19,5,6,172,21,10,12,320,37,12,35,199,41,13,51,107,38*7C
$GPGSV,5,2,19,15,86,341,34,17,20,80,39,18,29,299,40,19,17,105,44*45
$GPGSV,5,3,19,20,35,210,40,24,56,288,43,28,14,39,18,69,40,168,24*4A
$GPGSV,5,4,19,70,70,291,37,71,21,327,33,73,32,248,40,79,25,39,29*4A
$GPGSV,5,5,19,80,68,318,24,81,7,72,37,88,6,25,*45
$GPRMC,085027.00,A,3945.1655,N,00807.5333,W,1.167,225.812,140517,,E,A*0D
$GPGGA,085028.00,3945.1653,N,00807.5334,W,1,18,0.609,316.565,M,,M,0,*57
$GPGSA,A,3,5,10,12,13,15,17,18,19,20,24,28,69,1.109,0.609,0.927*0F
$GPGSV,5,1,19,5,6,172,21,10,12,320,37,12,35,199,40,13,51,107,39*7C
$GPGSV,5,2,19,15,86,341,39,17,20,80,38,18,29,299,41,19,17,105,43*4F
$GPGSV,5,3,19,20,35,210,40,24,56,288,43,28,14,39,28,69,40,168,29*44
$GPGSV,5,4,19,70,70,291,30,71,21,327,32,73,32,248,44,79,25,39,28*49
$GPGSV,5,5,19,80,68,318,27,81,7,72,39,88,6,25,*48
$GPRMC,085028.00,A,3945.1653,N,00807.5334,W,0.000,225.812,140517,,E,A*02
$GPGGA,085029.00,3945.1653,N,00807.5334,W,1,18,0.609,316.565,M,,M,0,*56
$GPGSA,A,3,5,10,12,13,15,17,18,19,20,24,28,69,1.109,0.609,0.927*0F
$GPGSV,5,1,19,5,6,172,19,10,12,320,39,12,35,199,48,13,51,107,40*7F
$GPGSV,5,2,19,15,86,341,46,17,20,80,41,18,29,299,46,19,17,105,37*4D
$GPGSV,5,3,19,20,34,210,46,24,56,288,43,28,14,39,33,69,40,168,30*41
$GPGSV,5,4,19,70,70,291,36,71,21,327,37,73,32,248,44,79,25,39,32*41
$GPGSV,5,5,19,80,68,318,33,81,7,72,35,88,6,25,*41
$GPRMC,085029.00,A,3945.1653,N,00807.5334,W,0.000,225.812,140517,,E,A*03
$GPGGA,085030.00,3945.1653,N,00807.5334,W,1,18,0.609,316.565,M,,M,0,*5E
$GPGSA,A,3,5,10,12,13,15,17,18,19,20,24,28,69,1.109,0.609,0.927*0F
$GPGSV,5,1,19,5,6,172,21,10,12,320,41,12,35,199,44,13,51,107,44*73
$GPGSV,5,2,19,15,86,341,49,17,20,80,39,18,29,299,43,19,17,105,35*4A
$GPGSV,5,3,19,20,34,210,44,24,56,288,51,28,14,39,39,69,40,168,32*48
$GPGSV,5,4,19,70,70,290,42,71,21,327,40,73,32,248,46,79,25,39,39*4A
$GPGSV,5,5,19,80,68,318,41,81,7,72,33,88,6,25,*42
$GPRMC,085030.00,A,3945.1653,N,00807.5334,W,0.000,225.812,140517,,E,A*0B
$GPGGA,085031.00,3945.1653,N,00807.5334,W,1,18,0.609,316.565,M,,M,0,*5F
$GPGSA,A,3,5,10,12,13,15,17,18,19,20,24,28,69,1.109,0.609,0.927*0F
$GPGSV,5,1,19,5,6,172,21,10,12,320,43,12,35,199,41,13,51,107,46*76
$GPGSV,5,2,19,15,86,341,51,17,20,80,39,18,29,299,42,19,17,105,36*41
$GPGSV,5,3,19,20,34,210,44,24,56,288,51,28,14,39,39,69,40,168,33*49
$GPGSV,5,4,19,70,70,290,44,71,21,327,45,73,32,248,47,79,25,39,40*46
$GPGSV,5,5,19,80,68,318,43,81,7,72,31,88,6,25,*42
$GPRMC,085031.00,A,3945.1653,N,00807.5334,W,0.000,225.812,140517,,E,A*0A
$GPGGA,085032.00,3945.1653,N,00807.5334,W,1,18,0.609,316.565,M,,M,0,*5C
$GPGSA,A,3,5,10,12,13,15,17,18,19,20,24,28,69,1.109,0.609,0.927*0F
$GPGSV,5,1,19,5,6,172,21,10,12,320,44,12,35,199,40,13,51,107,47*71
$GPGSV,5,2,19,15,86,341,51,17,20,80,40,18,29,299,41,19,17,105,35*4F
$GPGSV,5,3,19,20,34,210,44,24,56,288,50,28,14,39,40,69,40,168,34*41
$GPGSV,5,4,19,70,70,290,44,71,21,327,45,73,32,248,47,79,25,39,41*47
$GPGSV,5,5,19,80,68,318,41,81,7,72,32,88,6,25,*43
$GPRMC,085032.00,A,3945.1653,N,00807.5334,W,0.000,225.812,140517,,E,A*09
$GPGGA,085033.00,3945.1653,N,00807.5334,W,1,18,0.609,316.565,M,,M,0,*5D
$GPGSA,A,3,5,10,12,13,15,17,18,19,20,24,28,69,1.109,0.609,0.927*0F
$GPGSV,5,1,19,5,6,172,22,10,12,320,44,12,35,199,39,13,51,107,47*7C
$GPGSV,5,2,19,15,86,341,52,17,20,80,41,18,29,299,41,19,17,105,35*4D
$GPGSV,5,3,19,20,34,210,44,24,56,288,50,28,14,39,40,69,40,168,33*46
$GPGSV,5,4,19,70,70,290,44,71,21,327,45,73,32,248,47,79,25,39,41*47
$GPGSV,5,5,19,80,68,318,43,81,7,72,32,88,6,25,*41
$GPRMC,085033.00,A,3945.1653,N,00807.5334,W,0.000,225.812,140517,,E,A*08
$GPGGA,085034.00,3945.1653,N,00807.5334,W,1,18,0.609,316.565,M,,M,0,*5A
$GPGSA,A,3,5,10,12,13,15,17,18,19,20,24,28,69,1.109,0.609,0.927*0F
$GPGSV,5,1,19,5,6,172,23,10,12,320,44,12,35,199,40,13,51,107,47*73
$GPGSV,5,2,19,15,86,341,50,17,20,80,42,18,29,299,42,19,17,105,33*49
$GPGSV,5,3,19,20,34,210,44,24,56,288,49,28,14,39,41,69,40,168,33*4F
$GPGSV,5,4,19,70,70,290,44,71,21,327,45,73,32,248,46,79,25,39,42*45
$GPGSV,5,5,19,80,68,318,44,81,7,72,32,88,6,25,*46
$GPRMC,085034.00,A,3945.1653,N,00807.5334,W,0.000,225.812,140517,,E,A*0F
$GPGGA,085035.00,3945.1653,N,00807.5334,W,1,18,0.609,316.565,M,,M,0,*5B
$GPGSA,A,3,5,10,12,13,15,17,18,19,20,24,28,69,1.110,0.609,0.927*07
$GPGSV,5,1,19,5,6,172,22,10,12,320,44,12,35,199,43,13,51,107,46*70
$GPGSV,5,2,19,15,86,341,51,17,20,80,42,18,29,299,41,19,17,105,29*40
$GPGSV,5,3,19,20,34,210,42,24,56,288,49,28,14,39,41,69,40,168,33*49
$GPGSV,5,4,19,70,70,290,44,71,21,327,45,73,32,248,45,79,25,39,42*46
$GPGSV,5,5,19,80,68,318,43,81,7,72,31,88,6,25,*42
$GPRMC,085035.00,A,3945.1653,N,00807.5334,W,0.000,225.812,140517,,E,A*0E
$GPGGA,085036.00,3945.1653,N,00807.5334,W,1,18,0.609,316.565,M,,M,0,*58
$GPGSA,A,3,5,10,12,13,15,17,18,19,20,24,28,69,1.110,0.609,0.927*07
$GPGSV,5,1,19,5,6,172,24,10,12,320,41,12,35,199,44,13,51,107,46*74
$GPGSV,5,2,19,15,86,341,50,17,20,80,40,18,29,299,44,19,17,105,25*4A
$GPGSV,5,3,19,20,34,210,43,24,56,288,48,28,14,39,40,69,40,168,31*4A
$GPGSV,5,4,19,70,70,290,41,71,21,327,42,73,32,248,44,79,25,39,41*46
$GPGSV,5,5,19,80,68,318,37,81,7,72,30,88,6,25,*40
$GPRMC,085036.00,A,3945.1653,N,00807.5334,W,0.000,225.812,140517,,E,A*0D
$GPGGA,085037.00,3945.1653,N,00807.5334,W,1,18,0.609,316.565,M,,M,0,*59
$GPGSA,A,3,5,10,12,13,15,17,18,19,20,24,28,69,1.110,0.609,0.927*07
$GPGSV,5,1,19,5,6,172,21,10,12,320,36,12,35,199,43,13,51,107,48*78
$GPGSV,5,2,19,15,86,341,49,17,20,80,39,18,29,299,42,19,17,105,37*49
$GPGSV,5,3,19,20,34,210,42,24,56,288,47,28,14,39,37,69,40,168,35*40
$GPGSV,5,4,19,70,70,290,37,71,21,327,41,73,32,248,42,79,25,39,36*42
$GPGSV,5,5,19,80,68,318,42,81,7,72,28,88,6,25,*4B
$GPRMC,085037.00,A,3945.1653,N,00807.5334,W,0.000,225.812,140517,,E,A*0C
$GPGGA,085038.00,3945.1653,N,00807.5334,W,1,18,0.609,316.565,M,,M,0,*56
$GPGSA,A,3,5,10,12,13,15,17,18,19,20,24,28,69,1.110,0.609,0.927*07
$GPGSV,5,1,19,5,6,172,15,10,12,320,34,12,35,199,44,13,51,107,47*75
$GPGSV,5,2,19,15,86,341,48,17,20,80,34,18,29,299,36,19,17,105,38*49
$GPGSV,5,3,19,20,34,210,41,24,56,288,48,28,14,39,34,69,40,168,34*4E
$GPGSV,5,4,19,70,70,290,34,71,21,327,41,73,32,248,39,79,25,39,35*4E
$GPGSV,5,5,19,80,68,318,41,81,7,72,27,88,6,25,*47
$GPRMC,085038.00,A,3945.1653,N,00807.5334,W,0.000,225.812,140517,,E,A*03
$GPGGA,085039.00,3945.1653,N,00807.5334,W,1,17,0.625,316.565,M,,M,0,*56
$GPGSA,A,3,5,10,12,13,15,17,18,19,20,24,28,69,1.142,0.625,0.956*08
$GPGSV,5,1,19,5,6,172,15,10,12,320,34,12,35,199,44,13,51,107,48*7A
$GPGSV,5,2,19,15,86,341,49,17,20,80,35,18,29,299,35,19,17,105,38*4A
$GPGSV,5,3,19,20,34,210,41,24,56,288,48,28,14,39,32,69,40,168,35*49
$GPGSV,5,4,19,70,70,290,36,71,21,327,40,73,32,248,38,79,25,39,34*4D
$GPGSV,5,5,19,80,68,318,43,81,7,72,24,88,6,25,*46
$GPRMC,085039.00,A,3945.1653,N,00807.5334,W,0.000,225.812,140517,,E,A*02
$GPGGA,085040.00,3945.1653,N,00807.5334,W,1,18,0.609,316.565,M,,M,0,*59
$GPGSA,A,3,5,10,12,13,15,17,18,19,20,24,28,69,1.110,0.609,0.928*08
$GPGSV,5,1,19,5,6,172,16,10,12,320,37,12,35,199,44,13,51,107,49*7B
$GPGSV,5,2,19,15,86,341,47,17,20,80,38,18,29,299,37,19,17,105,40*44
$GPGSV,5,3,19,20,34,210,42,24,56,288,48,28,14,39,34,69,40,168,34*4D
$GPGSV,5,4,19,70,70,290,37,71,21,327,43,73,32,248,40,79,25,39,33*47
$GPGSV,5,5,19,80,68,318,43,81,7,72,29,88,6,25,*4B
$GPRMC,085040.00,A,3945.1653,N,00807.5334,W,0.000,225.812,140517,,E,A*0C
$GPGGA,085041.00,3945.1653,N,00807.5334,W,1,18,0.609,316.565,M,,M,0,*58
$GPGSA,A,3,5,10,12,13,15,17,18,19,20,24,28,69,1.110,0.609,0.928*08
$GPGSV,5,1,19,5,6,172,16,10,12,320,35,12,35,199,45,13,51,107,49*78
$GPGSV,5,2,19,15,86,341,47,17,20,80,36,18,29,299,37,19,17,105,39*44
$GPGSV,5,3,19,20,34,210,43,24,56,288,48,28,14,39,35,69,40,168,33*4A
$GPGSV,5,4,19,70,70,290,35,71,21,327,40,73,32,248,39,79,25,39,35*4E
$GPGSV,5,5,19,80,68,319,43,81,7,72,27,88,6,25,*44
$GPRMC,085041.00,A,3945.1653,N,00807.5334,W,0.000,225.812,140517,,E,A*0D
$GPGGA,085042.00,3945.1653,N,00807.5334,W,1,18,0.609,316.565,M,,M,0,*5B
$GPGSA,A,3,5,10,12,13,15,17,18,19,20,24,28,69,1.110,0.609,0.928*08
$GPGSV,5,1,19,5,6,172,21,10,12,320,37,12,35,199,44,13,51,107,47*71
$GPGSV,5,2,19,15,86,341,42,17,20,80,44,18,29,299,40,19,17,105,35*48
$GPGSV,5,3,19,20,34,210,41,24,56,288,46,28,14,39,36,69,40,168,33*45
$GPGSV,5,4,19,70,70,290,38,71,21,327,37,73,32,248,43,79,25,39,37*4C
$GPGSV,5,5,19,80,68,319,39,81,7,72,27,88,6,25,*49
$GPRMC,085042.00,A,3945.1653,N,00807.5334,W,0.000,225.812,140517,,E,A*0E
$GPGGA,085043.00,3945.1653,N,00807.5334,W,1,18,0.609,316.565,M,,M,0,*5A
$GPGSA,A,3,5,10,12,13,15,17,18,19,20,24,28,69,1.110,0.609,0.928*08
$GPGSV,5,1,19,5,6,172,23,10,12,320,40,12,35,199,47,13,51,107,44*73
$GPGSV,5,2,19,15,86,342,35,17,20,80,42,18,29,299,44,19,17,105,33*4F
$GPGSV,5,3,19,20,34,210,43,24,56,288,45,28,14,39,34,69,40,168,33*46
$GPGSV,5,4,19,70,70,290,36,71,21,327,40,73,32,249,43,79,25,39,36*42
$GPGSV,5,5,19,80,68,319,38,81,7,72,27,88,6,25,*48
$GPRMC,085043.00,A,3945.1653,N,00807.5334,W,0.000,225.812,140517,,E,A*0F
$GPGGA,085044.00,3945.1653,N,00807.5334,W,1,18,0.609,316.565,M,,M,0,*5D
$GPGSA,A,3,5,10,12,13,15,17,18,19,20,24,28,69,1.110,0.609,0.928*08
$GPGSV,5,1,19,5,6,172,24,10,12,320,40,12,35,199,47,13,51,107,44*74
$GPGSV,5,2,19,15,86,342,36,17,20,80,43,18,29,299,44,19,17,105,31*4F
$GPGSV,5,3,19,20,34,210,43,24,56,288,46,28,14,39,35,69,40,168,33*44
$GPGSV,5,4,19,70,70,290,36,71,21,327,40,73,32,249,44,79,25,39,38*4B
$GPGSV,5,5,19,80,68,319,37,81,7,72,29,88,6,25,*49
$GPRMC,085044.00,A,3945.1653,N,00807.5334,W,0.000,225.812,140517,,E,A*08
$GPGGA,085045.00,3945.1653,N,00807.5334,W,1,18,0.609,316.565,M,,M,0,*5C
$GPGSA,A,3,5,10,12,13,15,17,18,19,20,24,28,69,1.110,0.609,0.928*08
$GPGSV,5,1,19,5,6,172,24,10,12,320,40,12,35,199,48,13,51,107,44*7B
$GPGSV,5,2,19,15,86,342,35,17,20,80,41,18,29,299,44,19,18,105,29*48
$GPGSV,5,3,19,20,34,210,44,24,56,288,46,28,14,39,34,69,40,168,33*42
$GPGSV,5,4,19,70,70,290,36,71,22,327,39,73,32,249,46,79,25,39,33*4F
$GPGSV,5,5,19,80,68,319,38,81,7,72,30,88,6,25,*4E
$GPRMC,085045.00,A,3945.1653,N,00807.5334,W,0.000,225.812,140517,,E,A*09
$GPGGA,085046.00,3945.1653,N,00807.5334,W,1,18,0.609,316.565,M,,M,0,*5F
$GPGSA,A,3,5,10,12,13,15,17,18,19,20,24,28,69,1.110,0.609,0.928*08
$GPGSV,5,1,19,5,6,172,20,10,12,320,35,12,35,199,41,13,51,107,42*72
$GPGSV,5,2,19,15,86,342,35,17,20,80,42,18,29,299,41,19,18,105,32*44
$GPGSV,5,3,19,20,34,210,41,24,56,288,41,28,14,39,32,69,40,168,27*43
$GPGSV,5,4,19,70,70,290,32,71,22,327,35,73,32,249,40,79,25,39,29*4A
$GPGSV,5,5,19,80,68,319,35,81,7,72,27,88,6,25,*45
$GPRMC,085046.00,A,3945.1653,N,00807.5334,W,0.000,225.812,140517,,E,A*0A
$GPGGA,085047.00,3945.1653,N,00807.5334,W,1,18,0.609,316.565,M,,M,0,*5E
$GPGSA,A,3,5,10,12,13,15,17,18,19,20,24,28,69,1.110,0.609,0.928*08
$GPGSV,5,1,19,5,6,172,19,10,12,320,39,12,35,199,42,13,51,107,37*75
$GPGSV,5,2,19,15,86,342,42,17,20,80,40,18,29,299,36,19,18,105,31*45
$GPGSV,5,3,19,20,34,210,39,24,56,288,41,28,14,39,32,69,40,168,28*43
$GPGSV,5,4,19,70,70,290,35,71,22,327,32,73,32,249,42,79,25,39,30*40
$GPGSV,5,5,19,80,68,319,33,81,7,72,30,88,6,25,*45
$GPRMC,085047.00,A,3945.1653,N,00807.5334,W,0.000,225.812,140517,,E,A*0B
$GPGGA,085048.00,3945.1653,N,00807.5334,W,1,17,0.629,316.565,M,,M,0,*5C
$GPGSA,A,3,5,10,12,13,15,17,18,19,20,24,28,70,1.125,0.629,0.932*0F
$GPGSV,5,1,19,5,6,172,17,10,12,320,39,12,35,199,41,13,51,107,34*7B
$GPGSV,5,2,19,15,86,342,43,17,20,80,38,18,29,299,36,19,18,105,35*4F
$GPGSV,5,3,19,20,34,210,40,24,56,288,43,28,14,39,27,69,40,168,22*41
$GPGSV,5,4,19,70,70,290,34,71,22,327,31,73,32,249,43,79,25,39,31*42
$GPGSV,5,5,19,80,68,319,34,81,7,72,28,88,6,25,*4B
$GPRMC,085048.00,A,3945.1653,N,00807.5334,W,0.000,225.812,140517,,E,A*04
$GPGGA,085049.00,3945.1653,N,00807.5334,W,1,17,0.629,316.565,M,,M,0,*5D
$GPGSA,A,3,5,10,12,13,15,17,18,19,20,24,28,70,1.125,0.629,0.932*0F
$GPGSV,5,1,19,5,6,172,20,10,12,320,37,12,35,199,44,13,51,107,36*76
$GPGSV,5,2,19,15,86,342,40,17,20,80,40,18,29,299,39,19,18,105,32*4B
$GPGSV,5,3,19,20,34,210,41,24,56,288,43,28,14,39,29,69,40,168,20*4C
$GPGSV,5,4,19,70,70,290,36,71,22,327,36,73,32,249,39,79,25,39,31*4A
$GPGSV,5,5,19,80,68,319,33,81,7,72,33,88,6,25,*46
$GPRMC,085049.00,A,3945.1653,N,00807.5334,W,0.000,225.812,140517,,E,A*05
$GPGGA,085050.00,3945.1653,N,00807.5334,W,1,18,0.609,316.565,M,,M,0,*58
$GPGSA,A,3,5,10,12,13,15,17,18,19,20,24,28,69,1.110,0.609,0.928*08
$GPGSV,5,1,19,5,6,172,22,10,12,320,39,12,35,199,48,13,51,107,49*7E
$GPGSV,5,2,19,15,86,342,49,17,20,80,41,18,29,299,38,19,18,105,37*47
$GPGSV,5,3,19,20,34,210,44,24,56,288,48,28,14,39,33,69,40,168,35*4D
$GPGSV,5,4,19,70,70,290,37,71,22,327,40,73,32,249,36,79,25,39,37*43
$GPGSV,5,5,19,80,68,319,42,81,7,72,28,88,6,25,*4A
$GPRMC,085050.00,A,3945.1653,N,00807.5334,W,0.000,225.812,140517,,E,A*0D
$GPGGA,085051.00,3945.1653,N,00807.5334,W,1,18,0.609,316.565,M,,M,0,*59
$GPGSA,A,3,5,10,12,13,15,17,18,19,20,24,28,69,1.110,0.609,0.928*08
$GPGSV,5,1,19,5,6,172,19,10,12,320,39,12,35,199,47,13,51,107,50*71
$GPGSV,5,2,19,15,86,342,49,17,20,80,39,18,29,299,35,19,18,105,38*4A
$GPGSV,5,3,19,20,34,210,45,24,56,288,50,28,14,39,33,69,40,168,32*42
$GPGSV,5,4,19,70,70,290,38,71,22,327,44,73,32,249,37,79,25,39,36*48
$GPGSV,5,5,19,80,68,319,42,81,7,72,29,88,6,25,*4B
$GPRMC,085051.00,A,3945.1653,N,00807.5334,W,0.000,225.812,140517,,E,A*0C
$GPGGA,085052.00,3945.1653,N,00807.5334,W,1,18,0.609,316.565,M,,M,0,*5A
$GPGSA,A,3,5,10,12,13,15,17,18,19,20,24,28,69,1.110,0.609,0.928*08
$GPGSV,5,1,19,5,6,172,15,10,12,320,41,12,35,199,48,13,51,107,51*7C
$GPGSV,5,2,19,15,87,342,49,17,20,80,42,18,29,299,41,19,18,105,40*4B
$GPGSV,5,3,19,20,34,210,45,24,56,288,50,28,14,39,34,69,40,168,33*44
$GPGSV,5,4,19,70,70,290,40,71,22,327,46,73,32,249,37,79,25,39,37*44
$GPGSV,5,5,19,80,68,319,43,81,7,72,26,88,6,25,*45
$GPRMC,085052.00,A,3945.1653,N,00807.5334,W,0.000,225.812,140517,,E,A*0F
$GPGGA,085053.00,3945.1653,N,00807.5334,W,1,18,0.609,316.565,M,,M,0,*5B
$GPGSA,A,3,5,10,12,13,15,17,18,19,20,24,28,69,1.110,0.609,0.928*08
$GPGSV,5,1,19,5,6,172,18,10,12,320,42,12,35,199,48,13,51,107,51*72
$GPGSV,5,2,19,15,87,342,49,17,20,80,43,18,29,299,42,19,18,105,40*49
$GPGSV,5,3,19,20,34,210,45,24,56,288,50,28,14,39,36,69,40,168,33*46
$GPGSV,5,4,19,70,70,290,40,71,22,327,47,73,32,249,32,79,25,39,36*41
$GPGSV,5,5,19,80,68,319,43,81,7,72,27,88,6,25,*44
$GPRMC,085053.00,A,3945.1653,N,00807.5334,W,0.000,225.812,140517,,E,A*0E
$GPGGA,085054.00,3945.1653,N,00807.5334,W,1,18,0.609,316.565,M,,M,0,*5C
$GPGSA,A,3,5,10,12,13,15,17,18,19,20,24,28,69,1.110,0.609,0.928*08
$GPGSV,5,1,19,5,6,172,14,10,12,320,41,12,35,199,46,13,51,107,50*72
$GPGSV,5,2,19,15,87,342,49,17,20,80,42,18,29,299,41,19,18,105,40*4B
$GPGSV,5,3,19,20,34,210,44,24,56,288,50,28,14,39,35,69,40,168,32*45
$GPGSV,5,4,19,70,70,290,38,71,22,327,45,73,32,249,36,79,25,39,34*4A
$GPGSV,5,5,19,80,68,319,43,81,7,72,29,88,6,25,*4A
$GPRMC,085054.00,A,3945.1653,N,00807.5334,W,0.000,225.812,140517,,E,A*09
$GPGGA,085055.00,3945.1653,N,00807.5334,W,1,17,0.670,316.565,M,,M,0,*5C
$GPGSA,A,3,10,12,13,15,17,18,19,20,24,28,69,70,1.254,0.670,1.059*39
$GPGSV,5,1,19,5,6,172,12,10,12,320,40,12,35,199,47,13,51,107,49*7C
$GPGSV,5,2,19,15,87,342,49,17,20,80,41,18,29,299,45,19,18,105,39*42
$GPGSV,5,3,19,20,34,210,45,24,56,288,50,28,14,39,35,69,40,168,31*47
$GPGSV,5,4,19,70,70,290,40,71,22,327,44,73,32,249,30,79,25,39,31*47
$GPGSV,5,5,19,80,68,319,43,81,7,72,27,88,6,25,*44
$GPRMC,085055.00,A,3945.1653,N,00807.5334,W,0.000,225.812,140517,,E,A*08
$GPGGA,085056.00,3945.1653,N,00807.5334,W,1,18,0.609,316.565,M,,M,0,*5E
$GPGSA,A,3,5,10,12,13,15,17,18,19,20,24,28,69,1.110,0.609,0.928*08
$GPGSV,5,1,19,5,6,172,13,10,12,320,40,12,35,199,46,13,51,107,48*7D
$GPGSV,5,2,19,15,87,342,50,17,20,80,42,18,29,299,44,19,18,105,39*48
$GPGSV,5,3,19,20,34,210,44,24,56,288,49,28,14,39,36,69,40,168,31*4D
$GPGSV,5,4,19,70,70,290,37,71,22,327,43,73,32,249,38,79,25,39,33*4A
$GPGSV,5,5,19,80,68,319,43,81,7,72,25,88,6,25,*46
$GPRMC,085056.00,A,3945.1653,N,00807.5334,W,0.000,225.812,140517,,E,A*0B
$GPGGA,085057.00,3945.1653,N,00807.5334,W,1,17,0.670,316.565,M,,M,0,*5E
$GPGSA,A,3,10,12,13,15,17,18,19,20,24,28,69,70,1.254,0.670,1.060*33
$GPGSV,5,1,19,5,6,172,12,10,12,320,40,12,35,199,46,13,51,107,48*7C
$GPGSV,5,2,19,15,87,342,49,17,20,80,42,18,29,299,43,19,18,105,39*47
$GPGSV,5,3,19,20,34,210,45,24,56,288,49,28,14,39,34,69,40,168,33*4C
$GPGSV,5,4,19,70,70,290,36,71,22,327,44,73,32,249,39,79,25,39,37*49
$GPGSV,5,5,19,80,68,319,43,81,7,72,26,88,6,25,*45
$GPRMC,085057.00,A,3945.1653,N,00807.5334,W,0.000,225.812,140517,,E,A*0A
$GPGGA,085058.00,3945.1653,N,00807.5334,W,1,18,0.609,316.565,M,,M,0,*50
$GPGSA,A,3,5,10,12,13,15,17,18,19,20,24,28,69,1.110,0.609,0.928*08
$GPGSV,5,1,19,5,6,172,19,10,12,320,40,12,35,199,46,13,51,107,48*77
$GPGSV,5,2,19,15,87,342,48,17,20,80,44,18,29,299,43,19,18,105,39*40
$GPGSV,5,3,19,20,34,210,44,24,56,288,49,28,14,39,33,69,40,168,33*4A
$GPGSV,5,4,19,70,70,290,36,71,22,327,44,73,32,249,39,79,25,39,37*49
$GPGSV,5,5,19,80,68,319,43,81,7,72,30,88,6,25,*42
$GPRMC,085058.00,A,3945.1653,N,00807.5334,W,0.000,225.812,140517,,E,A*05
$GPGGA,085059.00,3945.1653,N,00807.5334,W,1,18,0.609,316.565,M,,M,0,*51
$GPGSA,A,3,5,10,12,13,15,17,18,19,20,24,28,69,1.110,0.609,0.928*08
$GPGSV,5,1,19,5,6,172,15,10,12,320,40,12,35,199,46,13,51,107,48*7B
$GPGSV,5,2,19,15,87,342,49,17,20,80,44,18,29,299,43,19,18,105,40*4F
$GPGSV,5,3,19,20,34,210,45,24,56,288,49,28,14,39,33,69,40,168,34*4C
$GPGSV,5,4,19,70,70,290,36,71,22,327,44,73,32,249,40,79,25,39,37*47
$GPGSV,5,5,19,80,68,319,43,81,7,72,31,88,6,25,*43
$GPRMC,085059.00,A,3945.1653,N,00807.5334,W,0.000,225.812,140517,,E,A*04
$GPGGA,085100.00,3945.1653,N,00807.5334,W,1,18,0.609,316.565,M,,M,0,*5C
$GPGSA,A,3,5,10,12,13,15,17,18,19,20,24,28,69,1.110,0.609,0.928*08
$GPGSV,5,1,19,5,6,172,19,10,12,320,41,12,35,199,46,13,51,107,48*76
$GPGSV,5,2,19,15,87,342,49,17,20,80,45,18,29,299,43,19,18,105,40*4E
$GPGSV,5,3,19,20,34,210,45,24,56,288,49,28,14,39,33,69,40,168,35*4D
$GPGSV,5,4,19,70,70,290,37,71,22,327,44,73,32,249,40,79,25,39,38*49
$GPGSV,5,5,19,80,68,319,43,81,7,72,32,88,6,25,*40
$GPRMC,085100.00,A,3945.1653,N,00807.5334,W,0.000,225.812,140517,,E,A*09
$GPGGA,085101.00,3945.1653,N,00807.5334,W,1,18,0.609,316.565,M,,M,0,*5D
$GPGSA,A,3,5,10,12,13,15,17,18,19,20,24,28,69,1.110,0.609,0.928*08
$GPGSV,5,1,19,5,6,172,13,10,12,320,41,12,35,199,46,13,51,107,48*7C
$GPGSV,5,2,19,15,87,342,49,17,20,80,45,18,29,299,43,19,18,105,39*40
$GPGSV,5,3,19,20,34,210,45,24,56,288,49,28,14,39,33,69,40,168,36*4E
$GPGSV,5,4,19,70,70,290,37,71,22,327,44,73,32,249,39,79,25,39,38*47
$GPGSV,5,5,19,80,68,319,43,81,7,72,32,88,6,25,*40
$GPRMC,085101.00,A,3945.1653,N,00807.5334,W,0.000,225.812,140517,,E,A*08
$GPGGA,085102.00,3945.1653,N,00807.5334,W,1,18,0.609,316.565,M,,M,0,*5E
$GPGSA,A,3,5,10,12,13,15,17,18,19,20,24,28,69,1.110,0.609,0.928*08
$GPGSV,5,1,19,5,6,172,18,10,12,320,41,12,35,199,46,13,51,107,48*77
$GPGSV,5,2,19,15,87,342,49,17,20,80,45,18,29,299,42,19,18,105,39*41
$GPGSV,5,3,19,20,34,210,44,24,56,288,49,28,14,39,32,69,40,168,36*4E
$GPGSV,5,4,19,70,70,290,38,71,22,327,45,73,32,249,40,79,25,39,38*47
$GPGSV,5,5,19,80,68,319,43,81,7,72,32,88,6,25,*40
$GPRMC,085102.00,A,3945.1653,N,00807.5334,W,0.000,225.812,140517,,E,A*0B
$GPGGA,085103.00,3945.1653,N,00807.5334,W,1,18,0.609,316.565,M,,M,0,*5F
$GPGSA,A,3,5,10,12,13,15,17,18,19,20,24,28,69,1.110,0.609,0.928*08
$GPGSV,5,1,19,5,6,172,14,10,12,320,41,12,35,199,46,13,51,107,48*7B
$GPGSV,5,2,19,15,87,342,49,17,20,80,45,18,30,299,43,19,18,105,39*48
$GPGSV,5,3,19,20,34,210,44,24,56,288,49,28,14,39,32,69,40,168,35*4D
$GPGSV,5,4,19,70,70,290,37,71,22,327,44,73,32,249,39,79,25,39,38*47
$GPGSV,5,5,19,80,68,319,43,81,7,72,33,88,6,25,*41
$GPRMC,085103.00,A,3945.1653,N,00807.5334,W,0.000,225.812,140517,,E,A*0A
$GPGGA,085104.00,3945.1653,N,00807.5334,W,1,18,0.609,316.565,M,,M,0,*58
$GPGSA,A,3,5,10,12,13,15,17,18,19,20,24,28,69,1.110,0.609,0.928*08
$GPGSV,5,1,19,5,6,172,16,10,12,320,40,12,35,199,46,13,51,107,48*78
$GPGSV,5,2,19,15,87,342,49,17,20,80,44,18,30,299,42,19,18,105,39*48
$GPGSV,5,3,19,20,34,210,44,24,56,288,48,28,14,39,30,69,40,168,35*4E
$GPGSV,5,4,19,70,70,290,38,71,22,327,44,73,32,249,39,79,25,39,39*49
$GPGSV,5,5,19,80,68,319,43,81,7,72,32,88,6,25,*40
$GPRMC,085104.00,A,3945.1653,N,00807.5334,W,0.000,225.812,140517,,E,A*0D
$GPGGA,085105.00,3945.1653,N,00807.5334,W,1,18,0.609,316.565,M,,M,0,*59
$GPGSA,A,3,5,10,12,13,15,17,18,19,20,24,28,69,1.110,0.609,0.928*08
$GPGSV,5,1,19,5,6,172,18,10,12,320,38,12,35,199,44,13,51,107,48*7B
$GPGSV,5,2,19,15,87,343,49,17,20,80,44,18,30,299,43,19,18,105,39*48
$GPGSV,5,3,19,20,34,210,44,24,56,288,48,28,14,39,31,69,40,168,36*4C
$GPGSV,5,4,19,70,70,290,37,71,22,327,45,73,32,249,39,79,25,40,38*48
$GPGSV,5,5,19,80,68,319,43,81,7,72,31,88,6,25,*43
$GPRMC,085105.00,A,3945.1653,N,00807.5334,W,0.000,225.812,140517,,E,A*0C
$GPGGA,085106.00,3945.1653,N,00807.5334,W,1,18,0.609,316.565,M,,M,0,*5A
$GPGSA,A,3,5,10,12,13,15,17,18,19,20,24,28,69,1.110,0.609,0.928*08
$GPGSV,5,1,19,5,6,172,14,10,12,320,41,12,35,199,44,13,51,107,48*79
$GPGSV,5,2,19,15,87,343,49,17,20,80,46,18,30,299,43,19,18,105,40*44
$GPGSV,5,3,19,20,34,210,44,24,56,288,49,28,14,39,32,69,40,168,35*4D
$GPGSV,5,4,19,70,70,290,37,71,22,327,45,73,33,249,39,79,25,40,38*49
$GPGSV,5,5,19,80,68,319,43,81,7,72,33,88,6,25,*41
$GPRMC,085106.00,A,3945.1653,N,00807.5334,W,0.000,225.812,140517,,E,A*0F
$GPGGA,085107.00,3945.1653,N,00807.5334,W,1,18,0.609,316.565,M,,M,0,*5B
$GPGSA,A,3,5,10,12,13,15,17,18,19,20,24,28,69,1.110,0.609,0.928*08
$GPGSV,5,1,19,5,6,172,20,10,12,320,40,12,35,199,44,13,51,107,48*7F
$GPGSV,5,2,19,15,87,343,48,17,20,80,46,18,30,299,42,19,18,105,39*4A
$GPGSV,5,3,19,20,34,210,43,24,56,289,49,28,14,39,30,69,40,168,35*49
$GPGSV,5,4,19,70,70,290,38,71,22,327,45,73,33,249,40,79,25,40,38*48
$GPGSV,5,5,19,80,68,319,43,81,7,72,33,88,6,25,*41
$GPRMC,085107.00,A,3945.1653,N,00807.5334,W,0.000,225.812,140517,,E,A*0E
$GPGGA,085108.00,3945.1653,N,00807.5334,W,1,18,0.609,316.565,M,,M,0,*54
$GPGSA,A,3,5,10,12,13,15,17,18,19,20,24,28,69,1.110,0.609,0.928*08
$GPGSV,5,1,19,5,6,172,20,10,12,320,41,12,35,199,44,13,51,107,48*7E
$GPGSV,5,2,19,15,87,343,48,17,20,80,47,18,30,299,42,19,18,105,39*4B
$GPGSV,5,3,19,20,34,210,44,24,56,289,49,28,14,39,29,69,40,168,35*46
$GPGSV,5,4,19,70,70,289,37,71,22,327,44,73,33,249,40,79,25,40,38*4E
$GPGSV,5,5,19,80,68,319,43,81,7,72,31,88,6,25,*43
$GPRMC,085108.00,A,3945.1653,N,00807.5334,W,0.000,225.812,140517,,E,A*01
$GPGGA,085109.00,3945.1653,N,00807.5334,W,1,18,0.609,316.565,M,,M,0,*55
$GPGSA,A,3,5,10,12,13,15,17,18,19,20,24,28,69,1.110,0.609,0.928*08
$GPGSV,5,1,19,5,6,172,18,10,12,320,41,12,35,199,44,13,50,107,48*74
$GPGSV,5,2,19,15,87,343,49,17,20,80,46,18,30,299,42,19,18,105,39*4B
$GPGSV,5,3,19,20,34,210,43,24,56,289,49,28,14,39,30,69,40,168,36*4A
$GPGSV,5,4,19,70,70,289,37,71,22,327,45,73,33,249,40,79,25,40,37*40
$GPGSV,5,5,19,80,68,319,43,81,7,72,30,88,6,25,*42
$GPRMC,085109.00,A,3945.1653,N,00807.5334,W,0.000,225.812,140517,,E,A*00
$GPGGA,085110.00,3945.1653,N,00807.5334,W,1,18,0.609,316.565,M,,M,0,*5D
$GPGSA,A,3,5,10,12,13,15,17,18,19,20,24,28,69,1.110,0.609,0.928*08
$GPGSV,5,1,19,5,6,172,15,10,12,320,41,12,35,199,44,13,50,107,48*79
$GPGSV,5,2,19,15,87,343,49,17,20,79,46,18,30,299,42,19,18,105,39*4D
$GPGSV,5,3,19,20,34,210,43,24,56,289,49,28,14,39,29,69,40,168,36*42
$GPGSV,5,4,19,70,70,289,38,71,22,327,45,73,33,249,40,79,25,40,38*40
$GPGSV,5,5,19,80,68,319,43,81,7,72,32,88,6,25,*40
$GPRMC,085110.00,A,3945.1653,N,00807.5334,W,0.000,225.812,140517,,E,A*08
$GPGGA,085111.00,3945.1653,N,00807.5334,W,1,18,0.609,316.565,M,,M,0,*5C
$GPGSA,A,3,5,10,12,13,15,17,18,19,20,24,28,69,1.110,0.609,0.928*08
$GPGSV,5,1,19,5,6,172,19,10,12,320,39,12,35,199,44,13,50,107,48*7A
$GPGSV,5,2,19,15,87,343,49,17,20,79,46,18,30,299,42,19,18,105,40*43
$GPGSV,5,3,19,20,34,210,43,24,56,289,48,28,14,39,30,69,40,168,36*4B
$GPGSV,5,4,19,70,70,289,38,71,22,327,45,73,33,249,40,79,25,40,38*40
$GPGSV,5,5,19,80,68,319,44,81,7,72,32,88,6,25,*47
$GPRMC,085111.00,A,3945.1653,N,00807.5334,W,0.000,225.812,140517,,E,A*09
$GPGGA,085112.00,3945.1653,N,00807.5334,W,1,18,0.609,316.565,M,,M,0,*5F
$GPGSA,A,3,5,10,12,13,15,17,18,19,20,24,28,69,1.110,0.609,0.928*08
$GPGSV,5,1,19,5,6,172,18,10,12,320,38,12,35,199,44,13,50,107,48*7A
$GPGSV,5,2,19,15,87,343,49,17,20,79,47,18,30,299,41,19,18,105,39*4F
$GPGSV,5,3,19,20,34,210,43,24,56,289,49,28,14,39,30,69,40,168,36*4A
$GPGSV,5,4,19,70,70,289,37,71,22,327,44,73,33,249,40,79,25,40,38*4E
$GPGSV,5,5,19,80,68,319,44,81,7,72,32,88,6,25,*47
$GPRMC,085112.00,A,3945.1653,N,00807.5334,W,0.000,225.812,140517,,E,A*0A
$GPGGA,085113.00,3945.1653,N,00807.5334,W,1,18,0.609,316.565,M,,M,0,*5E
$GPGSA,A,3,5,10,12,13,15,17,18,19,20,24,28,69,1.110,0.609,0.928*08
$GPGSV,5,1,19,5,6,172,15,10,12,320,36,12,35,199,44,13,50,107,48*79
$GPGSV,5,2,19,15,87,343,49,17,20,79,46,18,30,299,41,19,18,105,40*40
$GPGSV,5,3,19,20,34,210,43,24,56,289,48,28,14,39,31,69,40,168,36*4A
$GPGSV,5,4,19,70,70,289,38,71,22,327,45,73,33,249,40,79,25,40,37*4F
$GPGSV,5,5,19,80,68,319,44,81,7,72,31,88,6,25,*44
$GPRMC,085113.00,A,3945.1653,N,00807.5334,W,0.000,225.812,140517,,E,A*0B
$GPGGA,085114.00,3945.1653,N,00807.5334,W,1,18,0.609,316.565,M,,M,0,*59
$GPGSA,A,3,5,10,12,13,15,17,18,19,20,24,28,69,1.110,0.609,0.928*08
$GPGSV,5,1,19,5,6,172,21,10,12,320,36,12,35,199,44,13,50,107,48*7E
$GPGSV,5,2,19,15,87,343,49,17,20,79,47,18,30,299,42,19,18,105,39*4C
$GPGSV,5,3,19,20,34,210,42,24,56,289,49,28,14,39,30,69,40,168,37*4A
$GPGSV,5,4,19,70,70,289,37,71,22,327,45,73,33,249,40,79,25,40,37*40
$GPGSV,5,5,19,80,68,319,43,81,7,72,31,88,6,25,*43
$GPRMC,085114.00,A,3945.1653,N,00807.5334,W,0.000,225.812,140517,,E,A*0C
$GPGGA,085115.00,3945.1653,N,00807.5334,W,1,18,0.609,316.565,M,,M,0,*58
$GPGSA,A,3,5,10,12,13,15,17,18,19,20,24,28,69,1.110,0.609,0.928*08
$GPGSV,5,1,19,5,6,172,19,10,12,320,35,12,35,199,44,13,50,107,48*76
$GPGSV,5,2,19,15,87,343,49,17,20,79,47,18,30,299,45,19,18,105,39*4B
$GPGSV,5,3,19,20,34,210,43,24,56,289,48,28,14,39,32,69,40,168,36*49
$GPGSV,5,4,19,70,70,289,39,71,22,327,45,73,33,249,40,79,25,40,37*4E
$GPGSV,5,5,19,80,68,319,44,81,7,72,33,88,6,25,*46
$GPRMC,085115.00,A,3945.1653,N,00807.5334,W,0.000,225.812,140517,,E,A*0D
$GPGGA,085116.00,3945.1653,N,00807.5334,W,1,18,0.609,316.565,M,,M,0,*5B
$GPGSA,A,3,5,10,12,13,15,17,18,19,20,24,28,69,1.110,0.609,0.928*08
$GPGSV,5,1,19,5,6,172,19,10,12,320,35,12,35,199,44,13,50,107,48*76
$GPGSV,5,2,19,15,87,343,50,17,20,79,48,18,30,299,44,19,18,105,39*4D
$GPGSV,5,3,19,20,34,210,43,24,56,289,47,28,14,39,33,69,40,168,35*44
$GPGSV,5,4,19,70,70,289,38,71,22,327,45,73,33,249,40,79,25,40,36*4E
$GPGSV,5,5,19,80,68,319,44,81,7,72,32,88,6,25,*47
$GPRMC,085116.00,A,3945.1653,N,00807.5334,W,0.000,225.812,140517,,E,A*0E
$GPGGA,085117.00,3945.1653,N,00807.5334,W,1,18,0.609,316.565,M,,M,0,*5A
$GPGSA,A,3,5,10,12,13,15,17,18,19,20,24,28,69,1.111,0.609,0.928*09
$GPGSV,5,1,19,5,6,172,21,10,12,320,39,12,35,199,44,13,50,107,48*71
$GPGSV,5,2,19,15,87,343,50,17,20,79,48,18,30,299,43,19,18,105,39*4A
$GPGSV,5,3,19,20,34,210,44,24,56,289,47,28,14,39,34,69,40,168,35*44
$GPGSV,5,4,19,70,70,289,38,71,22,327,45,73,33,249,41,79,25,40,36*4F
$GPGSV,5,5,19,80,68,319,44,81,7,72,31,88,6,25,*44
$GPRMC,085117.00,A,3945.1653,N,00807.5334,W,0.000,225.812,140517,,E,A*0F
$GPGGA,085118.00,3945.1653,N,00807.5334,W,1,18,0.609,316.565,M,,M,0,*55
$GPGSA,A,3,5,10,12,13,15,17,18,19,20,24,28,69,1.111,0.609,0.928*09
$GPGSV,5,1,19,5,6,172,23,10,12,320,40,12,35,199,44,13,50,107,49*7C
$GPGSV,5,2,19,15,87,343,50,17,20,79,48,18,30,299,44,19,18,105,38*4C
$GPGSV,5,3,19,20,34,210,44,24,56,289,48,28,14,39,33,69,40,168,35*4C
$GPGSV,5,4,19,70,70,289,37,71,22,327,45,73,33,249,41,79,25,40,36*40
$GPGSV,5,5,19,80,68,319,44,81,7,72,33,88,6,25,*46
$GPRMC,085118.00,A,3945.1653,N,00807.5334,W,0.000,225.812,140517,,E,A*00
$GPGGA,085119.00,3945.1653,N,00807.5334,W,1,18,0.609,316.565,M,,M,0,*54
$GPGSA,A,3,5,10,12,13,15,17,18,19,20,24,28,69,1.111,0.609,0.928*09
$GPGSV,5,1,19,5,6,172,20,10,12,320,41,12,35,199,45,13,50,107,49*7F
$GPGSV,5,2,19,15,87,343,50,17,20,79,47,18,30,299,44,19,18,105,38*43
$GPGSV,5,3,19,20,34,210,44,24,56,289,47,28,14,39,32,69,40,168,35*42
$GPGSV,5,4,19,70,70,289,38,71,22,327,45,73,33,249,42,79,25,40,36*4C
$GPGSV,5,5,19,80,68,320,44,81,7,72,33,88,6,25,*4C
$GPRMC,085119.00,A,3945.1653,N,00807.5334,W,0.000,225.812,140517,,E,A*01
$GPGGA,085120.00,3945.1653,N,00807.5334,W,1,18,0.609,316.565,M,,M,0,*5E
$GPGSA,A,3,5,10,12,13,15,17,18,19,20,24,28,69,1.111,0.609,0.928*09
$GPGSV,5,1,19,5,6,172,21,10,12,320,41,12,35,199,44,13,50,107,49*7F
$GPGSV,5,2,19,15,87,343,50,17,20,79,47,18,30,299,43,19,18,105,37*4B
$GPGSV,5,3,19,20,34,210,44,24,56,289,46,28,14,39,31,69,40,168,35*40
$GPGSV,5,4,19,70,70,289,37,71,22,327,45,73,33,249,42,79,25,40,36*43
$GPGSV,5,5,19,80,68,320,44,81,7,72,33,88,6,25,*4C
$GPRMC,085120.00,A,3945.1653,N,00807.5334,W,0.000,225.812,140517,,E,A*0B
$GPGGA,085121.00,3945.1653,N,00807.5334,W,1,18,0.609,316.565,M,,M,0,*5F
$GPGSA,A,3,5,10,12,13,15,17,18,19,20,24,28,69,1.111,0.609,0.929*08
$GPGSV,5,1,19,5,6,172,23,10,12,320,41,12,35,199,44,13,50,107,49*7D
$GPGSV,5,2,19,15,87,343,50,17,20,79,48,18,30,299,43,19,18,105,38*4B
$GPGSV,5,3,19,20,34,210,44,24,56,289,46,28,14,39,31,69,40,168,35*40
$GPGSV,5,4,19,70,70,289,38,71,22,327,45,73,33,249,42,79,25,40,36*4C
$GPGSV,5,5,19,80,68,320,44,81,7,72,32,88,6,25,*4D
$GPRMC,085121.00,A,3945.1653,N,00807.5334,W,0.000,225.812,140517,,E,A*0A
$GPGGA,085122.00,3945.1653,N,00807.5334,W,1,18,0.609,316.565,M,,M,0,*5C
$GPGSA,A,3,5,10,12,13,15,17,18,19,20,24,28,69,1.111,0.609,0.929*08
$GPGSV,5,1,19,5,6,172,20,10,12,320,41,12,35,199,43,13,50,107,49*79
$GPGSV,5,2,19,15,87,343,50,17,20,79,48,18,30,299,42,19,18,105,38*4A
$GPGSV,5,3,19,20,34,210,44,24,56,289,47,28,14,39,32,69,40,168,36*41
$GPGSV,5,4,19,70,70,289,38,71,22,327,45,73,33,249,40,79,25,40,36*4E
$GPGSV,5,5,19,80,68,320,44,81,7,72,30,88,6,25,*4F
$GPRMC,085122.00,A,3945.1653,N,00807.5334,W,0.000,225.812,140517,,E,A*09
$GPGGA,085123.00,3945.1653,N,00807.5334,W,1,18,0.609,316.565,M,,M,0,*5D
$GPGSA,A,3,5,10,12,13,15,17,18,19,20,24,28,69,1.111,0.609,0.929*08
$GPGSV,5,1,19,5,6,172,17,10,12,320,40,12,35,199,43,13,50,107,49*7C
$GPGSV,5,2,19,15,87,343,50,17,20,79,48,18,30,299,42,19,18,105,38*4A
$GPGSV,5,3,19,20,34,210,44,24,56,289,47,28,14,39,32,69,40,168,36*41
$GPGSV,5,4,19,70,70,289,38,71,22,327,45,73,33,249,39,79,25,40,37*41
$GPGSV,5,5,19,80,68,320,44,81,7,72,28,88,6,25,*46
$GPRMC,085123.00,A,3945.1653,N,00807.5334,W,0.000,225.812,140517,,E,A*08
$GPGGA,085124.00,3945.1653,N,00807.5334,W,1,18,0.609,316.565,M,,M,0,*5A
$GPGSA,A,3,5,10,12,13,15,17,18,19,20,24,28,69,1.111,0.609,0.929*08
$GPGSV,5,1,19,5,6,172,18,10,12,320,40,12,35,199,43,13,50,107,49*73
$GPGSV,5,2,19,15,87,344,50,17,20,79,48,18,30,299,42,19,18,105,38*4D
$GPGSV,5,3,19,20,34,210,44,24,56,289,47,28,14,39,32,69,39,168,36*4F
$GPGSV,5,4,19,70,70,289,38,71,22,327,44,73,33,249,39,79,25,40,37*40
$GPGSV,5,5,19,80,68,320,44,81,7,72,28,88,6,25,*46
$GPRMC,085124.00,A,3945.1653,N,00807.5334,W,0.000,225.812,140517,,E,A*0F
$GPGGA,085125.00,3945.1653,N,00807.5334,W,1,18,0.609,316.565,M,,M,0,*5B
$GPGSA,A,3,5,10,12,13,15,17,18,19,20,24,28,69,1.111,0.609,0.929*08
$GPGSV,5,1,19,5,6,172,17,10,12,320,39,12,35,199,43,13,50,107,49*72
$GPGSV,5,2,19,15,87,344,50,17,20,79,47,18,30,299,41,19,18,105,38*41
$GPGSV,5,3,19,20,34,210,44,24,56,289,47,28,14,39,33,69,39,168,36*4E
$GPGSV,5,4,19,70,70,289,38,71,22,327,45,73,33,249,38,79,25,40,38*4F
$GPGSV,5,5,19,80,68,320,44,81,7,72,29,88,6,25,*47
$GPRMC,085125.00,A,3945.1653,N,00807.5334,W,0.000,225.812,140517,,E,A*0E
$GPGGA,085126.00,3945.1653,N,00807.5334,W,1,18,0.609,316.565,M,,M,0,*58
$GPGSA,A,3,5,10,12,13,15,17,18,19,20,24,28,69,1.111,0.609,0.929*08
$GPGSV,5,1,19,5,6,172,17,10,12,320,40,12,35,199,43,13,50,107,49*7C
$GPGSV,5,2,19,15,87,344,50,17,20,79,48,18,30,299,41,19,18,105,38*4E
$GPGSV,5,3,19,20,34,210,43,24,56,289,47,28,14,39,34,69,39,168,37*4F
$GPGSV,5,4,19,70,70,289,38,71,22,327,45,73,33,249,39,79,25,40,38*4E
$GPGSV,5,5,19,80,68,320,44,81,7,72,28,88,6,25,*46
$GPRMC,085126.00,A,3945.1653,N,00807.5334,W,0.000,225.812,140517,,E,A*0D
$GPGGA,085127.00,3945.1653,N,00807.5334,W,1,18,0.609,316.565,M,,M,0,*59
$GPGSA,A,3,5,10,12,13,15,17,18,19,20,24,28,69,1.111,0.609,0.929*08
$GPGSV,5,1,19,5,6,172,17,10,12,320,40,12,36,199,43,13,50,107,50*77
$GPGSV,5,2,19,15,87,344,50,17,20,79,47,18,30,299,42,19,18,105,39*43
$GPGSV,5,3,19,20,34,210,43,24,56,289,48,28,14,39,35,69,39,168,37*41
$GPGSV,5,4,19,70,70,289,38,71,22,327,45,73,33,249,38,79,25,40,37*40
$GPGSV,5,5,19,80,68,320,44,81,7,72,27,88,6,25,*49
$GPRMC,085127.00,A,3945.1653,N,00807.5334,W,0.000,225.812,140517,,E,A*0C
$GPGGA,085128.00,3945.1653,N,00807.5334,W,1,18,0.609,316.565,M,,M,0,*56
$GPGSA,A,3,5,10,12,13,15,17,18,19,20,24,28,69,1.111,0.609,0.929*08
$GPGSV,5,1,19,5,6,172,18,10,12,320,40,12,36,199,43,13,50,107,50*78
$GPGSV,5,2,19,15,87,344,50,17,20,79,47,18,30,299,42,19,18,105,38*42
$GPGSV,5,3,19,20,34,210,43,24,56,289,47,28,14,39,34,69,39,168,37*4F
$GPGSV,5,4,19,70,70,289,38,71,22,327,44,73,33,249,40,79,25,40,37*4E
$GPGSV,5,5,19,80,68,320,44,81,7,72,28,88,6,25,*46
$GPRMC,085128.00,A,3945.1653,N,00807.5334,W,0.000,225.812,140517,,E,A*03
$GPGGA,085129.00,3945.1653,N,00807.5334,W,1,18,0.609,316.565,M,,M,0,*57
$GPGSA,A,3,5,10,12,13,15,17,18,19,20,24,28,69,1.111,0.609,0.929*08
$GPGSV,5,1,19,5,6,172,18,10,12,320,39,12,36,199,43,13,50,107,50*76
$GPGSV,5,2,19,15,87,344,50,17,20,79,47,18,30,299,43,19,18,105,38*43
$GPGSV,5,3,19,20,34,210,43,24,56,289,47,28,14,39,35,69,39,168,37*4E
$GPGSV,5,4,19,70,70,289,38,71,22,327,44,73,33,249,40,79,25,40,37*4E
$GPGSV,5,5,19,80,68,320,43,81,7,72,31,88,6,25,*49
$GPRMC,085129.00,A,3945.1653,N,00807.5334,W,0.000,225.812,140517,,E,A*02
$GPGGA,085130.00,3945.1653,N,00807.5334,W,1,18,0.609,316.565,M,,M,0,*5F
$GPGSA,A,3,5,10,12,13,15,17,18,19,20,24,28,69,1.111,0.609,0.929*08
$GPGSV,5,1,19,5,6,172,17,10,12,320,37,12,36,199,44,13,50,107,49*78
$GPGSV,5,2,19,15,87,344,49,17,20,79,47,18,30,299,42,19,18,105,39*4B
$GPGSV,5,3,19,20,34,210,43,24,56,289,46,28,14,39,36,69,39,168,37*4C
$GPGSV,5,4,19,70,70,289,39,71,22,327,45,73,33,249,39,79,25,40,37*40
$GPGSV,5,5,19,80,68,320,44,81,7,72,30,88,6,25,*4F
$GPRMC,085130.00,A,3945.1653,N,00807.5334,W,0.000,225.812,140517,,E,A*0A
$GPGGA,085131.00,3945.1653,N,00807.5334,W,1,18,0.609,316.565,M,,M,0,*5E
$GPGSA,A,3,5,10,12,13,15,17,18,19,20,24,28,69,1.111,0.609,0.929*08
$GPGSV,5,1,19,5,6,172,16,10,12,320,36,12,36,199,44,13,50,107,49*78
$GPGSV,5,2,19,15,87,344,50,17,20,79,46,18,30,299,42,19,18,105,40*4C
$GPGSV,5,3,19,20,34,210,44,24,56,289,47,28,14,39,33,69,39,168,37*4F
$GPGSV,5,4,19,70,70,289,39,71,22,327,45,73,33,249,37,79,25,40,38*41
$GPGSV,5,5,19,80,68,320,43,81,7,72,31,88,6,25,*49
$GPRMC,085131.00,A,3945.1653,N,00807.5334,W,0.000,225.812,140517,,E,A*0B
$GPGGA,085132.00,3945.1653,N,00807.5334,W,1,18,0.609,316.565,M,,M,0,*5D
$GPGSA,A,3,5,10,12,13,15,17,18,19,20,24,28,69,1.111,0.609,0.929*08
$GPGSV,5,1,19,5,6,172,18,10,12,320,36,12,36,199,45,13,50,107,48*76
$GPGSV,5,2,19,15,87,344,50,17,20,79,46,18,30,299,42,19,18,105,40*4C
$GPGSV,5,3,19,20,34,210,43,24,56,289,48,28,14,39,33,69,39,168,37*47
$GPGSV,5,4,19,70,70,289,39,71,22,327,45,73,33,249,38,79,25,40,38*4E
$GPGSV,5,5,19,80,68,320,43,81,7,72,31,88,6,25,*49
$GPRMC,085132.00,A,3945.1653,N,00807.5334,W,0.000,225.812,140517,,E,A*08
$GPGGA,085133.00,3945.1653,N,00807.5334,W,1,18,0.609,316.565,M,,M,0,*5C
$GPGSA,A,3,5,10,12,13,15,17,18,19,20,24,28,69,1.111,0.609,0.929*08
$GPGSV,5,1,19,5,6,172,19,10,12,320,36,12,36,199,44,13,50,107,49*77
$GPGSV,5,2,19,15,87,344,49,17,20,79,47,18,30,299,42,19,18,105,41*44
$GPGSV,5,3,19,20,34,210,43,24,56,289,47,28,14,39,34,69,39,168,36*4E
$GPGSV,5,4,19,70,70,289,38,71,22,327,45,73,33,249,38,79,25,40,37*40
$GPGSV,5,5,19,80,68,320,43,81,7,72,31,88,6,25,*49
$GPRMC,085133.00,A,3945.1653,N,00807.5334,W,0.000,225.812,140517,,E,A*09
$GPGGA,085134.00,3945.1653,N,00807.5334,W,1,18,0.609,316.565,M,,M,0,*5B
$GPGSA,A,3,5,10,12,13,15,17,18,19,20,24,28,69,1.111,0.609,0.929*08
$GPGSV,5,1,19,5,6,172,19,10,12,320,39,12,36,199,44,13,50,107,49*78
$GPGSV,5,2,19,15,87,344,48,17,20,79,47,18,30,299,42,19,18,105,40*44
$GPGSV,5,3,19,20,34,210,43,24,56,289,47,28,14,39,34,69,39,168,37*4F
$GPGSV,5,4,19,70,70,289,38,71,22,327,45,73,33,249,38,79,25,40,37*40
$GPGSV,5,5,19,80,68,320,43,81,7,72,31,88,6,25,*49
$GPRMC,085134.00,A,3945.1653,N,00807.5334,W,0.000,225.812,140517,,E,A*0E
$GPGGA,085135.00,3945.1653,N,00807.5334,W,1,18,0.609,316.565,M,,M,0,*5A
$GPGSA,A,3,5,10,12,13,15,17,18,19,20,24,28,69,1.111,0.609,0.929*08
$GPGSV,5,1,19,5,6,172,20,10,12,320,39,12,36,199,44,13,50,107,49*72
$GPGSV,5,2,19,15,87,344,48,17,20,79,47,18,30,299,42,19,18,105,40*44
$GPGSV,5,3,19,20,34,210,43,24,56,289,47,28,14,39,35,69,39,168,37*4E
$GPGSV,5,4,19,70,70,289,37,71,22,327,44,73,33,249,38,79,25,40,37*4E
$GPGSV,5,5,19,80,68,320,43,81,7,72,31,88,6,25,*49
$GPRMC,085135.00,A,3945.1653,N,00807.5334,W,0.000,225.812,140517,,E,A*0F
$GPGGA,085136.00,3945.1653,N,00807.5334,W,1,18,0.609,316.565,M,,M,0,*59
$GPGSA,A,3,5,10,12,13,15,17,18,19,20,24,28,69,1.111,0.609,0.929*08
$GPGSV,5,1,19,5,6,172,18,10,12,320,37,12,36,199,44,13,50,107,48*76
$GPGSV,5,2,19,15,87,344,49,17,20,79,47,18,30,299,41,19,18,105,41*47
$GPGSV,5,3,19,20,34,210,42,24,56,289,46,28,14,39,36,69,39,168,37*4D
$GPGSV,5,4,19,70,70,289,38,71,22,327,44,73,33,249,37,79,25,40,37*4E
$GPGSV,5,5,19,80,68,320,43,81,7,72,32,88,6,25,*4A
$GPRMC,085136.00,A,3945.1653,N,00807.5334,W,0.000,225.812,140517,,E,A*0C
$GPGGA,085137.00,3945.1653,N,00807.5334,W,1,18,0.609,316.565,M,,M,0,*58
$GPGSA,A,3,5,10,12,13,15,17,18,19,20,24,28,69,1.111,0.609,0.929*08
$GPGSV,5,1,19,5,6,172,19,10,12,320,37,12,36,199,44,13,50,107,49*76
$GPGSV,5,2,19,15,87,344,49,17,20,79,47,18,30,299,41,19,18,105,41*47
$GPGSV,5,3,19,20,34,210,42,24,56,289,47,28,14,39,36,69,39,168,37*4C
$GPGSV,5,4,19,70,70,289,38,71,22,327,45,73,33,249,37,79,25,40,37*4F
$GPGSV,5,5,19,80,68,320,43,81,7,72,31,88,6,25,*49
$GPRMC,085137.00,A,3945.1653,N,00807.5334,W,0.000,225.812,140517,,E,A*0D
$GPGGA,085138.00,3945.1653,N,00807.5334,W,1,18,0.609,316.565,M,,M,0,*57
$GPGSA,A,3,5,10,12,13,15,17,18,19,20,24,28,69,1.111,0.609,0.929*08
$GPGSV,5,1,19,5,6,172,18,10,12,320,38,12,36,199,44,13,50,107,49*78
$GPGSV,5,2,19,15,87,344,48,17,20,79,47,18,30,299,41,19,18,105,41*46
$GPGSV,5,3,19,20,34,210,42,24,56,289,47,28,14,39,36,69,39,168,36*4D
$GPGSV,5,4,19,70,70,289,38,71,22,327,45,73,33,249,40,79,25,40,37*4F
$GPGSV,5,5,19,80,68,320,43,81,7,72,31,88,6,25,*49
$GPRMC,085138.00,A,3945.1653,N,00807.5334,W,0.000,225.812,140517,,E,A*02
$GPGGA,085139.00,3945.1653,N,00807.5334,W,1,18,0.609,316.565,M,,M,0,*56
$GPGSA,A,3,5,10,12,13,15,17,18,19,20,24,28,69,1.111,0.609,0.929*08
$GPGSV,5,1,19,5,6,172,17,10,12,320,38,12,36,199,44,13,50,107,49*77
$GPGSV,5,2,19,15,87,344,48,17,20,79,48,18,30,299,41,19,18,105,41*49
$GPGSV,5,3,19,20,34,210,43,24,56,289,47,28,14,39,36,69,39,168,36*4C
$GPGSV,5,4,19,70,70,289,38,71,22,327,45,73,33,249,39,79,25,40,38*4E
$GPGSV,5,5,19,80,68,320,44,81,7,72,32,88,6,25,*4D
$GPRMC,085139.00,A,3945.1653,N,00807.5334,W,0.000,225.812,140517,,E,A*03
$GPGGA,085140.00,3945.1653,N,00807.5334,W,1,18,0.609,316.565,M,,M,0,*58
$GPGSA,A,3,5,10,12,13,15,17,18,19,20,24,28,69,1.111,0.609,0.929*08
$GPGSV,5,1,19,5,6,172,20,10,12,320,38,12,36,199,44,13,50,107,49*73
$GPGSV,5,2,19,15,87,344,48,17,20,79,47,18,30,299,42,19,18,105,41*45
$GPGSV,5,3,19,20,34,210,43,24,56,289,47,28,14,39,36,69,39,168,36*4C
$GPGSV,5,4,19,70,70,289,38,71,22,327,45,73,33,249,39,79,25,40,38*4E
$GPGSV,5,5,19,80,68,320,43,81,7,72,31,88,6,25,*49
$GPRMC,085140.00,A,3945.1653,N,00807.5334,W,0.000,225.812,140517,,E,A*0D
$GPGGA,085141.00,3945.1653,N,00807.5334,W,1,18,0.609,316.565,M,,M,0,*59
$GPGSA,A,3,5,10,12,13,15,17,18,19,20,24,28,69,1.111,0.609,0.929*08
$GPGSV,5,1,19,5,6,172,18,10,12,320,38,12,36,199,44,13,50,107,49*78
$GPGSV,5,2,19,15,87,344,48,17,20,79,47,18,30,299,42,19,18,105,41*45
$GPGSV,5,3,19,20,34,210,43,24,56,289,47,28,14,39,36,69,39,168,36*4C
$GPGSV,5,4,19,70,70,289,38,71,22,327,44,73,33,249,40,79,25,40,38*41
$GPGSV,5,5,19,80,68,320,43,81,7,72,31,88,6,25,*49
$GPRMC,085141.00,A,3945.1653,N,00807.5334,W,0.000,225.812,140517,,E,A*0C
$GPGGA,085142.00,3945.1653,N,00807.5334,W,1,18,0.609,316.565,M,,M,0,*5A
$GPGSA,A,3,5,10,12,13,15,17,18,19,20,24,28,69,1.111,0.609,0.929*08
$GPGSV,5,1,19,5,6,172,20,10,12,320,37,12,36,199,43,13,50,107,48*7A
$GPGSV,5,2,19,15,87,345,50,17,20,79,47,18,30,299,42,19,18,105,41*4D
$GPGSV,5,3,19,20,34,210,43,24,56,289,47,28,14,39,37,69,39,168,36*4D
$GPGSV,5,4,19,70,70,289,36,71,22,327,44,73,33,249,39,79,25,40,37*4E
$GPGSV,5,5,19,80,68,320,43,81,7,72,31,88,6,25,*49
$GPRMC,085142.00,A,3945.1653,N,00807.5334,W,0.000,225.812,140517,,E,A*0F
$GPGGA,085143.00,3945.1653,N,00807.5334,W,1,18,0.609,316.565,M,,M,0,*5B
$GPGSA,A,3,5,10,12,13,15,17,18,19,20,24,28,69,1.111,0.609,0.929*08
$GPGSV,5,1,19,5,6,172,21,10,12,320,34,12,36,199,44,13,50,107,47*70
$GPGSV,5,2,19,15,87,345,50,17,20,79,46,18,30,299,42,19,18,105,41*4C
$GPGSV,5,3,19,20,34,210,43,24,56,289,47,28,14,39,36,69,39,168,36*4C
$GPGSV,5,4,19,70,70,289,36,71,22,327,44,73,33,249,37,79,25,40,38*4F
$GPGSV,5,5,19,80,68,320,42,81,7,72,32,88,6,25,*4B
$GPRMC,085143.00,A,3945.1653,N,00807.5334,W,0.000,225.812,140517,,E,A*0E
$GPGGA,085144.00,3945.1653,N,00807.5334,W,1,18,0.609,316.565,M,,M,0,*5C
$GPGSA,A,3,5,10,12,13,15,17,18,19,20,24,28,69,1.111,0.609,0.929*08
$GPGSV,5,1,19,5,6,172,22,10,12,320,35,12,36,199,44,13,50,107,48*7D
$GPGSV,5,2,19,15,87,345,51,17,20,79,46,18,30,299,42,19,18,105,41*4D
$GPGSV,5,3,19,20,34,210,43,24,56,289,48,28,14,39,37,69,39,168,36*42
$GPGSV,5,4,19,70,70,289,36,71,22,327,44,73,33,249,37,79,25,40,38*4F
$GPGSV,5,5,19,80,68,320,42,81,7,72,32,88,6,25,*4B
$GPRMC,085144.00,A,3945.1653,N,00807.5334,W,0.000,225.812,140517,,E,A*09
$GPGGA,085145.00,3945.1653,N,00807.5334,W,1,18,0.610,316.565,M,,M,0,*55
$GPGSA,A,3,5,10,12,13,15,17,18,19,20,24,28,69,1.111,0.610,0.929*00
$GPGSV,5,1,19,5,6,172,21,10,12,320,36,12,36,199,44,13,50,107,48*7D
$GPGSV,5,2,19,15,87,345,51,17,20,79,46,18,30,299,41,19,18,105,41*4E
$GPGSV,5,3,19,20,34,210,43,24,56,289,49,28,14,39,37,69,39,168,36*43
$GPGSV,5,4,19,70,70,289,35,71,22,327,44,73,33,249,35,79,25,40,39*4F
$GPGSV,5,5,19,80,68,320,41,81,7,72,34,88,6,25,*4E
$GPRMC,085145.00,A,3945.1653,N,00807.5334,W,0.000,225.812,140517,,E,A*08
$GPGGA,085146.00,3945.1653,N,00807.5334,W,1,18,0.610,316.565,M,,M,0,*56
$GPGSA,A,3,5,10,12,13,15,17,18,19,20,24,28,69,1.111,0.610,0.929*00
$GPGSV,5,1,19,5,6,172,21,10,12,320,36,12,36,199,45,13,50,107,48*7C
$GPGSV,5,2,19,15,87,345,51,17,20,79,47,18,30,299,42,19,18,105,40*4D
$GPGSV,5,3,19,20,34,210,43,24,56,289,50,28,14,39,37,69,39,168,36*4B
$GPGSV,5,4,19,70,70,288,34,71,22,327,46,73,33,249,34,79,25,40,39*4C
$GPGSV,5,5,19,80,68,320,40,81,7,72,33,88,6,25,*48
$GPRMC,085146.00,A,3945.1653,N,00807.5334,W,0.000,225.812,140517,,E,A*0B
$GPGGA,085147.00,3945.1653,N,00807.5334,W,1,18,0.610,316.565,M,,M,0,*57
$GPGSA,A,3,5,10,12,13,15,17,18,19,20,24,28,69,1.111,0.610,0.929*00
$GPGSV,5,1,19,5,6,172,20,10,12,320,35,12,36,199,43,13,50,107,47*77
$GPGSV,5,2,19,15,87,345,49,17,20,79,44,18,30,299,41,19,18,105,40*44
$GPGSV,5,3,19,20,34,210,42,24,56,289,48,28,14,39,35,69,39,168,35*42
$GPGSV,5,4,19,70,70,288,34,71,22,327,44,73,33,249,32,79,25,40,37*46
$GPGSV,5,5,19,80,68,320,39,81,7,72,31,88,6,25,*44
$GPRMC,085147.00,A,3945.1653,N,00807.5334,W,0.000,225.812,140517,,E,A*0A
$GPGGA,085148.00,3945.1653,N,00807.5334,W,1,18,0.610,316.565,M,,M,0,*58
$GPGSA,A,3,5,10,12,13,15,17,18,19,20,24,28,69,1.111,0.610,0.929*00
$GPGSV,5,1,19,5,6,172,19,10,12,320,38,12,36,199,43,13,50,107,45*72
$GPGSV,5,2,19,15,87,345,48,17,20,79,43,18,30,299,41,19,18,105,40*42
$GPGSV,5,3,19,20,34,210,40,24,56,289,47,28,14,39,35,69,39,168,35*4F
$GPGSV,5,4,19,70,70,288,34,71,22,327,44,73,33,249,35,79,24,40,37*40
$GPGSV,5,5,19,80,68,320,40,81,7,72,30,88,6,25,*4B
$GPRMC,085148.00,A,3945.1653,N,00807.5334,W,0.000,225.812,140517,,E,A*05
$GPGGA,085149.00,3945.1653,N,00807.5334,W,1,18,0.610,316.565,M,,M,0,*59
$GPGSA,A,3,5,10,12,13,15,17,18,19,20,24,28,69,1.111,0.610,0.929*00
$GPGSV,5,1,19,5,6,172,19,10,13,320,38,12,36,199,44,13,50,107,47*76
$GPGSV,5,2,19,15,87,345,50,17,20,79,46,18,30,299,42,19,18,105,42*4F
$GPGSV,5,3,19,20,34,210,42,24,56,289,48,28,14,39,36,69,39,168,35*41
$GPGSV,5,4,19,70,70,288,34,71,22,327,46,73,33,249,34,79,24,40,38*4C
$GPGSV,5,5,19,80,68,320,41,81,7,72,33,88,6,25,*49
$GPRMC,085149.00,A,3945.1653,N,00807.5334,W,0.000,225.812,140517,,E,A*04
$GPGGA,085150.00,3945.1653,N,00807.5334,W,1,18,0.610,316.565,M,,M,0,*51
$GPGSA,A,3,5,10,12,13,15,17,18,19,20,24,28,69,1.111,0.610,0.929*00
$GPGSV,5,1,19,5,6,172,20,10,13,320,38,12,36,199,44,13,50,107,47*7C
$GPGSV,5,2,19,15,87,345,51,17,20,79,47,18,30,299,41,19,18,105,42*4C
$GPGSV,5,3,19,20,34,210,42,24,56,289,48,28,14,39,37,69,39,168,35*40
$GPGSV,5,4,19,70,70,288,35,71,22,327,46,73,33,249,34,79,24,40,38*4D
$GPGSV,5,5,19,80,68,320,41,81,7,72,34,88,6,25,*4E
$GPRMC,085150.00,A,3945.1653,N,00807.5334,W,0.000,225.812,140517,,E,A*0C
$GPGGA,085151.00,3945.1653,N,00807.5334,W,1,18,0.610,316.565,M,,M,0,*50
$GPGSA,A,3,5,10,12,13,15,17,18,19,20,24,28,69,1.111,0.610,0.929*00
$GPGSV,5,1,19,5,6,172,19,10,13,320,37,12,36,199,44,13,50,107,46*78
$GPGSV,5,2,19,15,87,345,50,17,20,79,47,18,30,299,41,19,18,105,42*4D
$GPGSV,5,3,19,20,34,210,42,24,56,289,48,28,14,39,37,69,39,168,35*40
$GPGSV,5,4,19,70,70,288,35,71,22,327,46,73,33,249,33,79,24,40,38*4A
$GPGSV,5,5,19,80,68,320,42,81,7,72,33,88,6,25,*4A
$GPRMC,085151.00,A,3945.1653,N,00807.5334,W,0.000,225.812,140517,,E,A*0D
$GPGGA,085152.00,3945.1653,N,00807.5334,W,1,18,0.610,316.565,M,,M,0,*53
$GPGSA,A,3,5,10,12,13,15,17,18,19,20,24,28,69,1.111,0.610,0.929*00
$GPGSV,5,1,19,5,6,172,19,10,13,320,34,12,36,199,44,13,50,107,47*7A
$GPGSV,5,2,19,15,87,345,51,17,20,79,46,18,30,299,39,19,18,105,42*42
$GPGSV,5,3,19,20,34,210,43,24,56,289,48,28,14,39,38,69,39,168,35*4E
$GPGSV,5,4,19,70,70,288,35,71,22,327,47,73,33,249,34,79,24,40,39*4D
$GPGSV,5,5,19,80,68,320,41,81,7,72,31,88,6,25,*4B
$GPRMC,085152.00,A,3945.1653,N,00807.5334,W,0.000,225.812,140517,,E,A*0E
$GPGGA,085153.00,3945.1653,N,00807.5334,W,1,18,0.610,316.565,M,,M,0,*52
$GPGSA,A,3,5,10,12,13,15,17,18,19,20,24,28,69,1.111,0.610,0.929*00
$GPGSV,5,1,19,5,6,172,20,10,13,320,34,12,36,199,43,13,50,107,46*76
$GPGSV,5,2,19,15,87,345,50,17,20,79,46,18,30,299,40,19,18,105,43*4C
$GPGSV,5,3,19,20,34,210,43,24,56,289,48,28,14,39,37,69,39,168,34*40
$GPGSV,5,4,19,70,70,288,34,71,22,327,47,73,33,249,34,79,24,40,38*4D
$GPGSV,5,5,19,80,68,320,41,81,7,72,31,88,6,25,*4B
$GPRMC,085153.00,A,3945.1653,N,00807.5334,W,0.000,225.812,140517,,E,A*0F
$GPGGA,085154.00,3945.1653,N,00807.5334,W,1,18,0.610,316.565,M,,M,0,*55
$GPGSA,A,3,5,10,12,13,15,17,18,19,20,24,28,69,1.111,0.610,0.929*00
$GPGSV,5,1,19,5,6,172,19,10,13,320,35,12,36,199,43,13,50,107,46*7D
$GPGSV,5,2,19,15,87,345,51,17,20,79,47,18,30,299,41,19,18,105,43*4D
$GPGSV,5,3,19,20,34,210,43,24,56,289,48,28,14,39,38,69,39,168,34*4F
$GPGSV,5,4,19,70,70,288,34,71,22,327,47,73,33,249,37,79,24,40,38*4E
$GPGSV,5,5,19,80,68,320,41,81,7,72,31,88,6,25,*4B
$GPRMC,085154.00,A,3945.1653,N,00807.5334,W,0.000,225.812,140517,,E,A*08
$GPGGA,085155.00,3945.1653,N,00807.5334,W,1,18,0.610,316.565,M,,M,0,*54
$GPGSA,A,3,5,10,12,13,15,17,18,19,20,24,28,69,1.111,0.610,0.929*00
$GPGSV,5,1,19,5,6,172,18,10,13,320,31,12,36,199,45,13,50,107,46*7E
$GPGSV,5,2,19,15,87,345,52,17,20,79,46,18,30,299,41,19,18,105,43*4F
$GPGSV,5,3,19,20,34,210,42,24,56,289,48,28,14,39,39,69,39,168,35*4E
$GPGSV,5,4,19,70,70,288,34,71,22,327,46,73,33,249,38,79,24,40,39*41
$GPGSV,5,5,19,80,68,320,41,81,7,72,30,88,6,25,*4A
$GPRMC,085155.00,A,3945.1653,N,00807.5334,W,0.000,225.812,140517,,E,A*09
$GPGGA,085156.00,3945.1653,N,00807.5334,W,1,17,0.671,316.565,M,,M,0,*5F
$GPGSA,A,3,10,12,13,15,17,18,19,20,24,28,69,70,1.259,0.671,1.066*39
$GPGSV,5,1,19,5,6,172,12,10,13,320,33,12,36,199,45,13,50,107,46*76
$GPGSV,5,2,19,15,87,345,52,17,20,79,46,18,30,299,40,19,18,105,42*4F
$GPGSV,5,3,19,20,34,210,43,24,56,289,48,28,14,39,38,69,39,168,35*4E
$GPGSV,5,4,19,70,70,288,34,71,22,327,46,73,33,249,36,79,24,40,38*4E
$GPGSV,5,5,19,80,68,320,40,81,8,72,31,88,6,25,*45
$GPRMC,085156.00,A,3945.1653,N,00807.5334,W,0.000,225.812,140517,,E,A*0A
$GPGGA,085157.00,3945.1653,N,00807.5334,W,1,17,0.671,316.565,M,,M,0,*5E
$GPGSA,A,3,10,12,13,15,17,18,19,20,24,28,69,70,1.260,0.671,1.066*33
$GPGSV,5,1,19,5,6,172,12,10,13,320,31,12,36,199,45,13,50,107,47*75
$GPGSV,5,2,19,15,87,345,51,17,20,79,46,18,30,299,41,19,18,105,42*4D
$GPGSV,5,3,19,20,34,210,43,24,56,289,48,28,14,39,38,69,39,168,35*4E
$GPGSV,5,4,19,70,70,288,35,71,22,327,46,73,33,249,35,79,24,40,38*4C
$GPGSV,5,5,19,80,68,321,40,81,8,72,32,88,6,25,*47
$GPRMC,085157.00,A,3945.1653,N,00807.5334,W,0.000,225.812,140517,,E,A*0B
$GPGGA,085158.00,3945.1653,N,00807.5334,W,1,18,0.610,316.565,M,,M,0,*59
$GPGSA,A,3,5,10,12,13,15,17,18,19,20,24,28,69,1.111,0.610,0.929*00
$GPGSV,5,1,19,5,6,172,14,10,13,320,36,12,36,199,43,13,50,107,46*73
$GPGSV,5,2,19,15,87,346,51,17,20,79,46,18,30,299,39,19,18,105,42*41
$GPGSV,5,3,19,20,34,210,43,24,56,289,48,28,14,39,37,69,39,168,34*40
$GPGSV,5,4,19,70,70,288,34,71,22,327,46,73,33,249,35,79,24,40,38*4D
$GPGSV,5,5,19,80,68,321,41,81,8,72,33,88,6,25,*47
$GPRMC,085158.00,A,3945.1653,N,00807.5334,W,0.000,225.812,140517,,E,A*04
$GPGGA,085159.00,3945.1653,N,00807.5334,W,1,18,0.610,316.565,M,,M,0,*58
$GPGSA,A,3,5,10,12,13,15,17,18,19,20,24,28,69,1.111,0.610,0.929*00
$GPGSV,5,1,19,5,6,172,15,10,13,320,36,12,36,199,44,13,50,107,47*74
$GPGSV,5,2,19,15,87,346,51,17,20,79,45,18,30,299,39,19,18,104,42*43
$GPGSV,5,3,19,20,34,210,43,24,56,289,47,28,14,39,37,69,39,168,36*4D
$GPGSV,5,4,19,70,70,288,33,71,22,327,46,73,33,249,35,79,24,40,38*4A
$GPGSV,5,5,19,80,68,321,42,81,8,72,33,88,6,25,*44
$GPRMC,085159.00,A,3945.1653,N,00807.5334,W,0.000,225.812,140517,,E,A*05
$GPGGA,085200.00,3945.1653,N,00807.5334,W,1,18,0.610,316.565,M,,M,0,*57
$GPGSA,A,3,5,10,12,13,15,17,18,19,20,24,28,69,1.111,0.610,0.929*00
$GPGSV,5,1,19,5,6,172,18,10,13,320,38,12,36,199,43,13,50,107,47*70
$GPGSV,5,2,19,15,87,346,51,17,20,79,44,18,30,299,40,19,18,104,42*4C
$GPGSV,5,3,19,20,34,210,45,24,56,289,49,28,14,39,34,69,39,168,35*45
$GPGSV,5,4,19,70,70,288,31,71,22,327,46,73,33,249,39,79,24,40,37*4B
$GPGSV,5,5,19,80,68,321,43,81,8,72,33,88,6,25,*45
$GPRMC,085200.00,A,3945.1653,N,00807.5334,W,0.000,225.812,140517,,E,A*0A
$GPGGA,085201.00,3945.1650,N,00807.5338,W,1,18,0.610,316.554,M,,M,0,*5B
$GPGSA,A,3,5,10,12,13,15,17,18,19,20,24,28,69,1.111,0.610,0.929*00
$GPGSV,5,1,19,5,6,172,20,10,13,320,39,12,36,199,42,13,50,107,47*7B
$GPGSV,5,2,19,15,87,346,51,17,20,79,43,18,30,299,43,19,18,104,40*4A
$GPGSV,5,3,19,20,34,210,46,24,56,289,49,28,14,39,35,69,39,168,35*47
$GPGSV,5,4,19,70,70,288,35,71,22,327,45,73,33,249,37,79,24,40,36*43
$GPGSV,5,5,19,80,68,321,43,81,8,72,34,88,6,25,*42
$GPRMC,085201.00,A,3945.1650,N,00807.5338,W,2.775,225.812,140517,,E,A*03
$GPGGA,085202.00,3945.1643,N,00807.5349,W,1,18,0.610,316.638,M,,M,0,*55
$GPGSA,A,3,5,10,12,13,15,17,18,19,20,24,28,69,1.111,0.610,0.929*00
$GPGSV,5,1,19,5,6,172,21,10,13,320,40,12,36,199,44,13,50,107,47*72
$GPGSV,5,2,19,15,87,346,51,17,20,79,44,18,30,299,44,19,18,104,38*45
$GPGSV,5,3,19,20,34,210,42,24,56,289,47,28,14,39,37,69,39,168,37*4D
$GPGSV,5,4,19,70,70,288,38,71,22,327,42,73,33,249,37,79,24,40,39*46
$GPGSV,5,5,19,80,68,321,43,81,8,72,32,88,6,25,*44
$GPRMC,085202.00,A,3945.1643,N,00807.5349,W,4.360,239.112,140517,,E,A*06
$GPGGA,085203.00,3945.1637,N,00807.5366,W,1,18,0.610,316.726,M,,M,0,*54
$GPGSA,A,3,5,10,12,13,15,17,18,19,20,24,28,69,1.111,0.610,0.929*00
$GPGSV,5,1,19,5,6,172,22,10,13,320,37,12,36,199,38,13,50,107,48*75
$GPGSV,5,2,19,15,87,346,50,17,20,79,41,18,30,299,38,19,18,104,35*47
$GPGSV,5,3,19,20,34,210,38,24,56,289,44,28,14,39,33,69,39,168,32*42
$GPGSV,5,4,19,70,70,288,39,71,22,327,41,73,33,249,40,79,24,40,37*4A
$GPGSV,5,5,19,80,68,321,41,81,8,72,32,88,6,24,*47
$GPRMC,085203.00,A,3945.1637,N,00807.5366,W,5.442,248.585,140517,,E,A*03
$GPGGA,085204.00,3945.1632,N,00807.5386,W,1,18,0.610,316.777,M,,M,0,*5C
$GPGSA,A,3,5,10,12,13,15,17,18,19,20,24,28,69,1.112,0.610,0.929*03
$GPGSV,5,1,19,5,6,172,23,10,13,320,36,12,36,199,40,13,50,107,49*7B
$GPGSV,5,2,19,15,87,346,50,17,20,79,40,18,30,299,35,19,18,104,37*49
$GPGSV,5,3,19,20,34,210,38,24,56,289,49,28,14,39,30,69,39,168,29*46
$GPGSV,5,4,19,70,70,288,35,71,22,327,39,73,33,249,38,79,24,40,35*44
$GPGSV,5,5,19,80,68,321,40,81,8,72,33,88,6,24,*47
$GPRMC,085204.00,A,3945.1632,N,00807.5386,W,5.269,256.900,140517,,E,A*0E
$GPGGA,085205.00,3945.1627,N,00807.5404,W,1,18,0.610,316.862,M,,M,0,*5F
$GPGSA,A,3,5,10,12,13,15,17,18,19,20,24,28,69,1.112,0.610,0.929*03
$GPGSV,5,1,19,5,6,172,23,10,13,320,36,12,36,199,35,13,50,107,48*78
$GPGSV,5,2,19,15,87,346,53,17,20,79,40,18,30,299,40,19,18,104,38*47
$GPGSV,5,3,19,20,34,210,35,24,56,289,50,28,14,39,32,69,39,168,28*40
$GPGSV,5,4,19,70,70,288,39,71,22,327,42,73,33,249,43,79,24,40,37*4A
$GPGSV,5,5,19,80,68,321,40,81,8,72,33,88,6,24,*47
$GPRMC,085205.00,A,3945.1627,N,00807.5404,W,4.343,257.189,140517,,E,A*06
$GPGGA,085206.00,3945.1623,N,00807.5421,W,1,18,0.610,316.987,M,,M,0,*55
$GPGSA,A,3,5,10,12,13,15,17,18,19,20,24,28,69,1.112,0.610,0.929*03
$GPGSV,5,1,19,5,6,172,18,10,13,320,39,12,36,199,34,13,50,108,47*7E
$GPGSV,5,2,19,15,87,346,54,17,20,79,41,18,30,299,40,19,18,104,39*40
$GPGSV,5,3,19,20,34,210,35,24,56,289,50,28,14,39,33,69,39,168,32*4A
$GPGSV,5,4,19,70,70,288,41,71,22,327,41,73,33,249,44,79,24,40,40*41
$GPGSV,5,5,19,80,68,321,42,81,8,72,35,88,6,24,*43
$GPRMC,085206.00,A,3945.1623,N,00807.5421,W,4.286,254.363,140517,,E,A*0B
$GPGGA,085207.00,3945.1618,N,00807.5438,W,1,18,0.610,316.978,M,,M,0,*54
$GPGSA,A,3,5,10,12,13,15,17,18,19,20,24,28,69,1.112,0.610,0.929*03
$GPGSV,5,1,19,5,6,172,20,10,13,320,39,12,36,199,36,13,50,108,47*77
$GPGSV,5,2,19,15,87,346,54,17,20,79,42,18,30,299,40,19,18,104,40*4D
$GPGSV,5,3,19,20,34,210,35,24,56,289,50,28,14,39,33,69,39,168,30*48
$GPGSV,5,4,19,70,70,288,41,71,22,327,41,73,33,249,43,79,24,40,40*46
$GPGSV,5,5,19,80,68,321,42,81,8,72,35,88,6,24,*43
$GPRMC,085207.00,A,3945.1618,N,00807.5438,W,4.813,249.499,140517,,E,A*02
$GPGGA,085208.00,3945.1614,N,00807.5455,W,1,18,0.610,317.121,M,,M,0,*59
$GPGSA,A,3,5,10,12,13,15,17,18,19,20,24,28,69,1.112,0.610,0.930*0B
$GPGSV,5,1,19,5,6,172,23,10,13,320,38,12,36,199,34,13,50,108,45*75
$GPGSV,5,2,19,15,87,346,54,17,20,79,42,18,30,298,38,19,18,104,41*42
$GPGSV,5,3,19,20,34,210,34,24,56,289,50,28,14,39,31,69,39,168,31*4A
$GPGSV,5,4,19,70,70,288,42,71,22,327,40,73,33,249,44,79,24,40,41*42
$GPGSV,5,5,19,80,68,321,43,81,8,72,34,88,6,24,*43
$GPRMC,085208.00,A,3945.1614,N,00807.5455,W,4.611,254.445,140517,,E,A*0B
$GPGGA,085209.00,3945.1610,N,00807.5471,W,1,18,0.610,317.237,M,,M,0,*5E
$GPGSA,A,3,5,10,12,13,15,17,18,19,20,24,28,69,1.112,0.610,0.930*0B
$GPGSV,5,1,19,5,6,172,23,10,13,320,36,12,36,199,39,13,50,108,42*71
$GPGSV,5,2,19,15,87,346,54,17,20,79,42,18,30,298,38,19,18,104,41*42
$GPGSV,5,3,19,20,34,210,32,24,56,289,50,28,14,39,31,69,39,168,36*4B
$GPGSV,5,4,19,70,70,288,43,71,22,327,40,73,33,249,44,79,24,40,40*42
$GPGSV,5,5,19,80,68,321,41,81,8,72,32,88,6,24,*47
$GPRMC,085209.00,A,3945.1610,N,00807.5471,W,4.644,253.881,140517,,E,A*0B
$GPGGA,085210.00,3945.1608,N,00807.5487,W,1,18,0.610,317.570,M,,M,0,*52
$GPGSA,A,3,5,10,12,13,15,17,18,19,20,24,28,69,1.112,0.610,0.930*0B
$GPGSV,5,1,19,5,6,172,21,10,13,320,36,12,36,199,41,13,50,108,43*7D
$GPGSV,5,2,19,15,87,346,54,17,20,79,40,18,30,298,39,19,18,104,41*41
$GPGSV,5,3,19,20,34,210,34,24,56,289,50,28,14,39,33,69,39,168,39*40
$GPGSV,5,4,19,70,70,288,43,71,22,327,38,73,33,249,44,79,24,40,41*4C
$GPGSV,5,5,19,80,68,321,41,81,8,72,37,88,6,24,*42
$GPRMC,085210.00,A,3945.1608,N,00807.5487,W,4.629,257.792,140517,,E,A*01
$GPGGA,085211.00,3945.1607,N,00807.5502,W,1,18,0.610,318.188,M,,M,0,*5C
$GPGSA,A,3,5,10,12,13,15,17,18,19,20,24,28,69,1.112,0.610,0.930*0B
$GPGSV,5,1,19,5,6,172,21,10,13,320,37,12,36,199,41,13,50,108,47*78
$GPGSV,5,2,19,15,87,346,55,17,20,79,41,18,30,298,36,19,18,104,39*41
$GPGSV,5,3,19,20,34,210,35,24,56,289,49,28,14,39,33,69,39,168,39*49
$GPGSV,5,4,19,70,70,288,43,71,22,327,40,73,33,249,45,79,24,40,39*4D
$GPGSV,5,5,19,80,68,321,42,81,8,72,36,88,6,24,*40
$GPRMC,085211.00,A,3945.1607,N,00807.5502,W,4.278,262.443,140517,,E,A*0A
$GPGGA,085212.00,3945.1606,N,00807.5517,W,1,18,0.610,318.191,M,,M,0,*52
$GPGSA,A,3,5,10,12,13,15,17,18,19,20,24,28,69,1.112,0.610,0.930*0B
$GPGSV,5,1,19,5,6,172,18,10,13,320,35,12,36,199,39,13,50,108,48*70
$GPGSV,5,2,19,15,87,347,56,17,20,79,41,18,30,298,35,19,18,104,39*40
$GPGSV,5,3,19,20,34,210,35,24,56,289,49,28,14,39,32,69,39,168,39*48
$GPGSV,5,4,19,70,70,288,41,71,22,327,40,73,33,249,45,79,24,40,41*40
$GPGSV,5,5,19,80,68,321,43,81,8,72,32,88,6,24,*45
$GPRMC,085212.00,A,3945.1606,N,00807.5517,W,4.245,258.013,140517,,E,A*0A
$GPGGA,085213.00,3945.1605,N,00807.5532,W,1,18,0.610,319.028,M,,M,0,*55
$GPGSA,A,3,5,10,12,13,15,17,18,19,20,24,28,69,1.112,0.610,0.930*0B
$GPGSV,5,1,19,5,5,172,19,10,13,320,34,12,36,199,38,13,50,108,48*72
$GPGSV,5,2,19,15,87,347,55,17,20,79,42,18,30,298,36,19,18,104,41*4C
$GPGSV,5,3,19,20,34,210,34,24,56,289,50,28,14,39,32,69,39,168,38*40
$GPGSV,5,4,19,70,70,288,40,71,22,327,38,73,33,249,44,79,24,40,40*4E
$GPGSV,5,5,19,80,68,321,44,81,8,72,32,88,6,24,*42
$GPRMC,085213.00,A,3945.1605,N,00807.5532,W,4.209,256.778,140517,,E,A*03
$GPGGA,085214.00,3945.1603,N,00807.5547,W,1,18,0.610,319.379,M,,M,0,*51
$GPGSA,A,3,5,10,12,13,15,17,18,19,20,24,28,69,1.112,0.610,0.930*0B
$GPGSV,5,1,19,5,5,172,18,10,13,320,36,12,36,199,39,13,50,108,48*70
$GPGSV,5,2,19,15,87,347,55,17,20,79,42,18,30,298,40,19,18,104,42*4E
$GPGSV,5,3,19,20,34,210,35,24,56,289,50,28,14,39,33,69,39,168,38*40
$GPGSV,5,4,19,70,70,288,40,71,22,327,38,73,33,249,44,79,24,40,39*40
$GPGSV,5,5,19,80,68,321,44,81,8,72,32,88,6,24,*42
$GPRMC,085214.00,A,3945.1603,N,00807.5547,W,4.218,257.663,140517,,E,A*0A
$GPGGA,085215.00,3945.1600,N,00807.5563,W,1,18,0.610,319.164,M,,M,0,*5B
$GPGSA,A,3,5,10,12,13,15,17,18,19,20,24,28,69,1.112,0.610,0.930*0B
$GPGSV,5,1,19,5,5,172,18,10,13,320,38,12,36,199,39,13,50,108,48*7E
$GPGSV,5,2,19,15,87,347,55,17,20,79,41,18,30,298,40,19,18,104,41*4E
$GPGSV,5,3,19,20,34,210,35,24,56,289,50,28,14,39,31,69,39,168,38*42
$GPGSV,5,4,19,70,70,288,40,71,22,327,41,73,33,249,44,79,24,40,37*40
$GPGSV,5,5,19,80,68,321,44,81,8,72,33,88,6,24,*43
$GPRMC,085215.00,A,3945.1600,N,00807.5563,W,4.545,257.357,140517,,E,A*03
$GPGGA,085216.00,3945.1596,N,00807.5579,W,1,18,0.610,319.213,M,,M,0,*5C
$GPGSA,A,3,5,10,12,13,15,17,18,19,20,24,28,69,1.112,0.610,0.930*0B
$GPGSV,5,1,19,5,5,172,17,10,13,320,38,12,36,199,38,13,50,108,48*70
$GPGSV,5,2,19,15,87,347,56,17,20,79,42,18,30,298,38,19,18,104,39*4E
$GPGSV,5,3,19,20,34,210,34,24,56,289,49,28,14,39,31,69,39,168,38*4B
$GPGSV,5,4,19,70,70,288,40,71,22,327,41,73,33,249,43,79,24,40,40*47
$GPGSV,5,5,19,80,68,321,44,81,8,72,31,88,6,24,*41
$GPRMC,085216.00,A,3945.1596,N,00807.5579,W,4.491,257.237,140517,,E,A*08
$GPGGA,085217.00,3945.1593,N,00807.5594,W,1,18,0.610,319.542,M,,M,0,*58
$GPGSA,A,3,5,10,12,13,15,17,18,19,20,24,28,69,1.112,0.610,0.930*0B
$GPGSV,5,1,19,5,5,172,15,10,13,320,36,12,36,199,36,13,50,108,48*72
$GPGSV,5,2,19,15,87,347,55,17,20,79,41,18,30,298,38,19,18,104,37*40
$GPGSV,5,3,19,20,34,210,32,24,56,289,49,28,14,39,32,69,39,168,38*4E
$GPGSV,5,4,19,70,70,288,40,71,22,327,40,73,33,249,45,79,24,40,41*41
$GPGSV,5,5,19,80,68,321,44,81,8,72,29,88,6,24,*48
$GPRMC,085217.00,A,3945.1593,N,00807.5594,W,4.411,255.452,140517,,E,A*00
$GPGGA,085218.00,3945.1589,N,00807.5609,W,1,18,0.610,319.922,M,,M,0,*51
$GPGSA,A,3,5,10,12,13,15,17,18,19,20,24,28,69,1.112,0.610,0.930*0B
$GPGSV,5,1,19,5,5,172,14,10,13,320,36,12,36,199,35,13,50,108,47*7F
$GPGSV,5,2,19,15,87,347,56,17,20,79,41,18,30,298,40,19,18,104,39*42
