$GPGGA,103054.89,3945.1613,N,00807.5349,W,1,9,1.080,323.948,M,,M,0,*6F
$GPGSA,A,3,10,12,15,17,18,24,25,70,71,,,,1.796,1.080,1.435*38
$GPGSV,5,1,20,10,25,279,40,12,84,260,51,13,11,139,,14,,317,*77
$GPGSV,5,2,20,15,44,159,48,17,13,38,37,18,23,251,39,19,26,56,35*7F
$GPGSV,5,3,20,24,69,40,39,25,38,234,44,32,19,315,38,70,32,202,38*4B
$GPGSV,5,4,20,71,52,273,45,72,20,327,31,73,57,325,33,74,15,270,*7F
$GPGSV,5,5,20,80,38,45,,81,10,25,,82,28,72,,83,16,128,*44
$GPRMC,103054.89,A,3945.1613,N,00807.5349,W,0.552,0.000,140517,,E,A*05
$GPGGA,103056.00,3945.1613,N,00807.5349,W,1,9,1.030,324.021,M,,M,0,*66
$GPGSA,A,3,10,12,15,17,18,25,70,71,73,,,,1.880,1.030,1.573*3A
$GPGSV,5,1,20,10,25,279,40,12,84,260,52,13,11,139,,14,,317,*74
$GPGSV,5,2,20,15,44,159,49,17,13,38,40,18,23,251,39,19,26,56,34*7F
$GPGSV,5,3,20,24,69,41,35,25,38,234,43,32,19,315,39,70,32,202,38*40
$GPGSV,5,4,20,71,52,273,47,72,20,327,25,73,57,325,35,74,15,270,*7E
$GPGSV,5,5,20,80,38,45,,81,10,25,,82,28,72,,83,16,128,*44
$GPRMC,103056.00,A,3945.1613,N,00807.5349,W,0.412,0.000,140517,,E,A*03
$GPGGA,103057.00,3945.1613,N,00807.5349,W,1,11,0.937,324.021,M,,M,0,*51
$GPGSA,A,3,10,12,15,17,18,19,24,25,70,71,73,,1.607,0.937,1.306*3E
$GPGSV,5,1,20,10,25,279,39,12,84,260,53,13,11,139,,14,,317,*7B
$GPGSV,5,2,20,15,44,159,47,17,13,38,38,18,23,251,38,19,26,56,35*7E
$GPGSV,5,3,20,24,69,41,32,25,38,234,43,32,19,315,36,70,32,202,36*46
$GPGSV,5,4,20,71,52,273,47,72,20,327,23,73,57,325,33,74,15,270,*7E
$GPGSV,5,5,20,80,38,45,,81,10,25,,82,28,72,,83,16,128,*44
$GPRMC,103057.00,A,3945.1613,N,00807.5349,W,0.000,0.000,140517,,E,A*05
$GPGGA,103058.00,3945.1613,N,00807.5349,W,1,12,0.847,324.021,M,,M,0,*5B
$GPGSA,A,3,10,12,15,17,18,19,24,25,70,71,72,73,1.526,0.847,1.269*35
$GPGSV,5,1,20,10,25,279,36,12,84,260,53,13,11,139,,14,,317,*74
$GPGSV,5,2,20,15,44,159,46,17,13,38,38,18,23,251,39,19,26,56,35*7E
$GPGSV,5,3,20,24,69,41,27,25,38,234,43,32,19,315,35,70,32,202,36*41
$GPGSV,5,4,20,71,52,273,47,72,20,327,25,73,57,325,30,74,15,270,*7B
$GPGSV,5,5,20,80,38,45,,81,10,25,,82,28,72,,83,16,128,*44
$GPRMC,103058.00,A,3945.1613,N,00807.5349,W,0.000,0.000,140517,,E,A*0A
$GPGGA,103059.00,3945.1613,N,00807.5349,W,1,11,0.937,324.021,M,,M,0,*5F
$GPGSA,A,3,10,12,15,17,18,19,24,25,70,71,73,,1.607,0.937,1.306*3E
$GPGSV,5,1,20,10,25,279,34,12,84,260,52,13,11,139,,14,,317,*77
$GPGSV,5,2,20,15,44,159,47,17,13,38,40,18,23,251,41,19,26,56,37*7D
$GPGSV,5,3,20,24,69,41,22,25,38,234,42,32,19,315,34,70,32,202,36*44
$GPGSV,5,4,20,71,52,273,46,72,20,327,24,73,57,325,30,74,15,270,*7B
$GPGSV,5,5,20,80,38,45,,81,10,24,,82,28,72,,83,16,128,*45
$GPRMC,103059.00,A,3945.1613,N,00807.5349,W,0.000,0.000,140517,,E,A*0B
$GPGGA,103100.00,3945.1613,N,00807.5349,W,1,11,0.937,324.021,M,,M,0,*52
$GPGSA,A,3,10,12,15,17,18,19,24,25,70,71,73,,1.607,0.937,1.305*3D
$GPGSV,5,1,20,10,25,279,33,12,84,261,52,13,11,139,,14,,317,*71
$GPGSV,5,2,20,15,44,159,48,17,13,38,40,18,23,251,41,19,26,56,37*72
$GPGSV,5,3,20,24,69,41,30,25,38,234,42,32,19,315,33,70,32,202,36*40
$GPGSV,5,4,20,71,52,273,45,72,20,327,23,73,57,325,30,74,15,270,*7F
$GPGSV,5,5,20,80,38,45,,81,10,24,,82,28,72,,83,16,128,*45
$GPRMC,103100.00,A,3945.1613,N,00807.5349,W,0.000,0.000,140517,,E,A*06
$GPGGA,103101.00,3945.1613,N,00807.5349,W,1,11,0.937,324.021,M,,M,0,*53
$GPGSA,A,3,10,12,15,17,18,19,24,25,70,71,73,,1.607,0.937,1.305*3D
$GPGSV,5,1,20,10,25,279,35,12,84,261,53,13,11,139,12,14,,317,*75
$GPGSV,5,2,20,15,43,159,48,17,13,38,41,18,23,251,40,19,26,56,37*75
$GPGSV,5,3,20,24,69,41,31,25,38,234,44,32,19,315,33,70,32,202,38*49
$GPGSV,5,4,20,71,52,273,46,72,20,327,18,73,57,325,30,74,15,270,*74
$GPGSV,5,5,20,80,38,45,,81,10,24,,82,28,72,,83,16,128,*45
$GPRMC,103101.00,A,3945.1613,N,00807.5349,W,0.000,0.000,140517,,E,A*07
$GPGGA,103102.00,3945.1613,N,00807.5349,W,1,12,0.804,324.021,M,,M,0,*52
$GPGSA,A,3,10,12,13,15,17,18,19,24,25,70,71,73,1.434,0.804,1.188*3B
$GPGSV,5,1,20,10,25,279,33,12,84,261,53,13,11,139,21,14,,317,*73
$GPGSV,5,2,20,15,43,159,48,17,13,38,38,18,23,251,42,19,26,56,36*78
$GPGSV,5,3,20,24,69,41,30,25,38,234,43,32,19,315,32,70,32,202,38*4E
$GPGSV,5,4,20,71,52,273,46,72,20,327,19,73,57,326,31,74,15,270,*77
$GPGSV,5,5,20,80,38,45,,81,10,24,,82,28,72,,83,16,128,*45
$GPRMC,103102.00,A,3945.1613,N,00807.5349,W,0.000,0.000,140517,,E,A*04
$GPGGA,103103.00,3945.1613,N,00807.5349,W,1,12,0.804,324.021,M,,M,0,*53
$GPGSA,A,3,10,12,13,15,17,18,19,24,25,70,71,73,1.434,0.804,1.188*3B
$GPGSV,6,1,21,4,5,,,10,25,279,32,12,84,261,52,13,11,139,23*42
$GPGSV,6,2,21,14,,317,,15,43,159,48,17,13,38,38,18,23,251,42*40
$GPGSV,6,3,21,19,26,56,37,24,69,41,27,25,38,234,42,32,19,315,33*7C
$GPGSV,6,4,21,70,32,202,37,71,52,273,46,72,20,327,18,73,57,326,31*74
$GPGSV,6,5,21,74,15,270,,80,38,45,,81,10,24,,82,28,72,*42
$GPGSV,6,6,21,83,16,128,*4D
$GPRMC,103103.00,A,3945.1613,N,00807.5349,W,0.000,0.000,140517,,E,A*05
$GPGGA,103104.00,3945.1613,N,00807.5349,W,1,12,0.804,324.021,M,,M,0,*54
$GPGSA,A,3,10,12,13,15,17,18,19,24,25,70,71,73,1.434,0.804,1.188*3B
$GPGSV,6,1,21,4,5,,,10,25,279,29,12,84,261,52,13,11,139,22*49
$GPGSV,6,2,21,14,,317,,15,43,159,48,17,13,38,38,18,23,251,42*40
$GPGSV,6,3,21,19,26,56,36,24,69,41,29,25,38,234,42,32,19,315,32*72
$GPGSV,6,4,21,70,32,202,38,71,52,273,45,72,20,327,18,73,57,326,28*70
$GPGSV,6,5,21,74,15,270,,80,38,45,,81,10,24,,82,28,72,*42
$GPGSV,6,6,21,83,16,128,*4D
$GPRMC,103104.00,A,3945.1613,N,00807.5349,W,0.000,0.000,140517,,E,A*02
$GPGGA,103105.00,3945.1613,N,00807.5349,W,1,12,0.804,324.021,M,,M,0,*55
$GPGSA,A,3,10,12,13,15,17,18,19,24,25,70,71,73,1.434,0.804,1.187*34
$GPGSV,6,1,21,4,5,,,10,25,279,28,12,84,261,52,13,11,139,22*48
$GPGSV,6,2,21,14,,317,,15,43,159,48,17,13,38,38,18,23,251,43*41
$GPGSV,6,3,21,19,26,56,36,24,69,41,28,25,38,234,43,32,19,315,33*73
$GPGSV,6,4,21,70,32,202,37,71,52,273,45,72,20,327,18,73,57,326,28*7F
$GPGSV,6,5,21,74,15,270,39,80,38,45,,81,10,24,42,82,28,72,*4E
$GPGSV,6,6,21,83,16,128,*4D
$GPRMC,103105.00,A,3945.1613,N,00807.5349,W,0.000,0.000,140517,,E,A*03
$GPGGA,103106.00,3945.1613,N,00807.5349,W,1,14,0.712,324.021,M,,M,0,*58
$GPGSA,A,3,10,12,13,15,17,18,19,24,25,70,71,73,1.238,0.712,1.013*3A
$GPGSV,6,1,21,4,5,,,10,25,279,25,12,84,261,52,13,11,139,25*42
$GPGSV,6,2,21,14,,317,,15,43,159,48,17,13,38,35,18,23,251,44*4B
$GPGSV,6,3,21,19,26,56,34,24,69,41,25,25,38,234,43,32,19,315,31*7E
$GPGSV,6,4,21,70,32,202,38,71,52,273,46,72,20,327,15,73,57,326,28*7E
$GPGSV,6,5,21,74,15,270,38,80,38,45,,81,10,24,44,82,28,72,*49
$GPGSV,6,6,21,83,16,128,*4D
$GPRMC,103106.00,A,3945.1613,N,00807.5349,W,0.000,0.000,140517,,E,A*00
$GPGGA,103107.00,3945.1613,N,00807.5349,W,1,14,0.712,324.021,M,,M,0,*59
$GPGSA,A,3,10,12,13,15,17,18,19,24,25,70,71,73,1.238,0.712,1.013*3A
$GPGSV,6,1,21,4,5,,,10,25,279,25,12,84,261,52,13,11,139,24*43
$GPGSV,6,2,21,14,,317,,15,43,159,48,17,13,38,36,18,23,251,43*4F
$GPGSV,6,3,21,19,26,56,35,24,69,41,24,25,38,234,42,32,19,315,34*7A
$GPGSV,6,4,21,70,32,202,38,71,52,273,46,72,20,327,17,73,57,326,28*7C
$GPGSV,6,5,21,74,15,270,37,80,38,45,,81,10,24,44,82,28,72,*46
$GPGSV,6,6,21,83,16,128,*4D
$GPRMC,103107.00,A,3945.1613,N,00807.5349,W,0.000,0.000,140517,,E,A*01
$GPGGA,103108.00,3945.1613,N,00807.5349,W,1,14,0.712,324.021,M,,M,0,*56
$GPGSA,A,3,10,12,13,15,17,18,19,24,25,70,71,73,1.238,0.712,1.013*3A
$GPGSV,6,1,21,4,5,,31,10,25,279,31,12,85,261,51,13,11,139,21*43
$GPGSV,6,2,21,14,,317,,15,43,159,47,17,13,38,35,18,23,251,42*42
$GPGSV,6,3,21,19,26,56,36,24,69,41,29,25,38,234,42,32,19,315,32*72
$GPGSV,6,4,21,70,32,202,35,71,52,273,45,72,20,327,25,73,57,326,25*7E
$GPGSV,6,5,21,74,15,270,38,80,38,45,,81,10,24,43,82,28,72,*4E
$GPGSV,6,6,21,83,16,128,*4D
$GPRMC,103108.00,A,3945.1613,N,00807.5349,W,0.000,0.000,140517,,E,A*0E
$GPGGA,103109.00,3945.1613,N,00807.5349,W,1,14,0.712,324.021,M,,M,0,*57
$GPGSA,A,3,10,12,13,15,17,18,19,24,25,70,71,73,1.238,0.712,1.013*3A
$GPGSV,6,1,21,4,5,,31,10,25,279,31,12,85,261,51,13,11,139,22*40
$GPGSV,6,2,21,14,,317,,15,43,159,48,17,13,38,34,18,23,251,39*40
$GPGSV,6,3,21,19,26,56,35,24,69,41,32,25,38,234,42,32,19,315,31*78
$GPGSV,6,4,21,70,32,202,36,71,52,273,41,72,20,327,30,73,57,326,28*70
$GPGSV,6,5,21,74,15,270,36,80,38,45,,81,10,24,41,82,28,72,*42
$GPGSV,6,6,21,83,16,128,*4D
$GPRMC,103109.00,A,3945.1613,N,00807.5349,W,0.000,0.000,140517,,E,A*0F
$GPGGA,103110.00,3945.1613,N,00807.5349,W,1,14,0.712,324.021,M,,M,0,*5F
$GPGSA,A,3,10,12,13,15,17,18,19,24,25,70,71,73,1.238,0.712,1.013*3A
$GPGSV,6,1,21,4,5,,29,10,25,279,35,12,85,261,52,13,11,139,20*4C
$GPGSV,6,2,21,14,,317,,15,43,159,48,17,13,38,33,18,23,251,37*49
$GPGSV,6,3,21,19,26,56,35,24,69,41,33,25,38,234,41,32,19,315,30*7B
$GPGSV,6,4,21,70,32,202,36,71,52,273,42,72,20,327,30,73,57,326,32*78
$GPGSV,6,5,21,74,15,270,37,80,38,45,,81,10,24,42,82,28,72,*40
$GPGSV,6,6,21,83,16,128,*4D
$GPRMC,103110.00,A,3945.1613,N,00807.5349,W,0.000,0.000,140517,,E,A*07
$GPGGA,103111.00,3945.1613,N,00807.5349,W,1,14,0.712,324.021,M,,M,0,*5E
$GPGSA,A,3,10,12,13,15,17,18,19,24,25,70,71,73,1.238,0.712,1.013*3A
$GPGSV,6,1,21,4,5,,25,10,25,279,39,12,85,261,51,13,11,139,17*4B
$GPGSV,6,2,21,14,,317,,15,43,159,48,17,13,38,30,18,23,251,40*4A
$GPGSV,6,3,21,19,26,56,34,24,69,41,32,25,38,234,42,32,19,315,29*70
$GPGSV,6,4,21,70,32,202,37,71,52,273,43,72,20,327,29,73,57,326,32*70
$GPGSV,6,5,21,74,15,270,37,80,38,45,,81,10,24,42,82,28,72,*40
$GPGSV,6,6,21,83,16,128,*4D
$GPRMC,103111.00,A,3945.1613,N,00807.5349,W,0.000,0.000,140517,,E,A*06
$GPGGA,103112.00,3945.1613,N,00807.5349,W,1,14,0.712,324.021,M,,M,0,*5D
$GPGSA,A,3,10,12,13,15,17,18,19,24,25,70,71,73,1.238,0.712,1.013*3A
$GPGSV,6,1,21,4,5,,27,10,25,279,36,12,85,262,51,13,11,139,22*43
$GPGSV,6,2,21,14,,317,,15,43,159,48,17,13,38,33,18,23,251,38*46
$GPGSV,6,3,21,19,26,56,33,24,69,41,36,25,38,234,42,32,19,315,30*7B
$GPGSV,6,4,21,70,32,202,35,71,52,273,44,72,20,327,29,73,57,326,32*75
$GPGSV,6,5,21,74,15,270,36,80,38,45,,81,10,24,43,82,28,72,*40
$GPGSV,6,6,21,83,16,128,*4D
$GPRMC,103112.00,A,3945.1613,N,00807.5349,W,0.000,0.000,140517,,E,A*05
$GPGGA,103113.00,3945.1613,N,00807.5349,W,1,14,0.712,324.021,M,,M,0,*5C
$GPGSA,A,3,10,12,13,15,17,18,19,24,25,70,71,73,1.238,0.712,1.013*3A
$GPGSV,6,1,21,4,5,,27,10,25,279,36,12,85,262,50,13,11,139,18*4B
$GPGSV,6,2,21,14,,317,,15,43,159,48,17,13,38,35,18,23,250,38*41
$GPGSV,6,3,21,19,26,56,32,24,69,41,35,25,38,234,42,32,19,315,32*7B
$GPGSV,6,4,21,70,32,202,35,71,52,273,44,72,20,327,32,73,57,326,28*74
$GPGSV,6,5,21,74,15,270,35,80,38,45,,81,10,24,43,82,28,72,*43
$GPGSV,6,6,21,83,16,128,*4D
$GPRMC,103113.00,A,3945.1613,N,00807.5349,W,0.000,0.000,140517,,E,A*04
$GPGGA,103114.00,3945.1613,N,00807.5349,W,1,14,0.712,324.021,M,,M,0,*5B
$GPGSA,A,3,10,12,13,15,17,18,19,24,25,70,71,73,1.238,0.712,1.013*3A
$GPGSV,6,1,21,4,5,,26,10,25,279,36,12,85,262,51,13,11,139,18*4B
$GPGSV,6,2,21,14,,317,,15,43,159,48,17,13,38,36,18,23,250,39*43
$GPGSV,6,3,21,19,26,56,30,24,69,41,34,25,38,234,42,32,19,315,32*78
$GPGSV,6,4,21,70,32,202,33,71,52,273,44,72,20,327,29,73,57,326,28*78
$GPGSV,6,5,21,74,15,270,35,80,38,45,,81,10,24,43,82,28,72,*43
$GPGSV,6,6,21,83,16,128,*4D
$GPRMC,103114.00,A,3945.1613,N,00807.5349,W,0.000,0.000,140517,,E,A*03
$GPGGA,103115.00,3945.1613,N,00807.5349,W,1,14,0.712,324.021,M,,M,0,*5A
$GPGSA,A,3,10,12,13,15,17,18,19,24,25,70,71,73,1.238,0.712,1.013*3A
$GPGSV,6,1,21,4,5,,27,10,25,279,38,12,85,262,51,13,11,139,22*4D
$GPGSV,6,2,21,14,,317,,15,43,159,49,17,13,38,36,18,23,250,40*4C
$GPGSV,6,3,21,19,26,56,31,24,69,41,34,25,38,234,41,32,19,315,32*7A
$GPGSV,6,4,21,70,32,202,34,71,52,273,43,72,20,327,29,73,57,326,29*79
$GPGSV,6,5,21,74,15,270,35,80,38,45,,81,10,24,43,82,28,72,*43
$GPGSV,6,6,21,83,16,128,*4D
$GPRMC,103115.00,A,3945.1613,N,00807.5349,W,0.000,0.000,140517,,E,A*02
$GPGGA,103116.00,3945.1613,N,00807.5349,W,1,15,0.670,324.021,M,,M,0,*5D
$GPGSA,A,3,10,12,13,15,17,18,19,24,25,70,71,72,1.204,0.670,1.000*33
$GPGSV,6,1,21,4,5,,27,10,25,279,37,12,85,262,51,13,11,139,23*43
$GPGSV,6,2,21,14,,317,,15,43,159,49,17,13,38,38,18,23,250,39*4C
$GPGSV,6,3,21,19,26,56,33,24,69,41,33,25,38,234,41,32,19,315,33*7E
$GPGSV,6,4,21,70,32,202,35,71,52,273,45,72,20,327,31,73,57,326,28*76
$GPGSV,6,5,21,74,15,270,34,80,38,45,,81,10,24,44,82,28,72,*45
$GPGSV,6,6,21,83,17,128,*4C
$GPRMC,103116.00,A,3945.1613,N,00807.5349,W,0.000,0.000,140517,,E,A*01
$GPGGA,103117.00,3945.1613,N,00807.5349,W,1,15,0.670,324.021,M,,M,0,*5C
$GPGSA,A,3,10,12,13,15,17,18,19,24,25,70,71,72,1.204,0.670,1.000*33
$GPGSV,6,1,21,4,5,,26,10,25,279,36,12,85,262,51,13,11,139,20*40
$GPGSV,6,2,21,14,,317,,15,43,159,49,17,13,38,35,18,23,250,38*40
$GPGSV,6,3,21,19,26,56,32,24,69,41,35,25,38,234,42,32,19,315,30*79
$GPGSV,6,4,21,70,32,202,36,71,52,273,44,72,20,327,31,73,57,326,31*7C
$GPGSV,6,5,21,74,15,270,35,80,38,45,,81,10,24,43,82,28,72,*43
$GPGSV,6,6,21,83,17,128,*4C
$GPRMC,103117.00,A,3945.1613,N,00807.5349,W,0.000,0.000,140517,,E,A*00
$GPGGA,103118.00,3945.1613,N,00807.5349,W,1,15,0.670,324.021,M,,M,0,*53
$GPGSA,A,3,10,12,13,15,17,18,19,24,25,70,71,72,1.204,0.670,1.000*33
$GPGSV,6,1,21,4,5,,27,10,25,279,38,12,85,262,51,13,11,139,19*45
$GPGSV,6,2,21,14,,317,,15,43,159,48,17,13,38,36,18,23,250,38*42
$GPGSV,6,3,21,19,26,56,31,24,69,41,36,25,38,234,42,32,19,315,29*71
$GPGSV,6,4,21,70,32,202,37,71,52,273,43,72,20,327,31,73,57,326,30*7B
$GPGSV,6,5,21,74,15,270,35,80,38,45,,81,10,24,43,82,28,72,*43
$GPGSV,6,6,21,83,17,128,*4C
$GPRMC,103118.00,A,3945.1613,N,00807.5349,W,0.000,0.000,140517,,E,A*0F
$GPGGA,103119.00,3945.1613,N,00807.5349,W,1,15,0.670,324.021,M,,M,0,*52
$GPGSA,A,3,10,12,13,15,17,18,19,24,25,70,71,72,1.204,0.670,1.000*33
$GPGSV,6,1,21,4,5,,27,10,25,279,38,12,85,262,50,13,11,139,20*4E
$GPGSV,6,2,21,14,,317,,15,43,159,48,17,13,38,34,18,23,250,38*40
$GPGSV,6,3,21,19,26,56,32,24,69,41,38,25,38,234,42,32,19,315,29*7C
$GPGSV,6,4,21,70,32,202,36,71,52,273,41,72,20,327,32,73,57,326,34*7F
$GPGSV,6,5,21,74,15,270,37,80,38,45,,81,10,24,42,82,28,72,*40
$GPGSV,6,6,21,83,17,128,*4C
$GPRMC,103119.00,A,3945.1613,N,00807.5349,W,0.000,0.000,140517,,E,A*0E
$GPGGA,103120.00,3945.1613,N,00807.5349,W,1,15,0.670,324.021,M,,M,0,*58
$GPGSA,A,3,10,12,13,15,17,18,19,24,25,70,71,72,1.204,0.670,1.000*33
$GPGSV,6,1,21,4,5,,26,10,25,279,36,12,85,262,50,13,11,139,24*45
$GPGSV,6,2,21,14,,317,,15,43,159,48,17,13,38,30,18,23,250,38*44
$GPGSV,6,3,21,19,26,56,37,24,69,41,39,25,38,234,40,32,19,315,32*70
$GPGSV,6,4,21,70,32,202,32,71,52,273,37,72,20,327,32,73,57,326,38*76
$GPGSV,6,5,21,74,15,270,36,80,38,45,,81,10,24,35,82,28,72,*41
$GPGSV,6,6,21,83,17,128,*4C
$GPRMC,103120.00,A,3945.1613,N,00807.5349,W,0.000,0.000,140517,,E,A*04
$GPGGA,103121.00,3945.1613,N,00807.5349,W,1,15,0.670,324.021,M,,M,0,*59
$GPGSA,A,3,10,12,13,15,17,18,19,24,25,70,71,72,1.204,0.670,1.000*33
$GPGSV,6,1,21,4,5,,26,10,25,279,38,12,85,262,50,13,11,139,18*44
$GPGSV,6,2,21,14,,317,,15,43,159,51,17,13,38,30,18,23,250,35*41
$GPGSV,6,3,21,19,26,56,41,24,69,41,48,25,38,234,43,32,19,315,29*7E
$GPGSV,6,4,21,70,32,202,35,71,52,273,36,72,20,327,36,73,57,326,39*75
$GPGSV,6,5,21,74,15,271,37,80,38,45,,81,10,24,31,82,28,72,*45
$GPGSV,6,6,21,83,17,128,*4C
$GPRMC,103121.00,A,3945.1613,N,00807.5349,W,0.000,0.000,140517,,E,A*05
$GPGGA,103122.00,3945.1613,N,00807.5349,W,1,15,0.670,324.021,M,,M,0,*5A
$GPGSA,A,3,10,12,13,15,17,18,19,24,25,70,71,72,1.204,0.670,1.000*33
$GPGSV,6,1,21,4,5,,23,10,25,279,44,12,85,262,47,13,11,139,22*45
$GPGSV,6,2,21,14,,317,,15,43,159,50,17,13,38,35,18,23,250,46*41
$GPGSV,6,3,21,19,26,56,38,24,69,41,46,25,38,234,37,32,19,315,37*72
$GPGSV,6,4,21,70,32,202,35,71,52,273,40,72,20,327,37,73,57,326,39*75
$GPGSV,6,5,21,74,15,271,39,80,38,45,,81,10,24,39,82,28,72,*43
$GPGSV,6,6,21,83,17,128,*4C
$GPRMC,103122.00,A,3945.1613,N,00807.5349,W,0.000,0.000,140517,,E,A*06
$GPGGA,103123.00,3945.1613,N,00807.5358,W,1,15,0.670,323.756,M,,M,0,*5B
$GPGSA,A,3,10,12,13,15,17,18,19,24,25,70,71,72,1.204,0.670,1.000*33
$GPGSV,6,1,21,4,5,,18,10,25,279,41,12,85,262,43,13,11,139,18*45
$GPGSV,6,2,21,14,,317,,15,43,159,44,17,13,38,30,18,23,250,44*43
$GPGSV,6,3,21,19,26,56,34,24,69,41,47,25,38,234,40,32,19,315,35*7D
$GPGSV,6,4,21,70,32,202,31,71,52,273,46,72,20,327,30,73,57,326,37*7E
$GPGSV,6,5,21,74,15,271,39,80,38,45,,81,10,24,42,82,28,72,*4F
$GPGSV,6,6,21,83,17,128,*4C
$GPRMC,103123.00,A,3945.1613,N,00807.5358,W,1.895,0.000,140517,,E,A*02
$GPGGA,103124.00,3945.1613,N,00807.5366,W,1,15,0.670,323.241,M,,M,0,*52
$GPGSA,A,3,10,12,13,15,17,18,19,24,25,70,71,72,1.204,0.670,1.000*33
$GPGSV,6,1,21,4,5,,14,10,25,279,42,12,85,263,41,13,11,139,19*48
$GPGSV,6,2,21,14,,317,,15,43,159,40,17,13,38,28,18,23,250,43*49
$GPGSV,6,3,21,19,26,56,29,24,69,41,46,25,38,234,41,32,19,315,34*70
$GPGSV,6,4,21,70,32,202,27,71,52,273,45,72,20,327,29,73,57,326,36*73
$GPGSV,6,5,21,74,15,271,40,80,38,45,,81,10,24,41,82,28,72,*42
$GPGSV,6,6,21,83,17,128,*4C
$GPRMC,103124.00,A,3945.1613,N,00807.5366,W,0.000,0.000,140517,,E,A*0D
$GPGGA,103125.00,3945.1612,N,00807.5365,W,1,15,0.670,323.087,M,,M,0,*59
$GPGSA,A,3,10,12,13,15,17,18,19,24,25,70,71,72,1.204,0.670,1.000*33
$GPGSV,6,1,21,4,5,,19,10,25,279,40,12,85,263,46,13,11,139,21*4B
$GPGSV,6,2,21,14,,317,,15,43,159,43,17,13,38,36,18,23,250,41*47
$GPGSV,6,3,21,19,26,56,30,24,69,41,41,25,38,234,44,32,19,315,36*78
$GPGSV,6,4,21,70,32,202,30,71,52,273,43,72,20,327,35,73,57,326,36*7E
$GPGSV,6,5,21,74,15,271,33,80,38,45,,81,10,24,36,82,28,72,*46
$GPGSV,6,6,21,83,17,128,*4C
$GPRMC,103125.00,A,3945.1612,N,00807.5365,W,0.000,0.000,140517,,E,A*0E
$GPGGA,103126.00,3945.1612,N,00807.5365,W,1,15,0.670,323.087,M,,M,0,*5A
$GPGSA,A,3,10,12,13,15,17,18,19,24,25,70,71,72,1.204,0.670,1.000*33
$GPGSV,6,1,21,4,5,,15,10,25,279,37,12,85,263,42,13,11,139,17*46
$GPGSV,6,2,21,14,,317,,15,43,159,41,17,13,38,29,18,23,250,35*48
$GPGSV,6,3,21,19,26,56,28,24,69,41,35,25,38,234,39,32,19,315,30*7E
$GPGSV,6,4,21,70,32,202,25,71,52,273,38,72,20,327,31,73,57,326,35*71
$GPGSV,6,5,21,74,15,271,31,80,38,45,,81,10,24,29,82,28,72,*4A
$GPGSV,6,6,21,83,17,128,*4C
$GPRMC,103126.00,A,3945.1612,N,00807.5365,W,0.000,0.000,140517,,E,A*0D
$GPGGA,103127.00,3945.1612,N,00807.5365,W,1,13,0.743,323.087,M,,M,0,*5C
$GPGSA,A,3,10,12,13,15,17,18,19,24,25,71,72,73,1.287,0.743,1.052*3D
$GPGSV,6,1,21,4,5,,15,10,25,279,33,12,85,263,38,13,11,139,15*4D
$GPGSV,6,2,21,14,,317,,15,43,159,40,17,13,38,31,18,23,250,28*4C
$GPGSV,6,3,21,19,26,56,23,24,69,41,33,25,38,234,39,32,19,315,29*7B
$GPGSV,6,4,21,70,32,202,25,71,52,273,40,72,20,327,27,73,57,326,37*7B
$GPGSV,6,5,21,74,15,271,29,80,38,45,,81,10,24,19,82,28,72,*40
$GPGSV,6,6,21,83,17,128,*4C
$GPRMC,103127.00,A,3945.1612,N,00807.5365,W,0.000,0.000,140517,,E,A*0C
$GPGGA,103128.00,3945.1612,N,00807.5365,W,1,14,0.706,323.087,M,,M,0,*55
$GPGSA,A,3,10,12,13,15,17,18,19,24,25,71,72,73,1.226,0.706,1.002*32
$GPGSV,6,1,21,4,5,,12,10,25,279,42,12,85,263,36,13,11,139,18*4F
$GPGSV,6,2,21,14,,317,,15,43,159,42,17,13,38,34,18,23,250,36*44
$GPGSV,6,3,21,19,26,56,26,24,68,41,35,25,38,234,42,32,19,315,34*79
$GPGSV,6,4,21,70,32,202,31,71,52,273,43,72,20,327,31,73,57,326,30*7D
$GPGSV,6,5,21,74,15,271,29,80,38,45,,81,10,24,30,82,28,72,*4B
$GPGSV,6,6,21,83,17,128,*4C
$GPRMC,103128.00,A,3945.1612,N,00807.5365,W,0.000,0.000,140517,,E,A*03
$GPGGA,103129.00,3945.1612,N,00807.5365,W,1,14,0.706,323.087,M,,M,0,*54
$GPGSA,A,3,10,12,13,15,17,18,19,24,25,71,72,73,1.226,0.706,1.002*32
$GPGSV,6,1,21,4,5,,12,10,25,279,40,12,85,263,38,13,11,139,17*4C
$GPGSV,6,2,21,14,,317,,15,43,159,37,17,13,38,37,18,23,250,37*44
$GPGSV,6,3,21,19,26,56,25,24,68,41,35,25,38,234,36,32,19,315,35*78
$GPGSV,6,4,21,70,32,202,29,71,52,273,38,72,20,327,33,73,57,326,38*72
$GPGSV,6,5,21,74,15,271,36,80,38,45,,81,10,24,27,82,28,72,*43
$GPGSV,6,6,21,83,17,128,*4C
$GPRMC,103129.00,A,3945.1612,N,00807.5365,W,0.000,0.000,140517,,E,A*02
$GPGGA,103130.00,3945.1612,N,00807.5365,W,1,14,0.706,323.087,M,,M,0,*5C
$GPGSA,A,3,10,12,13,15,17,18,19,24,25,71,72,73,1.226,0.706,1.002*32
$GPGSV,6,1,21,4,5,,12,10,25,279,39,12,85,263,36,13,11,139,15*4E
$GPGSV,6,2,21,14,,317,,15,43,159,34,17,13,38,31,18,23,250,37*41
$GPGSV,6,3,21,19,26,56,29,24,68,41,32,25,38,234,34,32,19,315,40*73
$GPGSV,6,4,21,70,32,202,23,71,52,273,37,72,20,327,32,73,57,326,39*77
$GPGSV,6,5,21,74,15,271,33,80,38,45,,81,10,24,30,82,28,72,*40
$GPGSV,6,6,21,83,17,128,*4C
$GPRMC,103130.00,A,3945.1612,N,00807.5365,W,0.000,0.000,140517,,E,A*0A
$GPGGA,103131.00,3945.1612,N,00807.5365,W,1,14,0.706,323.087,M,,M,0,*5D
$GPGSA,A,3,10,12,13,15,17,18,19,24,25,71,72,73,1.226,0.706,1.002*32
$GPGSV,6,1,21,4,5,,12,10,25,279,36,12,85,263,38,13,11,139,19*43
$GPGSV,6,2,21,14,,317,,15,43,159,32,17,13,38,31,18,23,250,40*47
$GPGSV,6,3,21,19,26,56,26,24,68,41,32,25,38,234,37,32,19,315,41*7E
$GPGSV,6,4,21,70,32,202,17,71,52,273,40,72,20,327,28,73,57,326,36*74
$GPGSV,6,5,21,74,15,271,33,80,38,45,,81,10,24,28,82,28,72,*49
$GPGSV,6,6,21,83,17,128,*4C
$GPRMC,103131.00,A,3945.1612,N,00807.5365,W,0.000,0.000,140517,,E,A*0B
$GPGGA,103132.00,3945.1612,N,00807.5365,W,1,14,0.706,323.087,M,,M,0,*5E
$GPGSA,A,3,10,12,13,15,17,18,19,24,25,71,72,73,1.226,0.706,1.002*32
$GPGSV,6,1,21,4,5,,17,10,25,279,39,12,85,263,41,13,11,139,13*4D
$GPGSV,6,2,21,14,,317,,15,43,159,35,17,13,38,36,18,23,250,42*45
$GPGSV,6,3,21,19,26,56,29,24,68,41,33,25,38,234,43,32,19,315,38*7D
$GPGSV,6,4,21,70,32,202,28,71,52,273,41,72,20,327,33,73,57,326,35*70
$GPGSV,6,5,21,74,15,271,34,80,38,45,,81,10,24,27,82,28,72,*41
$GPGSV,6,6,21,83,17,128,*4C
$GPRMC,103132.00,A,3945.1612,N,00807.5365,W,0.000,0.000,140517,,E,A*08
$GPGGA,103133.00,3945.1612,N,00807.5365,W,1,13,0.903,323.087,M,,M,0,*53
$GPGSA,A,3,10,12,15,17,18,19,24,25,71,72,73,74,1.472,0.903,1.163*39
$GPGSV,6,1,21,4,5,,12,10,25,279,43,12,85,263,43,13,11,139,12*46
$GPGSV,6,2,21,14,,317,,15,43,159,34,17,13,38,35,18,23,250,41*44
$GPGSV,6,3,21,19,26,56,28,24,68,41,35,25,38,234,38,32,19,315,38*76
$GPGSV,6,4,21,70,32,202,20,71,52,273,36,72,20,327,35,73,57,326,40*7C
$GPGSV,6,5,21,74,15,271,36,80,38,45,,81,10,24,28,82,28,72,*4C
$GPGSV,6,6,21,83,17,128,*4C
$GPRMC,103133.00,A,3945.1612,N,00807.5365,W,0.000,0.000,140517,,E,A*09
$GPGGA,103134.00,3945.1612,N,00807.5365,W,1,13,0.743,323.087,M,,M,0,*5E
$GPGSA,A,3,10,12,13,15,17,18,19,24,25,71,72,73,1.287,0.743,1.051*3E
$GPGSV,6,1,21,4,5,,12,10,25,279,39,12,85,263,41,13,11,139,15*4E
$GPGSV,6,2,21,14,,317,,15,43,159,37,17,13,38,35,18,23,250,37*46
$GPGSV,6,3,21,19,26,56,27,24,68,41,34,25,38,234,33,32,19,315,37*7C
$GPGSV,6,4,21,70,32,202,21,71,52,273,31,72,20,327,36,73,57,326,41*78
$GPGSV,6,5,21,74,15,271,36,80,38,45,,81,10,24,21,82,28,72,*45
$GPGSV,6,6,21,83,17,128,*4C
$GPRMC,103134.00,A,3945.1612,N,00807.5365,W,0.000,0.000,140517,,E,A*0E
$GPGGA,103135.00,3945.1612,N,00807.5365,W,1,13,0.743,323.087,M,,M,0,*5F
$GPGSA,A,3,10,12,13,15,17,18,19,24,25,71,72,73,1.287,0.743,1.051*3E
$GPGSV,6,1,21,4,5,,14,10,25,279,35,12,85,263,40,13,11,139,14*44
$GPGSV,6,2,21,14,,317,,15,43,159,37,17,13,38,36,18,23,250,34*46
$GPGSV,6,3,21,19,26,56,24,24,68,41,38,25,38,234,34,32,20,315,40*7E
$GPGSV,6,4,21,70,32,202,20,71,52,273,33,72,20,327,39,73,57,326,41*74
$GPGSV,6,5,21,74,15,271,36,80,38,45,,81,10,24,22,82,28,72,*46
$GPGSV,6,6,21,83,17,128,*4C
$GPRMC,103135.00,A,3945.1612,N,00807.5365,W,0.000,0.000,140517,,E,A*0F
$GPGGA,103136.00,3945.1613,N,00807.5369,W,1,14,0.706,323.063,M,,M,0,*5D
$GPGSA,A,3,10,12,13,15,17,18,19,24,25,71,72,73,1.225,0.706,1.002*31
$GPGSV,6,1,21,4,5,,13,10,25,279,38,12,85,264,40,13,11,139,18*45
$GPGSV,6,2,21,14,,317,,15,43,159,34,17,13,38,36,18,23,250,35*44
$GPGSV,6,3,21,19,26,56,30,24,68,41,38,25,38,234,35,32,20,315,43*79
$GPGSV,6,4,21,70,32,202,23,71,52,273,39,72,20,327,40,73,57,326,41*73
$GPGSV,6,5,21,74,15,271,36,80,38,45,,81,10,24,26,82,28,72,*42
$GPGSV,6,6,21,83,17,128,*4C
$GPRMC,103136.00,A,3945.1613,N,00807.5369,W,2.003,262.428,140517,,E,A*08
$GPGGA,103137.00,3945.1613,N,00807.5379,W,1,13,0.903,322.896,M,,M,0,*52
$GPGSA,A,3,10,12,15,17,18,19,24,25,71,72,73,74,1.472,0.903,1.163*39
$GPGSV,6,1,21,4,5,,12,10,25,279,40,12,85,264,42,13,11,139,12*43
$GPGSV,6,2,21,14,,317,,15,43,159,31,17,13,38,32,18,23,250,37*47
$GPGSV,6,3,21,19,26,56,27,24,68,41,39,25,38,234,33,32,20,315,43*78
$GPGSV,6,4,21,70,32,202,21,71,52,272,39,72,20,327,40,73,57,326,44*75
$GPGSV,6,5,21,74,15,271,36,80,38,45,,81,10,24,32,82,28,72,*47
$GPGSV,6,6,21,83,17,128,*4C
$GPRMC,103137.00,A,3945.1613,N,00807.5379,W,2.715,240.841,140517,,E,A*0B
$GPGGA,103138.00,3945.1611,N,00807.5389,W,1,14,0.706,322.581,M,,M,0,*57
$GPGSA,A,3,10,12,13,15,17,18,19,24,25,71,72,73,1.225,0.706,1.002*31
$GPGSV,6,1,21,4,5,,12,10,25,279,38,12,85,264,39,13,11,139,18*4A
$GPGSV,6,2,21,14,,317,,15,43,159,31,17,13,38,30,18,23,250,36*44
$GPGSV,6,3,21,19,26,56,27,24,68,41,39,25,38,234,36,32,20,315,38*71
$GPGSV,6,4,21,70,32,202,23,71,52,272,41,72,20,327,42,73,57,326,44*7A
$GPGSV,6,5,21,74,15,271,32,80,38,45,,81,10,24,29,82,28,72,*49
$GPGSV,6,6,21,83,17,128,*4C
$GPRMC,103138.00,A,3945.1611,N,00807.5389,W,4.077,230.329,140517,,E,A*0E
$GPGGA,103139.00,3945.1607,N,00807.5402,W,1,14,0.706,322.321,M,,M,0,*59
$GPGSA,A,3,10,12,13,15,17,18,19,24,25,71,72,73,1.225,0.706,1.002*31
$GPGSV,6,1,21,4,5,,15,10,25,279,35,12,85,264,42,13,11,139,15*41
$GPGSV,6,2,21,14,,317,,15,43,159,31,17,13,38,28,18,23,250,34*4F
$GPGSV,6,3,21,19,26,56,26,24,68,41,32,25,38,234,36,32,20,315,36*75
$GPGSV,6,4,21,70,32,202,22,71,52,272,42,72,20,327,43,73,57,326,42*7F
$GPGSV,6,5,21,74,15,271,26,80,38,45,,81,10,24,30,82,28,72,*44
$GPGSV,6,6,21,83,17,128,*4C
$GPRMC,103139.00,A,3945.1607,N,00807.5402,W,3.943,236.274,140517,,E,A*0A
$GPGGA,103140.00,3945.1607,N,00807.5416,W,1,13,0.738,321.986,M,,M,0,*5C
$GPGSA,A,3,10,12,13,15,17,18,19,24,25,71,72,73,1.295,0.738,1.064*37
$GPGSV,6,1,21,4,5,,12,10,25,279,37,12,85,264,42,13,11,139,24*46
$GPGSV,6,2,21,14,,317,,15,43,159,34,17,13,38,29,18,23,250,34*4B
$GPGSV,6,3,21,19,26,56,31,24,68,41,33,25,38,234,37,32,20,315,35*70
$GPGSV,6,4,21,70,32,202,23,71,52,272,44,72,20,327,43,73,57,326,41*7B
$GPGSV,6,5,21,74,15,271,24,80,38,45,,81,10,24,27,82,28,72,*40
$GPGSV,6,6,21,83,17,128,*4C
$GPRMC,103140.00,A,3945.1607,N,00807.5416,W,3.174,244.371,140517,,E,A*0C
$GPGGA,103141.00,3945.1607,N,00807.5431,W,1,12,0.771,322.303,M,,M,0,*50
$GPGSA,A,3,10,12,13,15,17,18,19,24,25,71,72,73,1.361,0.771,1.121*30
$GPGSV,6,1,21,4,5,,12,10,25,279,33,12,85,264,41,13,11,140,21*4A
$GPGSV,6,2,21,14,,317,,15,43,159,36,17,13,38,34,18,23,250,36*47
$GPGSV,6,3,21,19,26,56,30,24,68,41,32,25,38,234,38,32,20,315,40*7D
$GPGSV,6,4,21,70,32,202,21,71,52,272,42,72,20,327,41,73,57,326,43*7F
$GPGSV,6,5,21,74,15,271,19,80,38,45,,81,10,24,24,82,28,72,*4D
$GPGSV,6,6,21,83,17,128,*4C
$GPRMC,103141.00,A,3945.1607,N,00807.5431,W,4.330,256.138,140517,,E,A*01
$GPGGA,103142.00,3945.1607,N,00807.5451,W,1,14,0.706,322.928,M,,M,0,*50
$GPGSA,A,3,10,12,13,15,17,18,19,24,25,71,72,73,1.225,0.706,1.001*32
$GPGSV,6,1,21,4,5,,15,10,25,279,32,12,85,264,43,13,11,140,19*45
$GPGSV,6,2,21,14,,317,,15,43,159,40,17,13,38,35,18,23,250,35*44
$GPGSV,6,3,21,19,26,56,28,24,68,41,34,25,38,234,36,32,20,315,38*73
$GPGSV,6,4,21,70,32,202,18,71,52,272,38,72,20,327,39,73,57,326,40*74
$GPGSV,6,5,21,74,15,271,26,80,38,45,,81,10,24,29,82,28,72,*4C
$GPGSV,6,6,21,83,17,128,*4C
$GPRMC,103142.00,A,3945.1607,N,00807.5451,W,5.437,258.387,140517,,E,A*0D
$GPGGA,103143.00,3945.1607,N,00807.5473,W,1,14,0.706,323.694,M,,M,0,*58
$GPGSA,A,3,10,12,13,15,17,18,19,24,25,71,72,73,1.225,0.706,1.001*32
$GPGSV,6,1,21,4,5,,16,10,25,279,35,12,85,264,44,13,11,140,19*46
$GPGSV,6,2,21,14,,317,,15,43,159,39,17,13,38,34,18,23,250,36*48
$GPGSV,6,3,21,19,26,56,31,24,68,41,33,25,38,234,36,32,20,315,36*72
$GPGSV,6,4,21,70,32,202,18,71,52,272,34,72,20,327,35,73,57,326,39*7A
$GPGSV,6,5,21,74,15,271,28,80,38,45,,81,10,24,27,82,28,72,*4C
$GPGSV,6,6,21,83,17,128,*4C
$GPRMC,103143.00,A,3945.1607,N,00807.5473,W,5.653,263.046,140517,,E,A*0A
$GPGGA,103144.00,3945.1606,N,00807.5493,W,1,14,0.706,324.221,M,,M,0,*5D
$GPGSA,A,3,10,12,13,15,17,18,19,24,25,71,72,73,1.225,0.706,1.001*32
$GPGSV,6,1,21,4,5,,12,10,25,279,33,12,85,264,45,13,11,140,18*44
$GPGSV,6,2,21,14,,317,,15,43,159,38,17,13,38,29,18,23,250,34*47
$GPGSV,6,3,21,19,26,56,28,24,68,42,35,25,38,234,37,32,20,315,36*7E
$GPGSV,6,4,21,70,32,202,22,71,52,272,31,72,20,327,33,73,57,326,37*7E
$GPGSV,6,5,21,74,15,271,29,80,38,45,,81,10,24,29,82,28,72,*43
$GPGSV,6,6,21,83,17,128,*4C
$GPRMC,103144.00,A,3945.1606,N,00807.5493,W,5.517,263.771,140517,,E,A*02
$GPGGA,103145.00,3945.1606,N,00807.5516,W,1,13,0.738,324.713,M,,M,0,*5E
$GPGSA,A,3,10,12,13,15,17,18,19,24,25,71,72,73,1.295,0.738,1.064*37
$GPGSV,6,1,21,4,5,,12,10,25,279,31,12,85,264,44,13,11,140,22*4E
$GPGSV,6,2,21,14,,317,,15,43,159,39,17,13,38,27,18,23,250,33*4F
$GPGSV,6,3,21,19,26,56,36,24,68,42,33,25,38,234,36,32,20,315,36*76
$GPGSV,6,4,21,70,32,202,24,71,52,272,36,72,20,327,33,73,57,326,33*7B
$GPGSV,6,5,21,74,15,271,23,80,38,45,,81,10,24,27,82,28,72,*47
$GPGSV,6,6,21,83,17,128,*4C
$GPRMC,103145.00,A,3945.1606,N,00807.5516,W,5.780,259.478,140517,,E,A*00
$GPGGA,103146.00,3945.1605,N,00807.5541,W,1,13,0.738,325.275,M,,M,0,*58
$GPGSA,A,3,10,12,13,15,17,18,19,24,25,71,72,73,1.295,0.738,1.064*37
$GPGSV,6,1,21,4,5,,15,10,25,279,31,12,85,264,44,13,11,140,22*49
$GPGSV,6,2,21,14,,317,,15,43,159,40,17,13,38,27,18,23,250,34*46
$GPGSV,6,3,21,19,26,56,36,24,68,42,36,25,38,234,35,32,20,315,39*7F
$GPGSV,6,4,21,70,32,202,22,71,52,272,40,72,20,327,34,73,57,326,35*7D
$GPGSV,6,5,21,74,15,271,23,80,38,45,,81,10,24,27,82,28,72,*47
$GPGSV,6,6,21,83,17,128,*4C
$GPRMC,103146.00,A,3945.1605,N,00807.5541,W,6.552,260.672,140517,,E,A*0E
$GPGGA,103147.00,3945.1602,N,00807.5565,W,1,14,0.706,325.633,M,,M,0,*54
$GPGSA,A,3,10,12,13,15,17,18,19,24,25,71,72,73,1.225,0.706,1.001*32
$GPGSV,6,1,21,4,5,,12,10,25,279,28,12,85,264,39,13,11,140,23*4D
$GPGSV,6,2,21,14,,317,,15,43,159,36,17,13,38,26,18,23,250,35*47
$GPGSV,6,3,21,19,26,56,33,24,68,42,31,25,38,234,36,32,20,315,38*7F
$GPGSV,6,4,21,70,32,202,23,71,52,272,35,72,20,327,31,73,57,326,35*7B
$GPGSV,6,5,21,74,15,271,29,80,38,45,,81,10,24,28,82,28,72,*42
$GPGSV,6,6,21,83,17,128,*4C
$GPRMC,103147.00,A,3945.1602,N,00807.5565,W,5.719,257.803,140517,,E,A*0C
$GPGGA,103148.00,3945.1600,N,00807.5586,W,1,14,0.706,325.991,M,,M,0,*53
$GPGSA,A,3,10,12,13,15,17,18,19,24,25,71,72,73,1.225,0.706,1.001*32
$GPGSV,6,1,21,4,5,,15,10,25,279,35,12,85,265,36,13,11,140,21*4A
$GPGSV,6,2,21,14,,317,,15,43,159,37,17,13,38,26,18,23,250,34*47
$GPGSV,6,3,21,19,26,56,33,24,68,42,29,25,38,234,32,32,20,315,39*73
$GPGSV,6,4,21,70,31,202,25,71,52,272,35,72,20,327,36,73,57,326,34*78
$GPGSV,6,5,21,74,15,271,27,80,38,45,,81,10,24,28,82,28,72,*4C
$GPGSV,6,6,21,83,17,128,*4C
$GPRMC,103148.00,A,3945.1600,N,00807.5586,W,5.388,254.147,140517,,E,A*0A
$GPGGA,103149.00,3945.1597,N,00807.5605,W,1,14,0.706,326.364,M,,M,0,*54
$GPGSA,A,3,10,12,13,15,17,18,19,24,25,71,72,73,1.225,0.706,1.001*32
$GPGSV,6,1,21,4,5,,13,10,25,279,38,12,85,265,43,13,11,140,22*40
$GPGSV,6,2,21,14,,317,,15,43,159,34,17,13,38,29,18,23,250,31*4E
$GPGSV,6,3,21,19,26,56,32,24,68,42,33,25,38,234,34,32,20,315,38*7E
$GPGSV,6,4,21,70,31,202,23,71,52,272,39,72,20,327,31,73,57,326,38*79
$GPGSV,6,5,21,74,15,271,31,80,38,45,,81,10,24,27,82,28,72,*44
$GPGSV,6,6,21,83,17,128,*4C
$GPRMC,103149.00,A,3945.1597,N,00807.5605,W,4.925,250.642,140517,,E,A*04
$GPGGA,103150.00,3945.1594,N,00807.5621,W,1,14,0.706,326.759,M,,M,0,*53
$GPGSA,A,3,10,12,13,15,17,18,19,24,25,71,72,73,1.225,0.706,1.001*32
$GPGSV,6,1,21,4,5,,12,10,25,279,40,12,85,265,40,13,11,140,26*49
$GPGSV,6,2,21,14,,317,,15,43,159,37,17,13,38,33,18,23,250,32*45
$GPGSV,6,3,21,19,26,56,32,24,68,42,32,25,38,234,35,32,20,315,38*7E
$GPGSV,6,4,21,70,31,202,22,71,52,272,41,72,20,327,34,73,57,326,39*73
$GPGSV,6,5,21,74,15,271,30,80,38,45,,81,10,24,29,82,28,72,*4B
$GPGSV,6,6,21,83,17,128,*4C
$GPRMC,103150.00,A,3945.1594,N,00807.5621,W,4.257,255.125,140517,,E,A*04
$GPGGA,103151.00,3945.1592,N,00807.5636,W,1,14,0.706,327.755,M,,M,0,*5F
$GPGSA,A,3,10,12,13,15,17,18,19,24,25,71,72,73,1.225,0.706,1.001*32
$GPGSV,6,1,21,4,5,,14,10,25,279,39,12,85,265,45,13,11,140,21*43
$GPGSV,6,2,21,14,,317,,15,43,159,41,17,13,38,30,18,23,250,40*42
$GPGSV,6,3,21,19,26,56,30,24,68,42,37,25,38,234,37,32,20,315,35*76
$GPGSV,6,4,21,70,31,202,29,71,52,272,41,72,20,327,31,73,57,326,39*7D
$GPGSV,6,5,21,74,15,271,30,80,38,45,,81,10,24,26,82,28,72,*44
$GPGSV,6,6,21,83,17,128,*4C
$GPRMC,103151.00,A,3945.1592,N,00807.5636,W,4.203,260.512,140517,,E,A*02
$GPGGA,103152.00,3945.1590,N,00807.5653,W,1,14,0.706,327.732,M,,M,0,*5C
$GPGSA,A,3,10,12,13,15,17,18,19,24,25,71,72,73,1.225,0.706,1.001*32
$GPGSV,6,1,21,4,5,,14,10,25,279,41,12,85,265,42,13,11,140,28*42
$GPGSV,6,2,21,14,,317,,15,43,159,40,17,13,38,35,18,23,250,35*44
$GPGSV,6,3,21,19,26,56,31,24,68,42,38,25,38,234,39,32,20,315,40*74
$GPGSV,6,4,21,70,31,202,29,71,52,272,38,72,20,327,36,73,57,326,40*7A
$GPGSV,6,5,21,74,15,271,33,80,38,45,,81,10,24,31,82,28,72,*41
$GPGSV,6,6,21,83,17,128,*4C
$GPRMC,103152.00,A,3945.1590,N,00807.5653,W,4.902,258.565,140517,,E,A*01
$GPGGA,103153.00,3945.1584,N,00807.5668,W,1,14,0.706,327.714,M,,M,0,*54
$GPGSA,A,3,10,12,13,15,17,18,19,24,25,71,72,73,1.225,0.706,1.001*32
$GPGSV,6,1,21,4,5,,12,10,25,279,37,12,85,265,40,13,11,140,32*4C
$GPGSV,6,2,21,14,,317,,15,43,159,39,17,13,38,33,18,23,250,43*4D
$GPGSV,6,3,21,19,26,56,30,24,68,42,40,25,38,234,42,32,20,315,40*76
$GPGSV,6,4,21,70,31,202,29,71,52,272,37,72,20,327,40,73,57,326,41*75
$GPGSV,6,5,21,74,15,271,29,80,38,45,,81,10,24,33,82,28,72,*48
$GPGSV,6,6,21,83,17,128,*4C
$GPRMC,103153.00,A,3945.1584,N,00807.5668,W,5.055,255.669,140517,,E,A*05
$GPGGA,103154.00,3945.1579,N,00807.5683,W,1,15,0.670,327.488,M,,M,0,*53
$GPGSA,A,3,10,12,13,15,17,18,19,24,25,70,71,72,1.202,0.670,0.998*3C
$GPGSV,6,1,21,4,5,,12,10,25,279,38,12,85,265,38,13,11,140,34*4A
$GPGSV,6,2,21,14,,317,,15,43,159,36,17,13,38,32,18,23,250,40*40
$GPGSV,6,3,21,19,26,56,29,24,68,42,40,25,38,234,41,32,20,315,36*7C
$GPGSV,6,4,21,70,31,202,27,71,52,272,35,72,20,327,36,73,57,326,36*78
$GPGSV,6,5,21,74,15,271,30,80,38,45,,81,10,24,31,82,28,72,*42
$GPGSV,6,6,21,83,17,128,*4C
$GPRMC,103154.00,A,3945.1579,N,00807.5683,W,4.553,259.733,140517,,E,A*05
$GPGGA,103155.00,3945.1575,N,00807.5698,W,1,15,0.670,327.200,M,,M,0,*52
$GPGSA,A,3,10,12,13,15,17,18,19,24,25,70,71,72,1.202,0.670,0.998*3C
$GPGSV,6,1,21,4,5,,12,10,25,279,39,12,85,265,38,13,11,140,34*4B
$GPGSV,6,2,21,14,,317,,15,43,159,39,17,13,38,32,18,23,250,39*41
$GPGSV,6,3,21,19,26,56,30,24,68,42,39,25,38,234,40,32,20,315,35*78
$GPGSV,6,4,21,70,31,202,28,71,52,272,37,72,20,327,36,73,57,326,33*70
$GPGSV,6,5,21,74,15,271,27,80,38,45,,81,10,24,34,82,28,72,*41
$GPGSV,6,6,21,83,17,128,*4C
$GPRMC,103155.00,A,3945.1575,N,00807.5698,W,4.202,243.604,140517,,E,A*0F
$GPGGA,103156.00,3945.1570,N,00807.5713,W,1,15,0.670,327.020,M,,M,0,*56
$GPGSA,A,3,10,12,13,15,17,18,19,24,25,70,71,72,1.202,0.670,0.998*3C
$GPGSV,6,1,21,4,5,,12,10,25,279,35,12,85,265,38,13,11,140,28*4A
$GPGSV,6,2,21,14,,317,,15,43,159,40,17,13,38,31,18,23,250,37*42
$GPGSV,6,3,21,19,26,56,29,24,68,42,41,25,38,234,39,32,20,315,37*73
$GPGSV,6,4,21,70,31,202,29,71,52,272,35,72,20,327,32,73,57,326,36*72
$GPGSV,6,5,21,74,15,271,29,80,38,45,,81,10,24,31,82,28,72,*4A
$GPGSV,6,6,21,83,17,128,*4C
$GPRMC,103156.00,A,3945.1570,N,00807.5713,W,4.551,240.013,140517,,E,A*09
$GPGGA,103157.00,3945.1562,N,00807.5727,W,1,15,0.670,327.005,M,,M,0,*54
$GPGSA,A,3,10,12,13,15,17,18,19,24,25,70,71,72,1.202,0.670,0.998*3C
$GPGSV,6,1,21,4,5,,,10,25,279,39,12,85,265,46,13,11,140,25*41
$GPGSV,6,2,21,14,,317,,15,43,159,36,17,13,38,28,18,23,250,36*4A
$GPGSV,6,3,21,19,26,56,27,24,68,42,39,25,38,234,39,32,20,315,35*70
$GPGSV,6,4,21,70,31,202,27,71,52,272,35,72,20,327,26,73,57,326,36*79
$GPGSV,6,5,21,74,15,271,26,80,38,45,,81,10,24,30,82,28,72,*44
$GPGSV,6,6,21,83,17,128,*4C
$GPRMC,103157.00,A,3945.1562,N,00807.5727,W,5.749,238.354,140517,,E,A*09
$GPGGA,103158.00,3945.1553,N,00807.5743,W,1,14,0.706,327.241,M,,M,0,*58
$GPGSA,A,3,10,12,13,15,17,18,19,24,25,71,72,73,1.224,0.706,1.001*33
$GPGSV,6,1,21,4,5,,,10,25,279,35,12,85,265,47,13,11,140,21*48
$GPGSV,6,2,21,14,,317,,15,43,159,34,17,13,38,29,18,23,250,35*4A
$GPGSV,6,3,21,19,26,56,24,24,68,42,41,25,38,234,40,32,20,315,34*73
$GPGSV,6,4,21,70,31,202,20,71,52,272,31,72,20,327,27,73,57,326,39*74
$GPGSV,6,5,21,74,15,271,25,80,38,45,,81,10,24,30,82,28,72,*47
$GPGSV,6,6,21,83,17,128,*4C
$GPRMC,103158.00,A,3945.1553,N,00807.5743,W,5.690,237.448,140517,,E,A*06
$GPGGA,103159.00,3945.1544,N,00807.5761,W,1,15,0.670,327.419,M,,M,0,*55
$GPGSA,A,3,10,12,13,15,17,18,19,24,25,70,71,72,1.202,0.670,0.998*3C
$GPGSV,6,1,21,4,5,,,10,25,279,35,12,85,266,46,13,11,140,20*4B
$GPGSV,6,2,21,14,,317,,15,43,159,34,17,13,38,27,18,23,250,33*42
$GPGSV,6,3,21,19,26,56,24,24,68,42,36,25,38,234,35,32,20,315,31*74
$GPGSV,6,4,21,70,31,202,28,71,52,272,41,72,20,327,25,73,57,326,34*74
$GPGSV,6,5,21,74,15,271,27,80,38,45,,81,10,24,27,82,28,72,*43
$GPGSV,6,6,21,83,17,128,*4C
$GPRMC,103159.00,A,3945.1544,N,00807.5761,W,5.791,232.187,140517,,E,A*02
$GPGGA,103200.00,3945.1534,N,00807.5776,W,1,13,0.738,327.478,M,,M,0,*57
$GPGSA,A,3,10,12,13,15,17,18,19,24,25,71,72,73,1.294,0.738,1.062*30
$GPGSV,6,1,21,4,5,,,10,25,279,35,12,85,266,44,13,11,140,14*4E
$GPGSV,6,2,21,14,,317,,15,43,159,36,17,13,38,27,18,23,250,33*40
$GPGSV,6,3,21,19,26,56,27,24,68,42,34,25,38,234,36,32,20,315,32*75
$GPGSV,6,4,21,70,31,202,24,71,52,272,43,72,20,327,28,73,57,326,36*75
$GPGSV,6,5,21,74,15,271,24,80,38,45,,81,10,24,26,82,28,72,*41
$GPGSV,6,6,21,83,17,128,*4C
$GPRMC,103200.00,A,3945.1534,N,00807.5776,W,5.251,224.151,140517,,E,A*09
$GPGGA,103201.00,3945.1523,N,00807.5789,W,1,14,0.706,327.532,M,,M,0,*55
$GPGSA,A,3,10,12,13,15,17,18,19,24,25,71,72,73,1.224,0.706,1.000*32
$GPGSV,6,1,21,4,5,,,10,25,279,35,12,85,266,42,13,11,140,18*44
$GPGSV,6,2,21,14,,317,,15,43,159,41,17,13,38,27,18,23,250,39*4A
$GPGSV,6,3,21,19,26,56,29,24,68,42,35,25,38,234,36,32,20,315,33*7B
$GPGSV,6,4,21,70,31,202,20,71,52,272,39,72,20,327,31,73,57,327,35*76
$GPGSV,6,5,21,74,15,271,26,80,38,45,,81,10,24,28,82,28,72,*4D
$GPGSV,6,6,21,83,17,128,*4C
$GPRMC,103201.00,A,3945.1523,N,00807.5789,W,5.830,221.154,140517,,E,A*03
$GPGGA,103202.00,3945.1510,N,00807.5801,W,1,14,0.706,327.122,M,,M,0,*5C
$GPGSA,A,3,10,12,13,15,17,18,19,24,25,71,72,73,1.224,0.706,1.000*32
$GPGSV,6,1,21,4,5,,,10,24,279,34,12,85,266,40,13,11,140,17*49
$GPGSV,6,2,21,14,,317,,15,43,159,42,17,13,38,30,18,23,250,39*4F
$GPGSV,6,3,21,19,26,56,30,24,68,42,35,25,38,234,35,32,20,315,36*75
$GPGSV,6,4,21,70,31,202,21,71,52,272,38,72,20,327,32,73,57,327,34*74
$GPGSV,6,5,21,74,15,271,29,80,38,45,,81,10,24,26,82,28,72,*4C
$GPGSV,6,6,21,83,17,128,*4C
$GPRMC,103202.00,A,3945.1510,N,00807.5801,W,5.646,217.471,140517,,E,A*07
$GPGGA,103203.00,3945.1494,N,00807.5813,W,1,14,0.701,326.932,M,,M,0,*5C
$GPGSA,A,3,10,12,13,15,17,18,19,24,25,70,71,72,1.262,0.701,1.050*31
$GPGSV,5,1,20,10,24,279,39,12,85,266,39,13,11,140,20,14,,317,*7D
$GPGSV,5,2,20,15,43,159,41,17,13,38,30,18,23,250,37,19,26,56,31*7D
$GPGSV,5,3,20,24,68,42,36,25,38,234,38,32,20,315,35,70,31,202,29*48
$GPGSV,5,4,20,71,52,272,34,72,20,327,28,73,57,327,34,74,15,271,32*75
$GPGSV,5,5,20,80,38,45,,81,10,24,23,82,28,72,,83,17,128,*45
$GPRMC,103203.00,A,3945.1494,N,00807.5813,W,6.276,206.287,140517,,E,A*03
$GPGGA,103204.00,3945.1475,N,00807.5824,W,1,15,0.670,327.283,M,,M,0,*56
$GPGSA,A,3,10,12,13,15,17,18,19,24,25,70,71,72,1.202,0.670,0.998*3C
$GPGSV,5,1,20,10,24,279,41,12,85,266,40,13,11,140,20,14,,317,*7C
$GPGSV,5,2,20,15,43,159,44,17,13,38,30,18,23,250,39,19,26,56,31*76
$GPGSV,5,3,20,24,68,42,34,25,38,234,41,32,20,315,35,70,31,202,27*4A
$GPGSV,5,4,20,71,52,272,35,72,20,327,27,73,57,327,29,74,15,271,35*70
$GPGSV,5,5,20,80,38,45,,81,10,24,25,82,28,72,,83,17,128,*43
$GPRMC,103204.00,A,3945.1475,N,00807.5824,W,7.490,196.546,140517,,E,A*00
$GPGGA,103205.00,3945.1453,N,00807.5835,W,1,15,0.670,328.095,M,,M,0,*59
$GPGSA,A,3,10,12,13,15,17,18,19,24,25,70,71,72,1.201,0.670,0.998*3F
$GPGSV,5,1,20,10,24,279,41,12,85,266,39,13,11,140,17,14,,317,*76
$GPGSV,5,2,20,15,43,159,43,17,13,38,30,18,23,250,39,19,26,56,32*72
$GPGSV,5,3,20,24,68,42,36,25,38,234,43,32,20,315,34,70,31,202,27*4B
$GPGSV,5,4,20,71,52,272,35,72,21,327,30,73,57,327,25,74,15,271,35*7B
$GPGSV,5,5,20,80,38,45,,81,10,24,26,82,28,72,,83,17,128,*40
$GPRMC,103205.00,A,3945.1453,N,00807.5835,W,7.734,190.357,140517,,E,A*08
$GPGGA,103206.00,3945.1431,N,00807.5842,W,1,15,0.670,328.543,M,,M,0,*50
$GPGSA,A,3,10,12,13,15,17,18,19,24,25,70,71,72,1.201,0.670,0.998*3F
$GPGSV,5,1,20,10,24,279,39,12,85,266,39,13,11,140,14,14,,317,*7A
$GPGSV,5,2,20,15,43,159,44,17,13,38,29,18,23,250,39,19,26,56,30*7F
$GPGSV,5,3,20,24,68,42,42,25,38,234,41,32,20,315,35,70,31,202,30*4D
$GPGSV,5,4,20,71,52,272,39,72,21,327,33,73,57,327,29,74,15,271,34*79
$GPGSV,5,5,20,80,38,45,,81,10,24,25,82,28,72,,83,17,128,*43
$GPRMC,103206.00,A,3945.1431,N,00807.5842,W,7.840,187.202,140517,,E,A*04
$GPGGA,103207.00,3945.1409,N,00807.5848,W,1,15,0.670,328.899,M,,M,0,*5A
$GPGSA,A,3,10,12,13,15,17,18,19,24,25,70,71,72,1.201,0.670,0.997*30
$GPGSV,5,1,20,10,24,279,37,12,85,266,45,13,11,140,18,14,,317,*73
$GPGSV,5,2,20,15,43,159,45,17,13,38,29,18,23,250,40,19,26,55,32*71
$GPGSV,5,3,20,24,68,42,42,25,38,234,42,32,20,315,29,70,31,202,27*45
$GPGSV,5,4,20,71,52,272,36,72,21,327,31,73,57,327,33,74,15,271,31*7A
$GPGSV,5,5,20,80,38,45,,81,10,24,28,82,28,72,,83,17,128,*4E
$GPRMC,103207.00,A,3945.1409,N,00807.5848,W,7.610,185.527,140517,,E,A*0D
$GPGGA,103208.00,3945.1391,N,00807.5849,W,1,14,0.705,327.845,M,,M,0,*5E
$GPGSA,A,3,10,12,13,15,17,18,19,24,25,71,72,73,1.224,0.705,1.000*31
$GPGSV,5,1,20,10,24,279,41,12,85,266,49,13,11,140,17,14,,317,*71
$GPGSV,5,2,20,15,43,159,44,17,13,38,31,18,23,250,34,19,26,55,34*7C
$GPGSV,5,3,20,24,68,42,41,25,38,234,38,32,20,315,33,70,31,202,23*44
$GPGSV,5,4,20,71,52,272,37,72,21,327,32,73,57,327,36,74,15,271,35*79
$GPGSV,5,5,20,80,38,45,,81,10,24,29,82,28,72,,83,17,128,*4F
$GPRMC,103208.00,A,3945.1391,N,00807.5849,W,6.468,184.392,140517,,E,A*00
$GPGGA,103209.00,3945.1371,N,00807.5852,W,1,15,0.670,326.953,M,,M,0,*5E
$GPGSA,A,3,10,12,13,15,17,18,19,24,25,70,71,72,1.201,0.670,0.997*30
$GPGSV,5,1,20,10,24,279,47,12,85,266,48,13,11,140,20,14,,317,*72
$GPGSV,5,2,20,15,43,159,42,17,13,38,37,18,23,250,37,19,26,55,34*7F
$GPGSV,5,3,20,24,68,42,41,25,38,234,45,32,20,315,33,70,31,202,26*4B
$GPGSV,5,4,20,71,52,272,42,72,21,327,32,73,57,327,37,74,15,271,38*77
$GPGSV,5,5,20,80,38,45,,81,10,24,27,82,28,72,,83,17,128,*41
$GPRMC,103209.00,A,3945.1371,N,00807.5852,W,7.119,179.752,140517,,E,A*0D
$GPGGA,103210.00,3945.1351,N,00807.5851,W,1,15,0.670,326.865,M,,M,0,*53
$GPGSA,A,3,10,12,13,15,17,18,19,24,25,70,71,72,1.201,0.670,0.997*30
$GPGSV,5,1,20,10,24,279,43,12,85,267,46,13,11,140,18,14,,317,*72
$GPGSV,5,2,20,15,43,159,39,17,13,38,33,18,23,250,38,19,26,55,29*74
$GPGSV,5,3,20,24,68,42,36,25,38,234,38,32,20,315,35,70,31,202,28*49
$GPGSV,5,4,20,71,52,272,37,72,21,327,31,73,57,327,33,74,15,271,36*7C
$GPGSV,5,5,20,80,38,45,,81,10,24,26,82,28,72,,83,17,128,*40
$GPRMC,103210.00,A,3945.1351,N,00807.5851,W,7.555,178.251,140517,,E,A*0F
$GPGGA,103211.00,3945.1330,N,00807.5850,W,1,15,0.670,327.063,M,,M,0,*5B
$GPGSA,A,3,10,12,13,15,17,18,19,24,25,70,71,72,1.201,0.670,0.997*30
$GPGSV,5,1,20,10,24,279,42,12,85,267,46,13,11,140,15,14,,317,*7E
$GPGSV,5,2,20,15,43,159,37,17,13,38,32,18,23,250,34,19,26,55,28*76
$GPGSV,5,3,20,24,68,42,36,25,38,234,34,32,20,315,31,70,31,202,26*4F
$GPGSV,5,4,20,71,52,272,36,72,21,327,34,73,57,327,34,74,15,271,34*7D
$GPGSV,5,5,20,80,38,45,,81,10,24,26,82,28,72,,83,17,128,*40
$GPRMC,103211.00,A,3945.1330,N,00807.5850,W,7.667,177.640,140517,,E,A*01
$GPGGA,103212.00,3945.1309,N,00807.5850,W,1,14,0.701,327.527,M,,M,0,*51
$GPGSA,A,3,10,12,13,15,17,18,19,24,25,70,71,72,1.262,0.701,1.049*39
$GPGSV,5,1,20,10,24,279,42,12,85,267,46,13,11,140,20,14,,317,*78
$GPGSV,5,2,20,15,43,159,39,17,13,38,31,18,23,250,31,19,26,55,28*7E
$GPGSV,5,3,20,24,68,42,39,25,38,234,35,32,20,315,32,70,31,202,29*4D
$GPGSV,5,4,20,71,52,272,37,72,21,327,35,73,57,327,31,74,15,271,34*78
$GPGSV,5,5,20,80,38,45,,81,10,24,22,82,28,72,,83,17,128,*44
$GPRMC,103212.00,A,3945.1309,N,00807.5850,W,7.661,178.164,140517,,E,A*00
$GPGGA,103213.00,3945.1289,N,00807.5850,W,1,14,0.701,327.661,M,,M,0,*58
$GPGSA,A,3,10,12,13,15,17,18,19,24,25,70,71,72,1.262,0.701,1.049*39
$GPGSV,6,1,21,4,5,,,10,24,279,38,12,85,267,46,13,11,140,23*45
$GPGSV,6,2,21,14,,317,,15,43,159,39,17,13,38,27,18,23,250,34*48
$GPGSV,6,3,21,19,26,55,26,24,68,42,40,25,38,234,33,32,20,315,29*7B
$GPGSV,6,4,21,70,31,202,26,71,52,272,36,72,21,327,36,73,57,327,32*7E
$GPGSV,6,5,21,74,15,271,30,80,38,45,,81,10,24,22,82,28,72,*40
$GPGSV,6,6,21,83,17,128,*4C
$GPRMC,103213.00,A,3945.1289,N,00807.5850,W,7.388,181.218,140517,,E,A*04
$GPGGA,103214.00,3945.1270,N,00807.5850,W,1,13,0.742,327.790,M,,M,0,*56
$GPGSA,A,3,10,12,13,15,17,18,19,24,25,71,72,73,1.286,0.742,1.050*3F
$GPGSV,6,1,21,4,5,,,10,24,279,37,12,85,267,45,13,11,140,22*48
$GPGSV,6,2,21,14,,317,,15,43,159,40,17,13,38,27,18,23,250,34*46
$GPGSV,6,3,21,19,26,55,30,24,68,42,41,25,38,234,35,32,20,315,26*74
$GPGSV,6,4,21,70,31,201,24,71,52,272,37,72,21,327,34,73,57,327,30*7E
$GPGSV,6,5,21,74,15,271,29,80,38,45,,81,10,24,21,82,28,72,*4B
$GPGSV,6,6,21,83,17,128,*4C
$GPRMC,103214.00,A,3945.1270,N,00807.5850,W,7.009,177.297,140517,,E,A*01
$GPGGA,103215.00,3945.1250,N,00807.5851,W,1,13,0.742,327.824,M,,M,0,*54
$GPGSA,A,3,10,12,13,15,17,18,19,24,25,71,72,73,1.286,0.742,1.050*3F
$GPGSV,6,1,21,4,5,,,10,24,279,38,12,85,267,42,13,11,140,19*48
$GPGSV,6,2,21,14,,317,,15,43,159,37,17,13,38,28,18,23,250,34*49
$GPGSV,6,3,21,19,26,55,29,24,68,42,39,25,38,234,35,32,20,315,28*7D
$GPGSV,6,4,21,70,31,201,21,71,52,272,38,72,21,327,29,73,57,327,30*78
$GPGSV,6,5,21,74,15,271,30,80,38,45,,81,10,24,22,82,28,72,*40
$GPGSV,6,6,21,83,17,128,*4C
$GPRMC,103215.00,A,3945.1250,N,00807.5851,W,6.962,180.891,140517,,E,A*02
$GPGGA,103216.00,3945.1232,N,00807.5852,W,1,13,0.742,327.709,M,,M,0,*50
$GPGSA,A,3,10,12,13,15,17,18,19,24,25,71,72,73,1.286,0.742,1.050*3F
$GPGSV,6,1,21,4,5,,,10,24,279,36,12,85,267,38,13,11,140,18*4A
$GPGSV,6,2,21,14,,317,,15,43,159,34,17,13,38,27,18,23,250,35*44
$GPGSV,6,3,21,19,26,55,30,24,68,42,38,25,38,234,35,32,20,315,30*7D
$GPGSV,6,4,21,70,31,201,24,71,52,272,37,72,21,327,29,73,57,327,29*7A
$GPGSV,6,5,21,74,15,271,27,80,38,45,,81,10,24,21,82,28,72,*45
$GPGSV,6,6,21,83,17,128,*4C
$GPRMC,103216.00,A,3945.1232,N,00807.5852,W,5.930,182.300,140517,,E,A*03
$GPGGA,103217.00,3945.1217,N,00807.5855,W,1,14,0.701,327.525,M,,M,0,*5D
$GPGSA,A,3,10,12,13,15,17,18,19,24,25,70,71,72,1.262,0.701,1.049*39
$GPGSV,6,1,21,4,5,,,10,24,279,34,12,85,267,38,13,11,140,18*48
$GPGSV,6,2,21,14,,317,,15,43,159,37,17,13,38,29,18,23,250,36*4A
$GPGSV,6,3,21,19,26,55,29,24,68,42,37,25,38,234,36,32,20,315,33*7A
$GPGSV,6,4,21,70,31,201,25,71,52,272,42,72,21,327,30,73,57,327,31*78
$GPGSV,6,5,21,74,15,271,26,80,38,45,,81,10,24,24,82,28,72,*41
$GPGSV,6,6,21,83,17,128,*4C
$GPRMC,103217.00,A,3945.1217,N,00807.5855,W,4.783,193.402,140517,,E,A*00
$GPGGA,103218.00,3945.1202,N,00807.5857,W,1,13,0.742,327.528,M,,M,0,*59
$GPGSA,A,3,10,12,13,15,17,18,19,24,25,71,72,73,1.286,0.742,1.050*3F
$GPGSV,6,1,21,4,5,,,10,24,279,36,12,85,267,41,13,11,140,21*4E
$GPGSV,6,2,21,14,1,317,,15,43,159,38,17,13,38,27,18,23,250,34*78
$GPGSV,6,3,21,19,26,55,30,24,68,42,37,25,38,234,35,32,20,315,33*71
$GPGSV,6,4,21,70,31,201,24,71,52,272,38,72,21,327,29,73,57,327,34*79
$GPGSV,6,5,21,74,15,271,26,80,38,45,,81,10,24,23,82,28,72,*46
$GPGSV,6,6,21,83,17,128,*4C
$GPRMC,103218.00,A,3945.1202,N,00807.5857,W,5.952,185.104,140517,,E,A*0E
$GPGGA,103219.00,3945.1183,N,00807.5859,W,1,14,0.701,327.342,M,,M,0,*56
$GPGSA,A,3,10,12,13,15,17,18,19,24,25,70,71,72,1.262,0.701,1.049*39
$GPGSV,6,1,21,4,5,,,10,24,279,38,12,85,267,41,13,11,140,23*42
$GPGSV,6,2,21,14,1,317,,15,43,159,38,17,13,38,27,18,23,250,32*7E
$GPGSV,6,3,21,19,26,55,27,24,68,42,38,25,38,234,37,32,20,315,32*7B
$GPGSV,6,4,21,70,31,201,25,71,52,272,41,72,21,327,27,73,57,327,32*7E
$GPGSV,6,5,21,74,15,271,28,80,38,45,,81,10,24,19,82,28,72,*41
$GPGSV,6,6,21,83,17,128,*4C
$GPRMC,103219.00,A,3945.1183,N,00807.5859,W,6.591,191.151,140517,,E,A*0E
$GPGGA,103220.00,3945.1162,N,00807.5864,W,1,14,0.701,327.320,M,,M,0,*59
$GPGSA,A,3,10,12,13,15,17,18,19,24,25,70,71,72,1.262,0.701,1.049*39
$GPGSV,6,1,21,4,5,,,10,24,278,37,12,85,267,42,13,11,140,23*4F
$GPGSV,6,2,21,14,1,317,,15,43,159,36,17,13,38,26,18,23,250,32*71
$GPGSV,6,3,21,19,26,55,27,24,68,42,39,25,38,234,38,32,20,315,34*73
$GPGSV,6,4,21,70,31,201,26,71,52,272,41,72,21,327,30,73,57,327,33*7A
$GPGSV,6,5,21,74,15,271,31,80,38,45,,81,10,24,20,82,28,72,*43
$GPGSV,6,6,21,83,17,128,*4C
$GPRMC,103220.00,A,3945.1162,N,00807.5864,W,7.275,192.061,140517,,E,A*08
$GPGGA,103221.00,3945.1140,N,00807.5870,W,1,14,0.701,327.020,M,,M,0,*5E
$GPGSA,A,3,10,12,13,15,17,18,19,24,25,70,71,72,1.262,0.701,1.049*39
$GPGSV,6,1,21,4,5,,,10,24,278,40,12,85,268,41,13,11,140,26*46
$GPGSV,6,2,21,14,1,317,,15,43,159,43,17,13,38,26,18,23,250,35*74
$GPGSV,6,3,21,19,26,55,30,24,68,42,36,25,38,234,40,32,20,315,41*77
$GPGSV,6,4,21,70,31,201,28,71,52,272,42,72,21,327,33,73,57,327,31*76
$GPGSV,6,5,21,74,15,271,29,80,38,46,,81,10,24,23,82,28,72,*4A
$GPGSV,6,6,21,83,17,128,*4C
$GPRMC,103221.00,A,3945.1140,N,00807.5870,W,6.745,201.276,140517,,E,A*06
$GPGGA,103222.00,3945.1121,N,00807.5880,W,1,15,0.669,326.942,M,,M,0,*57
$GPGSA,A,3,10,12,13,15,17,18,19,24,25,70,71,72,1.201,0.669,0.997*38
$GPGSV,6,1,21,4,5,,,10,24,278,37,12,85,268,42,13,11,140,26*45
$GPGSV,6,2,21,14,1,317,,15,43,159,39,17,13,38,27,18,23,250,34*79
$GPGSV,6,3,21,19,26,55,33,24,68,42,36,25,38,234,38,32,20,315,43*79
$GPGSV,6,4,21,70,31,201,26,71,52,272,42,72,21,327,37,73,57,327,30*7D
$GPGSV,6,5,21,74,15,271,28,80,38,46,,81,10,24,31,82,28,72,*48
$GPGSV,6,6,21,83,17,128,*4C
$GPRMC,103222.00,A,3945.1121,N,00807.5880,W,5.872,210.387,140517,,E,A*0A
$GPGGA,103223.00,3945.1101,N,00807.5890,W,1,15,0.669,326.094,M,,M,0,*57
$GPGSA,A,3,10,12,13,15,17,18,19,24,25,70,71,72,1.200,0.669,0.997*39
$GPGSV,5,1,20,10,24,278,34,12,85,268,42,13,11,140,26,14,1,317,*44
$GPGSV,5,2,20,15,43,159,37,17,13,38,25,18,23,250,33,19,26,55,36*78
$GPGSV,5,3,20,24,68,42,33,25,38,234,37,32,20,315,38,70,31,201,26*43
$GPGSV,5,4,20,71,52,272,43,72,21,327,33,73,57,327,31,74,15,271,29*71
$GPGSV,5,5,20,80,38,46,,81,10,24,30,82,28,72,,83,17,128,*44
$GPRMC,103223.00,A,3945.1101,N,00807.5890,W,7.322,200.047,140517,,E,A*0A
$GPGGA,103224.00,3945.1079,N,00807.5901,W,1,15,0.669,325.791,M,,M,0,*56
$GPGSA,A,3,10,12,13,15,17,18,19,24,25,70,71,72,1.200,0.669,0.996*38
$GPGSV,5,1,20,10,24,278,35,12,85,268,41,13,11,140,27,14,1,317,*47
$GPGSV,5,2,20,15,43,159,39,17,13,38,28,18,23,250,34,19,26,55,32*78
$GPGSV,5,3,20,24,68,42,32,25,38,234,36,32,20,315,37,70,31,201,29*43
$GPGSV,5,4,20,71,52,272,44,72,21,327,31,73,57,327,32,74,15,271,31*7E
$GPGSV,5,5,20,80,38,46,,81,9,24,34,82,28,72,,83,17,128,*78
$GPRMC,103224.00,A,3945.1079,N,00807.5901,W,7.242,207.850,140517,,E,A*04
$GPGGA,103225.00,3945.1058,N,00807.5916,W,1,15,0.669,326.349,M,,M,0,*50
$GPGSA,A,3,10,12,13,15,17,18,19,24,25,70,71,72,1.200,0.669,0.996*38
$GPGSV,5,1,20,10,24,278,37,12,85,268,41,13,11,140,29,14,1,317,*4B
$GPGSV,5,2,20,15,43,159,36,17,13,38,27,18,23,250,32,19,26,55,31*7D
$GPGSV,5,3,20,24,68,42,34,25,38,234,36,32,20,315,38,70,31,201,29*4A
$GPGSV,5,4,20,71,52,272,44,72,21,327,27,73,57,327,36,74,15,271,31*7D
$GPGSV,5,5,20,80,38,46,,81,9,24,33,82,28,72,,83,17,128,*7F
$GPRMC,103225.00,A,3945.1058,N,00807.5916,W,8.081,201.685,140517,,E,A*02
$GPGGA,103226.00,3945.1034,N,00807.5931,W,1,15,0.669,327.094,M,,M,0,*5E
$GPGSA,A,3,10,12,13,15,17,18,19,24,25,70,71,72,1.200,0.669,0.996*38
$GPGSV,5,1,20,10,24,278,37,12,85,268,41,13,11,140,28,14,1,317,*4A
$GPGSV,5,2,20,15,43,159,39,17,13,38,29,18,23,250,35,19,26,55,34*7E
$GPGSV,5,3,20,24,68,42,37,25,38,234,40,32,20,315,38,70,31,201,31*41
$GPGSV,5,4,20,71,52,272,43,72,21,327,34,73,57,327,36,74,15,271,31*78
$GPGSV,5,5,20,80,37,46,,81,9,24,34,82,28,72,,83,17,128,*77
$GPRMC,103226.00,A,3945.1034,N,00807.5931,W,7.285,205.082,140517,,E,A*02
$GPGGA,103227.00,3945.1010,N,00807.5943,W,1,15,0.669,327.885,M,,M,0,*54
$GPGSA,A,3,10,12,13,15,17,18,19,24,25,70,71,72,1.200,0.669,0.996*38
$GPGSV,5,1,20,10,24,278,40,12,85,268,41,13,11,140,29,14,1,317,*4B
$GPGSV,5,2,20,15,43,159,46,17,13,38,33,18,23,250,41,19,26,55,36*7C
$GPGSV,5,3,20,24,68,42,37,25,38,234,41,32,20,315,38,70,31,201,32*43
$GPGSV,5,4,20,71,52,272,41,72,21,327,33,73,57,327,36,74,15,271,33*7F
$GPGSV,5,5,20,80,37,46,,81,9,24,32,82,28,72,,83,17,128,*71
$GPRMC,103227.00,A,3945.1010,N,00807.5943,W,7.329,200.208,140517,,E,A*02
$GPGGA,103228.00,3945.0988,N,00807.5955,W,1,15,0.669,328.458,M,,M,0,*56
$GPGSA,A,3,10,12,13,15,17,18,19,24,25,70,71,72,1.200,0.669,0.996*38
$GPGSV,5,1,20,10,24,278,41,12,85,268,46,13,11,140,26,14,1,317,*42
$GPGSV,5,2,20,15,43,159,46,17,13,38,29,18,23,250,41,19,26,55,36*77
$GPGSV,5,3,20,24,68,42,39,25,38,234,42,32,20,315,34,70,31,201,28*49
$GPGSV,5,4,20,71,52,272,40,72,21,327,29,73,57,327,32,74,15,271,34*76
$GPGSV,5,5,20,80,37,46,,81,9,24,27,82,28,72,,83,17,128,*75
$GPRMC,103228.00,A,3945.0988,N,00807.5955,W,8.027,206.235,140517,,E,A*09
$GPGGA,103229.00,3945.0966,N,00807.5967,W,1,15,0.669,328.120,M,,M,0,*5C
$GPGSA,A,3,10,12,13,15,17,18,19,24,25,70,71,72,1.200,0.669,0.996*38
$GPGSV,5,1,20,10,24,278,42,12,85,268,47,13,11,140,24,14,1,317,*42
$GPGSV,5,2,20,15,43,159,44,17,13,38,27,18,23,250,42,19,26,55,35*7B
$GPGSV,5,3,20,24,68,42,38,25,38,234,38,32,20,315,32,70,31,201,28*43
$GPGSV,5,4,20,71,52,272,40,72,21,327,27,73,57,327,29,74,15,271,34*72
$GPGSV,5,5,20,80,37,46,,81,9,24,26,82,28,71,,83,17,128,*77
$GPRMC,103229.00,A,3945.0966,N,00807.5967,W,8.601,198.672,140517,,E,A*08
$GPGGA,103230.00,3945.0943,N,00807.5976,W,1,14,0.701,327.393,M,,M,0,*58
$GPGSA,A,3,10,12,13,15,17,18,19,24,25,70,71,72,1.261,0.701,1.049*3A
$GPGSV,5,1,20,10,24,278,41,12,85,268,48,13,11,140,27,14,1,317,*4D
$GPGSV,5,2,20,15,43,159,45,17,13,38,29,18,23,250,39,19,26,55,32*7F
$GPGSV,5,3,20,24,68,42,37,25,38,234,35,32,20,315,36,70,31,201,27*4A
$GPGSV,5,4,20,71,52,272,41,72,21,327,27,73,57,327,28,74,15,271,32*74
$GPGSV,5,5,20,80,37,46,,81,9,24,23,82,28,71,,83,17,128,*72
$GPRMC,103230.00,A,3945.0943,N,00807.5976,W,8.357,197.936,140517,,E,A*01
$GPGGA,103231.00,3945.0922,N,00807.5985,W,1,15,0.669,326.728,M,,M,0,*59
$GPGSA,A,3,10,12,13,15,17,18,19,24,25,70,71,72,1.200,0.669,0.996*38
$GPGSV,5,1,20,10,24,278,40,12,85,268,48,13,11,140,26,14,1,317,*4D
$GPGSV,5,2,20,15,43,159,43,17,13,38,33,18,23,250,37,19,26,55,29*76
$GPGSV,5,3,20,24,68,42,35,25,38,234,33,32,20,315,40,70,31,201,26*4E
$GPGSV,5,4,20,71,52,272,38,72,21,327,28,73,57,327,31,74,15,271,28*76
$GPGSV,5,5,20,80,37,46,,81,9,24,26,82,28,71,,83,17,128,*77
$GPRMC,103231.00,A,3945.0922,N,00807.5985,W,7.010,196.999,140517,,E,A*00
$GPGGA,103232.00,3945.0902,N,00807.5994,W,1,15,0.669,326.649,M,,M,0,*5E
$GPGSA,A,3,10,12,13,15,17,18,19,24,25,70,71,72,1.200,0.669,0.996*38
$GPGSV,5,1,20,10,24,278,41,12,85,269,48,13,11,140,27,14,1,317,*4C
$GPGSV,5,2,20,15,43,159,42,17,13,38,29,18,23,250,36,19,26,55,32*77
$GPGSV,5,3,20,24,68,42,36,25,38,234,31,32,20,315,34,70,31,201,33*48
$GPGSV,5,4,20,71,52,272,35,72,21,327,28,73,57,327,30,74,15,271,32*71
$GPGSV,5,5,20,80,37,46,,81,9,24,31,82,28,71,,83,17,128,*71
$GPRMC,103232.00,A,3945.0902,N,00807.5994,W,6.656,194.630,140517,,E,A*0A
$GPGGA,103233.00,3945.0882,N,00807.6001,W,1,14,0.710,326.580,M,,M,0,*58
$GPGSA,A,3,10,12,13,15,17,18,19,24,25,70,71,73,1.232,0.710,1.007*37
$GPGSV,6,1,21,4,5,,,10,24,278,41,12,85,269,47,13,10,140,28*4F
$GPGSV,6,2,21,14,1,317,,15,43,159,39,17,13,38,29,18,23,250,35*76
$GPGSV,6,3,21,19,26,55,28,24,68,42,35,25,38,234,36,32,20,315,29*72
$GPGSV,6,4,21,70,31,201,34,71,52,272,29,72,21,327,24,73,57,327,33*72
$GPGSV,6,5,21,74,15,271,36,80,37,46,,81,9,24,27,82,28,71,*74
$GPGSV,6,6,21,83,17,128,*4C
$GPRMC,103233.00,A,3945.0882,N,00807.6001,W,7.166,191.537,140517,,E,A*00
$GPGGA,103234.00,3945.0862,N,00807.6006,W,1,14,0.700,326.624,M,,M,0,*5A
$GPGSA,A,3,10,12,13,15,17,18,19,24,25,70,71,72,1.261,0.700,1.049*3B
$GPGSV,6,1,21,4,5,,,10,24,278,40,12,85,269,45,13,10,140,26*42
$GPGSV,6,2,21,14,1,317,,15,43,159,36,17,13,38,26,18,23,250,36*75
$GPGSV,6,3,21,19,26,55,27,24,68,43,31,25,38,234,39,32,20,315,27*79
$GPGSV,6,4,21,70,31,201,31,71,52,272,26,72,21,327,25,73,57,327,28*73
$GPGSV,6,5,21,74,15,271,35,80,37,46,,81,9,24,23,82,28,71,*73
$GPGSV,6,6,21,83,17,128,*4C
$GPRMC,103234.00,A,3945.0862,N,00807.6006,W,6.799,184.556,140517,,E,A*0A
$GPGGA,103235.00,3945.0841,N,00807.6007,W,1,14,0.700,326.697,M,,M,0,*53
$GPGSA,A,3,10,12,13,15,17,18,19,24,25,70,71,72,1.261,0.700,1.049*3B
$GPGSV,6,1,21,4,5,,,10,24,278,37,12,85,269,44,13,10,140,27*42
$GPGSV,6,2,21,14,1,317,,15,43,159,39,17,13,38,29,18,23,250,34*77
$GPGSV,6,3,21,19,26,55,29,24,68,43,27,25,38,234,42,32,20,315,27*7C
$GPGSV,6,4,21,70,31,201,27,71,52,272,27,72,21,327,26,73,57,327,31*7E
$GPGSV,6,5,21,74,15,271,32,80,37,46,,81,9,24,21,82,28,71,*76
$GPGSV,6,6,21,83,17,127,*43
$GPRMC,103235.00,A,3945.0841,N,00807.6007,W,7.103,175.390,140517,,E,A*0D
$GPGGA,103236.00,3945.0820,N,00807.6008,W,1,14,0.700,327.151,M,,M,0,*54
$GPGSA,A,3,10,12,13,15,17,18,19,24,25,70,71,72,1.261,0.700,1.049*3B
$GPGSV,6,1,21,4,5,,,10,24,278,33,12,85,269,44,13,10,140,29*48
$GPGSV,6,2,21,14,1,317,,15,43,159,36,17,13,38,32,18,23,250,37*71
$GPGSV,6,3,21,19,26,55,30,24,68,43,35,25,38,234,42,32,20,315,29*79
$GPGSV,6,4,21,70,31,201,31,71,52,272,26,72,21,327,25,73,57,327,29*72
$GPGSV,6,5,21,74,15,271,27,80,37,46,,81,9,24,22,82,28,71,*71
$GPGSV,6,6,21,83,17,127,*43
$GPRMC,103236.00,A,3945.0820,N,00807.6008,W,6.704,179.126,140517,,E,A*05
$GPGGA,103237.00,3945.0801,N,00807.6008,W,1,14,0.700,327.279,M,,M,0,*5F
$GPGSA,A,3,10,12,13,15,17,18,19,24,25,70,71,72,1.261,0.700,1.049*3B
$GPGSV,6,1,21,4,5,,,10,24,278,28,12,85,269,43,13,10,140,27*4B
$GPGSV,6,2,21,14,1,317,,15,43,159,35,17,13,38,32,18,23,250,35*70
$GPGSV,6,3,21,19,26,55,35,24,68,43,35,25,38,234,38,32,20,315,31*78
$GPGSV,6,4,21,70,31,201,31,71,52,272,30,72,21,327,29,73,57,327,29*79
$GPGSV,6,5,21,74,15,271,28,80,37,46,,81,9,24,22,82,28,71,*7E
$GPGSV,6,6,21,83,17,127,*43
$GPRMC,103237.00,A,3945.0801,N,00807.6008,W,6.467,170.300,140517,,E,A*0E
$GPGGA,103238.00,3945.0782,N,00807.6003,W,1,13,0.730,326.747,M,,M,0,*52
$GPGSA,A,3,10,12,13,15,17,18,19,24,25,70,71,72,1.332,0.730,1.114*36
$GPGSV,6,1,21,4,5,,,10,24,278,36,12,85,269,38,13,10,140,34*4A
$GPGSV,6,2,21,14,1,317,,15,43,159,36,17,13,38,33,18,23,250,33*74
$GPGSV,6,3,21,19,26,55,36,24,68,43,41,25,38,234,37,32,20,315,28*7F
$GPGSV,6,4,21,70,31,201,28,71,52,272,36,72,21,327,26,73,57,327,29*78
$GPGSV,6,5,21,74,15,271,23,80,37,46,,81,9,24,24,82,28,71,*73
$GPGSV,6,6,21,83,17,127,*43
$GPRMC,103238.00,A,3945.0782,N,00807.6003,W,7.102,162.655,140517,,E,A*0F
$GPGGA,103239.00,3945.0762,N,00807.5994,W,1,13,0.730,326.520,M,,M,0,*5A
$GPGSA,A,3,10,12,13,15,17,18,19,24,25,70,71,72,1.332,0.730,1.113*31
$GPGSV,6,1,21,4,5,,,10,24,278,36,12,85,269,39,13,10,140,32*4D
$GPGSV,6,2,21,14,1,317,,15,43,159,37,17,13,38,34,18,23,250,28*78
$GPGSV,6,3,21,19,26,55,36,24,68,43,43,25,38,234,38,32,20,315,25*7F
$GPGSV,6,4,21,70,31,201,29,71,52,272,36,72,21,327,25,73,57,327,27*74
$GPGSV,6,5,21,74,15,271,22,80,37,46,,81,9,24,23,82,28,71,*75
$GPGSV,6,6,21,83,17,127,*43
$GPRMC,103239.00,A,3945.0762,N,00807.5994,W,7.660,156.593,140517,,E,A*09
$GPGGA,103240.00,3945.0741,N,00807.5983,W,1,14,0.700,325.933,M,,M,0,*5A
$GPGSA,A,3,10,12,13,15,17,18,19,24,25,70,71,72,1.261,0.700,1.048*3A
$GPGSV,6,1,21,4,5,,,10,24,278,35,12,85,269,43,13,10,140,33*42
$GPGSV,6,2,21,14,1,317,,15,43,159,45,17,13,38,37,18,23,250,26*70
$GPGSV,6,3,21,19,26,55,36,24,68,43,44,25,38,234,38,32,20,315,26*7B
$GPGSV,6,4,21,70,31,201,32,71,52,272,33,72,21,327,26,73,57,327,30*7E
$GPGSV,6,5,21,74,15,271,25,80,37,46,33,81,9,24,24,82,28,71,*75
$GPGSV,6,6,21,83,17,127,*43
$GPRMC,103240.00,A,3945.0741,N,00807.5983,W,7.334,156.370,140517,,E,A*0F
$GPGGA,103241.00,3945.0722,N,00807.5976,W,1,12,0.803,325.266,M,,M,0,*55
$GPGSA,A,3,10,12,13,15,17,18,19,24,25,70,71,73,1.423,0.803,1.175*38
$GPGSV,6,1,21,4,5,,,10,24,278,31,12,85,269,42,13,10,140,34*40
$GPGSV,6,2,21,14,1,317,,15,43,159,47,17,13,38,39,18,23,250,28*72
$GPGSV,6,3,21,19,26,55,36,24,68,43,44,25,38,234,42,32,20,315,28*78
$GPGSV,6,4,21,70,31,201,33,71,52,272,31,72,21,327,24,73,57,327,32*7D
$GPGSV,6,5,21,74,16,271,24,80,37,46,30,81,9,24,23,82,28,71,*73
$GPGSV,6,6,21,83,17,127,*43
$GPRMC,103241.00,A,3945.0722,N,00807.5976,W,5.992,156.442,140517,,E,A*03
$GPGGA,103242.00,3945.0704,N,00807.5967,W,1,13,0.756,325.224,M,,M,0,*5A
$GPGSA,A,3,10,12,13,15,17,18,19,24,25,70,71,73,1.317,0.756,1.079*3A
$GPGSV,6,1,21,4,5,,,10,24,278,25,12,85,270,42,13,10,140,35*4C
