$GPGGA,175609.00,3945.1674,N,00807.5337,W,1,9,1.251,309.743,M,,M,0,*6A
$GPGSA,A,3,7,8,10,16,18,21,26,27,71,,,,1.976,1.251,1.529*37
$GPGSV,6,1,22,4,8,225,,7,14,316,36,8,29,286,29,10,33,131,44*72
$GPGSV,6,2,22,11,1,244,,16,85,137,31,18,37,93,36,20,3,33,*70
$GPGSV,6,3,22,21,37,49,33,26,54,144,38,27,61,317,39,70,16,45,*75
$GPGSV,6,4,22,71,19,97,35,72,2,142,,75,5,172,,76,47,205,34*4C
$GPGSV,6,5,22,77,48,304,17,78,2,338,,85,5,59,,86,48,25,27*76
$GPGSV,6,6,22,87,46,286,,88,5,257,*4D
$GPRMC,175609.00,A,3945.1674,N,00807.5337,W,13.393,224.888,140517,,E,A*36
$GPGGA,175610.00,3945.1655,N,00807.5361,W,1,9,1.251,310.040,M,,M,0,*6E
$GPGSA,A,3,7,8,10,16,18,21,26,27,71,,,,1.976,1.251,1.530*3F
$GPGSV,6,1,22,4,8,225,,7,14,316,40,8,29,286,30,10,33,131,42*7D
$GPGSV,6,2,22,11,1,244,,16,85,137,32,18,37,93,41,20,3,33,*73
$GPGSV,6,3,22,21,37,49,29,26,54,144,37,27,61,317,35,70,16,45,*7D
$GPGSV,6,4,22,71,19,97,38,72,2,142,,75,5,172,,76,47,205,33*46
$GPGSV,6,5,22,77,48,304,21,78,2,338,,85,5,59,,86,48,25,24*70
$GPGSV,6,6,22,87,46,286,,88,5,257,*4D
$GPRMC,175610.00,A,3945.1655,N,00807.5361,W,7.417,213.722,140517,,E,A*0B
$GPGGA,175611.00,3945.1647,N,00807.5358,W,1,10,1.237,311.276,M,,M,0,*58
$GPGSA,A,3,7,8,10,16,18,21,26,27,71,77,,,1.941,1.237,1.496*36
$GPGSV,6,1,22,4,8,225,,7,14,316,38,8,29,286,29,10,33,131,41*79
$GPGSV,6,2,22,11,1,244,,16,85,137,28,18,37,93,43,20,3,33,*7A
$GPGSV,6,3,22,21,37,49,31,26,54,144,38,27,61,317,34,70,16,45,*7A
$GPGSV,6,4,22,71,19,97,39,72,2,142,,75,5,172,,76,47,205,27*42
$GPGSV,6,5,22,77,48,304,25,78,2,338,,85,5,59,,86,48,25,28*78
$GPGSV,6,6,22,87,46,286,,88,5,258,*42
$GPRMC,175611.00,A,3945.1647,N,00807.5358,W,1.424,153.477,140517,,E,A*01
$GPGGA,175612.00,3945.1644,N,00807.5360,W,1,9,1.251,311.977,M,,M,0,*61
$GPGSA,A,3,7,8,10,16,18,21,26,27,71,,,,1.977,1.251,1.530*3E
$GPGSV,6,1,22,4,8,225,,7,14,316,34,8,29,286,25,10,33,131,43*7B
$GPGSV,6,2,22,11,1,244,,16,85,137,22,18,37,93,41,20,3,33,*72
$GPGSV,6,3,22,21,37,49,33,26,54,144,42,27,61,317,35,70,16,45,*74
$GPGSV,6,4,22,71,19,97,42,72,2,142,,75,5,172,,76,47,205,30*48
$GPGSV,6,5,22,77,48,304,24,78,2,338,,85,5,59,,86,48,25,23*72
$GPGSV,6,6,22,87,46,286,,88,5,258,*42
$GPRMC,175612.00,A,3945.1644,N,00807.5360,W,0.514,153.477,140517,,E,A*09
$GPGGA,175613.00,3945.1644,N,00807.5360,W,1,9,1.251,312.134,M,,M,0,*6C
$GPGSA,A,3,7,8,10,16,18,21,26,27,71,,,,1.977,1.251,1.531*3F
$GPGSV,6,1,22,4,8,225,,7,14,316,33,8,29,286,22,10,33,131,43*7B
$GPGSV,6,2,22,11,1,244,,16,85,137,22,18,37,93,42,20,3,33,*71
$GPGSV,6,3,22,21,37,49,34,26,54,144,42,27,61,317,40,70,16,45,*71
$GPGSV,6,4,22,71,19,97,41,72,2,142,,75,5,172,,76,47,205,31*4A
$GPGSV,6,5,22,77,48,304,22,78,2,338,,85,5,59,,86,48,25,25*72
$GPGSV,6,6,22,87,46,286,,88,5,258,*42
$GPRMC,175613.00,A,3945.1644,N,00807.5360,W,1.972,153.477,140517,,E,A*05
$GPGGA,175614.00,3945.1640,N,00807.5366,W,1,9,1.251,313.177,M,,M,0,*6F
$GPGSA,A,3,7,8,10,16,18,21,26,27,71,,,,1.977,1.251,1.531*3F
$GPGSV,6,1,22,4,8,225,,7,14,316,36,8,29,286,30,10,34,131,43*7A
$GPGSV,6,2,22,11,1,244,,16,85,137,28,18,37,93,43,20,3,33,*7A
$GPGSV,6,3,22,21,37,49,33,26,54,144,40,27,61,317,40,70,16,45,*74
$GPGSV,6,4,22,71,19,97,43,72,2,142,,75,5,172,,76,47,205,29*41
$GPGSV,6,5,22,77,48,304,24,78,2,338,,85,5,59,,86,48,25,29*78
$GPGSV,6,6,22,87,46,286,,88,5,258,*42
$GPRMC,175614.00,A,3945.1640,N,00807.5366,W,3.368,153.477,140517,,E,A*03
$GPGGA,175615.00,3945.1634,N,00807.5376,W,1,10,1.093,314.311,M,,M,0,*5D
$GPGSA,A,3,7,8,10,16,18,21,26,27,71,86,,,1.814,1.093,1.448*36
$GPGSV,6,1,22,4,8,225,,7,14,316,36,8,29,286,28,10,34,131,44*74
$GPGSV,6,2,22,11,1,244,,16,85,137,26,18,37,93,43,20,3,33,*74
$GPGSV,6,3,22,21,37,49,35,26,54,144,39,27,61,317,36,70,16,45,*7D
$GPGSV,6,4,22,71,19,97,41,72,2,142,,75,5,172,,76,47,205,31*4A
$GPGSV,6,5,22,77,48,304,22,78,2,338,,85,5,59,,86,48,25,30*76
$GPGSV,6,6,22,87,46,286,,88,5,258,*42
$GPRMC,175615.00,A,3945.1634,N,00807.5376,W,5.205,153.477,140517,,E,A*0C
$GPGGA,175616.00,3945.1625,N,00807.5389,W,1,11,1.078,315.339,M,,M,0,*51
$GPGSA,A,3,7,8,10,16,18,21,26,27,71,77,86,,1.788,1.078,1.426*31
$GPGSV,6,1,22,4,8,225,,7,14,316,37,8,29,286,26,10,34,131,42*7D
$GPGSV,6,2,22,11,1,244,,16,85,137,26,18,37,93,42,20,3,33,*75
$GPGSV,6,3,22,21,37,49,31,26,54,144,40,27,61,317,35,70,16,45,*74
$GPGSV,6,4,22,71,19,97,39,72,2,142,,75,5,172,,76,47,205,31*45
$GPGSV,6,5,22,77,48,304,25,78,2,338,,85,5,59,,86,48,25,30*71
$GPGSV,6,6,22,87,46,286,,88,5,258,*42
$GPRMC,175616.00,A,3945.1625,N,00807.5389,W,6.392,153.477,140517,,E,A*03
$GPGGA,175617.00,3945.1615,N,00807.5405,W,1,9,1.251,316.214,M,,M,0,*6D
$GPGSA,A,3,7,8,10,16,18,21,26,27,71,,,,1.978,1.251,1.532*33
$GPGSV,6,1,22,4,8,225,,7,14,316,35,8,29,286,25,10,34,131,41*7F
$GPGSV,6,2,22,11,1,244,,16,85,137,32,18,37,93,38,20,3,33,*7D
$GPGSV,6,3,22,21,37,49,34,26,54,144,41,27,61,317,32,70,16,45,*77
$GPGSV,6,4,22,71,19,96,38,72,2,142,,75,5,172,,76,47,205,32*46
$GPGSV,6,5,22,77,48,304,24,78,2,338,,85,5,59,,86,48,25,31*71
$GPGSV,6,6,22,87,46,286,,88,6,258,*41
$GPRMC,175617.00,A,3945.1615,N,00807.5405,W,5.568,153.477,140517,,E,A*02
$GPGGA,175618.00,3945.1611,N,00807.5419,W,1,9,1.251,317.416,M,,M,0,*6E
$GPGSA,A,3,7,8,10,16,18,21,26,27,71,,,,1.978,1.251,1.532*33
$GPGSV,6,1,22,4,8,225,,7,14,316,31,8,29,286,29,10,34,131,37*76
$GPGSV,6,2,22,11,1,244,,16,85,137,35,18,37,93,35,20,3,33,*77
$GPGSV,6,3,22,21,37,49,31,26,54,144,38,27,61,317,40,70,16,45,*79
$GPGSV,6,4,22,71,19,96,33,72,2,142,,75,5,172,,76,47,205,29*47
$GPGSV,6,5,22,77,48,304,23,78,2,338,,85,5,59,,86,48,25,31*76
$GPGSV,6,6,22,87,46,286,,88,6,258,*41
$GPRMC,175618.00,A,3945.1611,N,00807.5419,W,5.517,153.477,140517,,E,A*0C
$GPGGA,175619.00,3945.1607,N,00807.5436,W,1,10,1.237,317.849,M,,M,0,*5B
$GPGSA,A,3,7,8,10,16,18,21,26,27,71,77,,,1.943,1.237,1.499*3B
$GPGSV,6,1,22,4,8,225,,7,14,316,34,8,29,286,27,10,34,131,38*72
$GPGSV,6,2,22,11,1,244,,16,85,137,36,18,37,93,34,20,3,33,*75
$GPGSV,6,3,22,21,37,49,35,26,54,144,37,27,61,317,34,70,16,45,*71
$GPGSV,6,4,22,71,19,96,31,72,2,142,,75,5,172,,76,47,205,27*4B
$GPGSV,6,5,22,77,48,304,28,78,2,338,,85,5,59,,86,48,25,33*7F
$GPGSV,6,6,22,87,46,286,,88,6,258,*41
$GPRMC,175619.00,A,3945.1607,N,00807.5436,W,5.849,153.477,140517,,E,A*01
$GPGGA,175620.00,3945.1601,N,00807.5453,W,1,10,1.237,317.819,M,,M,0,*51
$GPGSA,A,3,7,8,10,16,18,21,26,27,71,77,,,1.943,1.237,1.499*3B
$GPGSV,6,1,22,4,8,225,,7,14,316,38,8,29,286,26,10,34,131,41*71
$GPGSV,6,2,22,11,1,244,,16,85,137,36,18,37,93,36,20,3,33,*77
$GPGSV,6,3,22,21,37,49,33,26,54,144,42,27,61,317,34,70,16,45,*75
$GPGSV,6,4,22,71,19,96,30,72,2,142,,75,5,172,,76,47,205,28*45
$GPGSV,6,5,22,77,48,304,25,78,2,338,,85,5,59,,86,48,25,31*70
$GPGSV,6,6,22,87,46,286,,88,6,258,*41
$GPRMC,175620.00,A,3945.1601,N,00807.5453,W,5.739,153.477,140517,,E,A*06
$GPGGA,175621.00,3945.1596,N,00807.5472,W,1,9,1.251,317.770,M,,M,0,*66
$GPGSA,A,3,7,8,10,16,18,21,26,27,71,,,,1.979,1.251,1.533*33
$GPGSV,6,1,22,4,8,225,,7,14,316,38,8,29,286,29,10,34,131,36*7E
$GPGSV,6,2,22,11,1,244,,16,85,137,36,18,37,93,34,20,3,33,*75
$GPGSV,6,3,22,21,37,49,33,26,54,144,42,27,61,317,34,70,16,45,*75
$GPGSV,6,4,22,71,19,96,29,72,2,142,,75,5,172,,76,47,205,29*4C
$GPGSV,6,5,22,77,48,304,21,78,2,338,,85,5,59,,86,48,25,27*73
$GPGSV,6,6,22,87,46,286,,88,6,258,*41
$GPRMC,175621.00,A,3945.1596,N,00807.5472,W,5.580,153.477,140517,,E,A*09
$GPGGA,175622.00,3945.1592,N,00807.5490,W,1,9,1.251,317.692,M,,M,0,*60
$GPGSA,A,3,7,8,10,16,18,21,26,27,71,,,,1.979,1.251,1.534*34
$GPGSV,6,1,22,4,8,225,,7,14,316,37,8,29,286,30,10,34,131,38*77
$GPGSV,6,2,22,11,1,244,,16,85,137,34,18,37,93,36,20,3,33,*75
$GPGSV,6,3,22,21,37,49,33,26,54,145,45,27,61,317,34,70,16,45,*73
$GPGSV,6,4,22,71,19,96,31,72,2,142,,75,5,172,,76,47,205,30*4D
$GPGSV,6,5,22,77,48,304,20,78,2,338,,85,5,59,32,86,48,25,27*73
$GPGSV,6,6,22,87,46,286,,88,6,258,*41
$GPRMC,175622.00,A,3945.1592,N,00807.5490,W,5.441,153.477,140517,,E,A*0E
$GPGGA,175623.00,3945.1586,N,00807.5510,W,1,11,1.038,317.329,M,,M,0,*5C
$GPGSA,A,3,7,8,10,16,18,21,26,27,71,85,86,,1.639,1.038,1.269*3E
$GPGSV,6,1,22,4,8,225,,7,14,316,36,8,29,286,26,10,34,131,42*7C
$GPGSV,6,2,22,11,1,244,,16,85,137,34,18,37,93,36,20,3,33,*75
$GPGSV,6,3,22,21,37,49,32,26,54,145,44,27,61,317,31,70,16,45,*76
$GPGSV,6,4,22,71,19,96,32,72,2,142,,75,5,172,,76,47,205,32*4C
$GPGSV,6,5,22,77,48,304,21,78,2,338,,85,5,59,34,86,48,25,30*72
$GPGSV,6,6,22,87,46,286,,88,6,258,*41
$GPRMC,175623.00,A,3945.1586,N,00807.5510,W,5.976,153.477,140517,,E,A*0A
$GPGGA,175624.00,3945.1580,N,00807.5531,W,1,12,1.024,317.432,M,,M,0,*5D
$GPGSA,A,3,7,8,10,16,18,21,26,27,71,77,85,86,1.621,1.024,1.257*37
$GPGSV,6,1,22,4,8,225,,7,14,316,36,8,29,286,28,10,34,131,40*70
$GPGSV,6,2,22,11,1,244,,16,85,137,35,18,37,93,34,20,3,33,*76
$GPGSV,6,3,22,21,37,49,35,26,54,145,45,27,61,317,29,70,16,45,*79
$GPGSV,6,4,22,71,19,96,27,72,2,142,,75,5,172,,76,47,205,31*4B
$GPGSV,6,5,22,77,48,304,25,78,2,338,,85,5,59,35,86,48,25,30*77
$GPGSV,6,6,22,87,46,286,,88,6,258,*41
$GPRMC,175624.00,A,3945.1580,N,00807.5531,W,5.717,153.477,140517,,E,A*01
$GPGGA,175625.00,3945.1575,N,00807.5551,W,1,12,1.024,318.141,M,,M,0,*5E
$GPGSA,A,3,7,8,10,16,18,21,26,27,71,77,85,86,1.621,1.024,1.257*37
$GPGSV,6,1,22,4,8,225,,7,14,316,37,8,29,286,25,10,34,131,40*7C
$GPGSV,6,2,22,11,1,244,,16,85,137,36,18,37,93,35,20,3,33,*74
$GPGSV,6,3,22,21,37,49,36,26,54,145,45,27,61,317,28,70,16,45,*7B
$GPGSV,6,4,22,71,19,96,29,72,2,141,,75,5,172,,76,47,205,29*4F
$GPGSV,6,5,22,77,48,304,28,78,2,338,,85,5,59,36,86,48,25,31*78
$GPGSV,6,6,22,87,46,286,,88,6,258,*41
$GPRMC,175625.00,A,3945.1575,N,00807.5551,W,6.380,153.477,140517,,E,A*05
$GPGGA,175626.00,3945.1570,N,00807.5573,W,1,11,1.077,318.561,M,,M,0,*5B
$GPGSA,A,3,7,8,10,16,18,21,26,27,71,77,86,,1.790,1.077,1.429*38
$GPGSV,6,1,22,4,8,225,,7,14,316,38,8,29,286,26,10,34,131,38*7F
$GPGSV,6,2,22,11,1,244,,16,85,137,35,18,37,93,35,20,3,33,*77
$GPGSV,6,3,22,21,37,49,34,26,54,145,44,27,61,317,30,70,16,45,*71
$GPGSV,6,4,22,71,19,96,29,72,2,141,,75,5,172,,76,47,205,28*4E
$GPGSV,6,5,22,77,48,304,27,78,2,338,,85,5,59,34,86,48,25,30*74
$GPGSV,6,6,22,87,46,286,,88,6,258,*41
$GPRMC,175626.00,A,3945.1570,N,00807.5573,W,6.627,153.477,140517,,E,A*0B
$GPGGA,175627.00,3945.1564,N,00807.5595,W,1,10,1.093,318.737,M,,M,0,*5D
$GPGSA,A,3,7,8,10,16,18,21,26,27,71,86,,,1.817,1.093,1.451*3D
$GPGSV,6,1,22,4,8,225,,7,14,316,38,8,29,286,29,10,34,131,38*70
$GPGSV,6,2,22,11,1,244,,16,85,137,34,18,37,93,35,20,3,33,*76
$GPGSV,6,3,22,21,37,49,35,26,54,145,45,27,61,317,32,70,16,45,*73
$GPGSV,6,4,22,71,19,96,30,72,2,141,,75,5,172,,76,47,205,31*4E
$GPGSV,6,5,22,77,48,304,21,78,2,338,,85,5,59,31,86,48,25,28*7E
$GPGSV,6,6,22,87,46,286,,88,6,258,*41
$GPRMC,175627.00,A,3945.1564,N,00807.5595,W,6.249,153.477,140517,,E,A*0B
$GPGGA,175628.00,3945.1561,N,00807.5617,W,1,10,1.093,319.478,M,,M,0,*57
$GPGSA,A,3,7,8,10,16,18,21,26,27,71,86,,,1.817,1.093,1.451*3D
$GPGSV,6,1,22,4,8,225,,7,14,316,34,8,29,286,33,10,34,131,39*76
$GPGSV,6,2,22,11,1,244,,16,85,137,34,18,37,93,35,20,3,33,*76
$GPGSV,6,3,22,21,37,49,32,26,54,145,46,27,61,317,31,70,16,45,*74
$GPGSV,6,4,22,71,19,96,28,72,2,141,,75,5,172,,76,47,205,31*47
$GPGSV,6,5,22,77,48,304,21,78,2,338,,85,5,59,33,86,48,25,32*77
$GPGSV,6,6,22,87,46,287,,88,6,258,*40
$GPRMC,175628.00,A,3945.1561,N,00807.5617,W,5.946,153.477,140517,,E,A*0F
$GPGGA,175629.00,3945.1557,N,00807.5641,W,1,10,1.093,320.873,M,,M,0,*5D
$GPGSA,A,3,7,8,10,16,18,21,26,27,71,86,,,1.817,1.093,1.452*3E
$GPGSV,6,1,22,4,8,225,,7,14,316,32,8,29,286,33,10,34,131,39*70
$GPGSV,6,2,22,11,1,244,,16,85,137,35,18,37,93,34,20,3,33,*76
$GPGSV,6,3,22,21,37,49,29,26,54,145,46,27,61,318,33,70,16,45,*73
$GPGSV,6,4,22,71,19,96,29,72,2,141,,75,5,172,,76,47,205,31*46
$GPGSV,6,5,22,77,48,304,20,78,2,338,,85,5,59,30,86,48,25,32*75
$GPGSV,6,6,22,87,46,287,,88,6,258,*40
$GPRMC,175629.00,A,3945.1557,N,00807.5641,W,7.636,153.477,140517,,E,A*02
$GPGGA,175630.00,3945.1548,N,00807.5666,W,1,11,1.077,321.059,M,,M,0,*54
$GPGSA,A,3,7,8,10,16,18,21,26,27,71,77,86,,1.791,1.077,1.430*31
$GPGSV,6,1,22,4,8,225,,7,14,316,28,8,29,286,29,10,34,131,42*7C
$GPGSV,6,2,22,11,1,244,,16,85,137,36,18,37,93,35,20,3,33,*74
$GPGSV,6,3,22,21,37,49,32,26,54,145,44,27,61,318,32,70,16,45,*7A
$GPGSV,6,4,22,71,19,96,30,72,2,141,,75,5,172,,76,47,205,33*4C
$GPGSV,6,5,22,77,48,304,26,78,2,338,,85,5,59,26,86,48,25,29*7E
$GPGSV,6,6,22,87,46,287,,88,6,258,*40
$GPRMC,175630.00,A,3945.1548,N,00807.5666,W,6.328,153.477,140517,,E,A*0A
$GPGGA,175631.00,3945.1539,N,00807.5687,W,1,10,1.093,320.808,M,,M,0,*5A
$GPGSA,A,3,7,8,10,16,18,21,26,27,71,86,,,1.818,1.093,1.452*31
$GPGSV,6,1,22,4,8,225,,7,14,316,27,8,29,286,25,10,34,131,44*79
$GPGSV,6,2,22,11,1,244,,16,85,137,37,18,37,93,34,20,3,33,*74
$GPGSV,6,3,22,21,37,49,33,26,54,145,42,27,61,318,30,70,16,45,*7F
$GPGSV,6,4,22,71,19,96,32,72,2,141,,75,5,172,,76,47,205,34*49
$GPGSV,6,5,22,77,48,304,24,78,2,338,,85,5,59,24,86,48,25,29*7E
$GPGSV,6,6,22,87,46,287,,88,6,258,*40
$GPRMC,175631.00,A,3945.1539,N,00807.5687,W,5.956,153.477,140517,,E,A*02
$GPGGA,175632.00,3945.1530,N,00807.5707,W,1,9,1.251,320.801,M,,M,0,*64
$GPGSA,A,3,7,8,10,16,18,21,26,27,71,,,,1.982,1.251,1.537*33
$GPGSV,6,1,22,4,8,225,,7,14,316,27,8,29,286,28,10,34,131,46*76
$GPGSV,6,2,22,11,1,244,,16,85,138,38,18,37,93,35,20,3,33,*75
$GPGSV,6,3,22,21,37,49,30,26,54,145,40,27,61,318,30,70,16,45,*7E
$GPGSV,6,4,22,71,19,96,34,72,2,141,,75,5,172,,76,47,205,34*4F
$GPGSV,6,5,22,77,48,304,22,78,2,338,,85,5,59,24,86,48,25,31*71
$GPGSV,6,6,22,87,46,287,,88,6,258,*40
$GPRMC,175632.00,A,3945.1530,N,00807.5707,W,6.453,153.477,140517,,E,A*0A
$GPGGA,175633.00,3945.1519,N,00807.5727,W,1,11,1.077,321.371,M,,M,0,*5E
$GPGSA,A,3,7,8,10,16,18,21,26,27,71,77,86,,1.791,1.077,1.431*30
$GPGSV,6,1,22,4,8,225,,7,14,316,32,8,29,286,29,10,34,131,47*72
$GPGSV,6,2,22,11,1,244,,16,85,138,37,18,37,93,35,20,3,33,*7A
$GPGSV,6,3,22,21,37,49,30,26,54,145,40,27,61,318,29,70,16,45,*76
$GPGSV,6,4,22,71,19,96,35,72,2,141,,75,5,172,,76,47,205,33*49
$GPGSV,6,5,22,77,48,304,25,78,2,338,,85,5,59,25,86,48,25,33*75
$GPGSV,6,6,22,87,46,287,,88,6,258,*40
$GPRMC,175633.00,A,3945.1519,N,00807.5727,W,6.330,153.477,140517,,E,A*00
$GPGGA,175634.00,3945.1507,N,00807.5746,W,1,10,1.093,322.280,M,,M,0,*56
$GPGSA,A,3,7,8,10,16,18,21,26,27,71,86,,,1.818,1.093,1.453*30
$GPGSV,6,1,22,4,8,225,,7,14,316,30,8,29,286,31,10,34,131,47*79
$GPGSV,6,2,22,11,1,244,,16,85,138,37,18,37,93,36,20,3,33,*79
$GPGSV,6,3,22,21,37,49,30,26,54,145,41,27,61,318,34,70,16,45,*7B
$GPGSV,6,4,22,71,19,96,35,72,2,141,,75,5,172,,76,47,205,32*48
$GPGSV,6,5,22,77,48,304,23,78,2,338,,85,4,59,32,86,48,25,35*72
$GPGSV,6,6,22,87,46,287,,88,6,258,*40
$GPRMC,175634.00,A,3945.1507,N,00807.5746,W,6.630,153.477,140517,,E,A*0A
$GPGGA,175635.00,3945.1495,N,00807.5763,W,1,10,1.093,322.809,M,,M,0,*51
$GPGSA,A,3,7,8,10,16,18,21,26,27,71,86,,,1.818,1.093,1.453*30
$GPGSV,6,1,22,4,8,225,,7,14,316,31,8,29,286,31,10,34,131,45*7A
$GPGSV,6,2,22,11,1,244,,16,85,138,37,18,37,93,39,20,3,33,*76
$GPGSV,6,3,22,21,37,49,29,26,54,145,44,27,61,318,30,70,16,45,*72
$GPGSV,6,4,22,71,19,96,37,72,2,141,,75,5,172,,76,47,205,27*4E
$GPGSV,6,5,22,77,48,304,21,78,2,338,,85,4,59,33,86,48,25,34*70
$GPGSV,6,6,22,87,46,287,,88,6,258,*40
$GPRMC,175635.00,A,3945.1495,N,00807.5763,W,5.622,153.477,140517,,E,A*06
$GPGGA,175636.00,3945.1482,N,00807.5781,W,1,11,1.039,322.996,M,,M,0,*5E
$GPGSA,A,3,7,8,10,16,18,21,26,27,71,85,86,,1.641,1.039,1.270*38
$GPGSV,6,1,22,4,8,225,,7,14,316,35,8,29,286,31,10,34,131,44*7F
$GPGSV,6,2,22,11,1,244,,16,85,138,36,18,37,93,37,20,3,33,*79
$GPGSV,6,3,22,21,37,49,27,26,54,145,42,27,61,318,30,70,16,45,*7A
$GPGSV,6,4,22,71,19,96,39,72,2,141,,75,5,172,,76,47,205,26*41
$GPGSV,6,5,22,77,48,304,22,78,2,338,,85,4,59,30,86,48,25,28*7D
$GPGSV,6,6,22,87,46,287,,88,6,258,*40
$GPRMC,175636.00,A,3945.1482,N,00807.5781,W,5.982,153.477,140517,,E,A*0A
$GPGGA,175637.00,3945.1469,N,00807.5798,W,1,11,1.039,323.087,M,,M,0,*5A
$GPGSA,A,3,7,8,10,16,18,21,26,27,71,85,86,,1.641,1.039,1.270*38
$GPGSV,6,1,22,4,8,225,,7,14,316,33,8,29,286,33,10,34,131,41*7E
$GPGSV,6,2,22,11,1,244,,16,85,138,37,18,37,93,35,20,3,33,*7A
$GPGSV,6,3,22,21,37,49,29,26,54,145,40,27,61,318,33,70,16,45,*75
$GPGSV,6,4,22,71,19,96,34,72,2,141,,75,5,172,,76,47,205,28*42
$GPGSV,6,5,22,77,48,304,23,78,2,338,,85,4,59,25,86,48,25,33*72
$GPGSV,6,6,22,87,46,287,,88,6,258,*40
$GPRMC,175637.00,A,3945.1469,N,00807.5798,W,5.679,221.506,140517,,E,A*0C
$GPGGA,175638.00,3945.1456,N,00807.5813,W,1,11,1.039,323.365,M,,M,0,*5A
$GPGSA,A,3,7,8,10,16,18,21,26,27,71,85,86,,1.641,1.039,1.271*39
$GPGSV,6,1,22,4,8,225,,7,14,316,34,8,29,286,30,10,34,131,37*7B
$GPGSV,6,2,22,11,1,244,,16,85,138,36,18,37,93,37,20,3,33,*79
$GPGSV,6,3,22,21,37,49,31,26,54,145,39,27,61,318,37,70,16,45,*76
$GPGSV,6,4,22,71,19,96,35,72,2,141,,75,5,172,,76,47,205,29*42
$GPGSV,6,5,22,77,48,304,22,78,2,338,,85,4,59,25,86,48,25,33*73
$GPGSV,6,6,22,87,46,287,,88,6,258,*40
$GPRMC,175638.00,A,3945.1456,N,00807.5813,W,5.722,219.359,140517,,E,A*0B
$GPGGA,175639.00,3945.1441,N,00807.5827,W,1,11,1.039,323.302,M,,M,0,*5B
$GPGSA,A,3,7,8,10,16,18,21,26,27,71,85,86,,1.641,1.039,1.271*39
$GPGSV,6,1,22,4,8,225,,7,14,316,32,8,29,286,28,10,34,131,39*7A
$GPGSV,6,2,22,11,1,244,,16,85,138,34,18,37,93,39,20,3,33,*75
$GPGSV,6,3,22,21,37,49,30,26,54,145,40,27,61,318,38,70,16,45,*76
$GPGSV,6,4,22,71,19,96,29,72,2,141,,75,5,172,,76,47,205,31*46
$GPGSV,6,5,22,77,48,304,22,78,2,338,,85,4,59,27,86,48,25,37*75
$GPGSV,6,6,22,87,46,287,,88,6,258,*40
$GPRMC,175639.00,A,3945.1441,N,00807.5827,W,6.034,211.033,140517,,E,A*0F
$GPGGA,175640.00,3945.1425,N,00807.5836,W,1,12,1.025,323.330,M,,M,0,*58
$GPGSA,A,3,7,8,10,16,18,21,26,27,71,77,85,86,1.624,1.025,1.259*3D
$GPGSV,6,1,22,4,8,225,,7,14,316,29,8,29,286,31,10,34,131,35*74
$GPGSV,6,2,22,11,1,244,,16,85,138,33,18,37,93,41,20,3,33,*7D
$GPGSV,6,3,22,21,37,49,34,26,54,145,35,27,61,318,34,70,16,45,*7C
$GPGSV,6,4,22,71,19,96,32,72,2,141,,75,5,172,,76,47,205,30*4D
$GPGSV,6,5,22,77,48,304,28,78,2,338,,85,4,60,26,86,48,25,35*76
$GPGSV,6,6,22,87,46,287,,88,6,258,*40
$GPRMC,175640.00,A,3945.1425,N,00807.5836,W,6.272,193.840,140517,,E,A*06
$GPGGA,175641.00,3945.1407,N,00807.5841,W,1,11,1.077,323.532,M,,M,0,*59
$GPGSA,A,3,7,8,10,16,18,21,26,27,71,77,86,,1.793,1.077,1.433*30
$GPGSV,6,1,22,4,8,225,,7,14,316,28,8,29,286,30,10,34,131,32*73
$GPGSV,6,2,22,11,1,244,,16,85,138,35,18,37,93,42,20,3,33,*78
$GPGSV,6,3,22,21,37,49,33,26,54,145,35,27,61,318,35,70,16,45,*7A
$GPGSV,6,4,22,71,19,96,32,72,2,141,,75,5,172,,76,47,205,32*4F
$GPGSV,6,5,22,77,48,304,28,78,2,338,,85,4,60,22,86,48,25,32*75
$GPGSV,6,6,22,87,46,287,,88,6,258,*40
$GPRMC,175641.00,A,3945.1407,N,00807.5841,W,6.991,191.781,140517,,E,A*01
$GPGGA,175642.00,3945.1390,N,00807.5845,W,1,10,1.093,323.854,M,,M,0,*51
$GPGSA,A,3,7,8,10,16,18,21,26,27,71,86,,,1.820,1.093,1.456*3E
$GPGSV,6,1,22,4,8,225,,7,14,316,33,8,29,286,33,10,34,131,35*7D
$GPGSV,6,2,22,11,1,244,,16,85,138,33,18,37,93,43,20,3,33,*7F
$GPGSV,6,3,22,21,37,49,36,26,54,145,35,27,61,318,31,70,16,45,*7B
$GPGSV,6,4,22,71,19,96,37,72,2,141,,75,5,172,,76,47,205,31*49
$GPGSV,6,5,22,77,48,304,24,78,2,338,,85,4,60,22,86,48,26,33*7B
$GPGSV,6,6,22,87,46,287,,88,6,258,*40
$GPRMC,175642.00,A,3945.1390,N,00807.5845,W,6.513,191.887,140517,,E,A*00
$GPGGA,175643.00,3945.1374,N,00807.5849,W,1,11,1.077,324.425,M,,M,0,*50
$GPGSA,A,3,7,8,10,16,18,21,26,27,71,77,86,,1.793,1.077,1.434*37
$GPGSV,6,1,22,4,8,225,,7,14,316,33,8,29,286,37,10,34,131,34*78
$GPGSV,6,2,22,11,1,244,,16,85,138,32,18,37,93,43,20,3,33,*7E
$GPGSV,6,3,22,21,37,49,37,26,54,145,34,27,61,318,38,70,16,45,*72
$GPGSV,6,4,22,71,19,96,36,72,2,141,,75,5,172,,76,47,205,30*49
$GPGSV,6,5,22,77,48,304,26,78,2,338,,85,4,60,19,86,48,26,30*72
$GPGSV,6,6,22,87,46,287,,88,6,258,*40
$GPRMC,175643.00,A,3945.1374,N,00807.5849,W,6.827,190.763,140517,,E,A*09
$GPGGA,175644.00,3945.1356,N,00807.5852,W,1,11,1.077,324.345,M,,M,0,*5C
$GPGSA,A,3,7,8,10,16,18,21,26,27,71,77,86,,1.793,1.077,1.434*37
$GPGSV,6,1,22,4,8,225,,7,14,316,34,8,29,286,33,10,34,131,34*7B
$GPGSV,6,2,22,11,1,244,,16,85,138,30,18,37,93,37,20,3,33,*7F
$GPGSV,6,3,22,21,37,49,38,26,54,145,35,27,61,318,38,70,16,45,*7C
$GPGSV,6,4,22,71,19,96,29,72,2,141,,75,5,172,,76,47,205,27*41
$GPGSV,6,5,22,77,48,304,30,78,2,338,,85,4,60,18,86,48,26,31*75
$GPGSV,6,6,22,87,46,287,,88,6,258,*40
$GPRMC,175644.00,A,3945.1356,N,00807.5852,W,7.154,186.972,140517,,E,A*01
$GPGGA,175645.00,3945.1337,N,00807.5853,W,1,10,1.109,324.378,M,,M,0,*5C
$GPGSA,A,3,7,8,10,16,18,21,26,27,77,86,,,1.983,1.109,1.644*33
$GPGSV,6,1,22,4,8,225,,7,14,316,32,8,29,286,30,10,34,131,31*7B
$GPGSV,6,2,22,11,1,244,,16,85,138,31,18,37,93,35,20,2,33,*7D
$GPGSV,6,3,22,21,37,49,37,26,54,145,35,27,61,318,34,70,16,45,*7F
$GPGSV,6,4,22,71,19,96,24,72,2,141,,75,5,172,,76,47,205,29*42
$GPGSV,6,5,22,77,48,304,30,78,2,338,,85,4,60,19,86,48,26,27*73
$GPGSV,6,6,22,87,46,287,,88,6,258,*40
$GPRMC,175645.00,A,3945.1337,N,00807.5853,W,7.371,185.842,140517,,E,A*02
$GPGGA,175646.00,3945.1319,N,00807.5854,W,1,10,1.109,324.554,M,,M,0,*5C
$GPGSA,A,3,7,8,10,16,18,21,26,27,77,86,,,1.983,1.109,1.644*33
$GPGSV,6,1,22,4,8,225,,7,14,316,32,8,29,286,27,10,34,131,32*7E
$GPGSV,6,2,22,11,1,244,,16,85,138,29,18,37,93,35,20,2,33,*74
$GPGSV,6,3,22,21,37,49,35,26,54,145,34,27,61,318,33,70,16,45,*7B
$GPGSV,6,4,22,71,19,96,20,72,2,141,,75,5,172,,76,47,205,27*48
$GPGSV,6,5,22,77,48,304,30,78,2,338,,85,4,60,18,86,48,26,29*7C
$GPGSV,6,6,22,87,46,287,,88,6,258,*40
$GPRMC,175646.00,A,3945.1319,N,00807.5854,W,6.346,179.751,140517,,E,A*01
$GPGGA,175647.00,3945.1300,N,00807.5853,W,1,10,1.109,324.541,M,,M,0,*56
$GPGSA,A,3,7,8,10,16,18,21,26,27,77,86,,,1.983,1.109,1.644*33
$GPGSV,6,1,22,4,8,225,,7,14,316,33,8,29,286,28,10,34,131,33*71
$GPGSV,6,2,22,11,1,244,,16,85,138,31,18,37,93,35,20,2,33,*7D
$GPGSV,6,3,22,21,37,49,35,26,54,145,34,27,61,318,29,70,16,45,*70
$GPGSV,6,4,22,71,19,96,16,72,2,141,,75,5,172,,76,47,205,29*43
$GPGSV,6,5,22,77,48,304,30,78,2,338,,85,4,60,19,86,48,26,30*75
$GPGSV,6,6,22,87,46,287,,88,6,258,*40
$GPRMC,175647.00,A,3945.1300,N,00807.5853,W,6.139,174.821,140517,,E,A*00
$GPGGA,175648.00,3945.1284,N,00807.5851,W,1,10,1.109,324.743,M,,M,0,*56
$GPGSA,A,3,7,8,10,16,18,21,26,27,77,86,,,1.983,1.109,1.644*33
$GPGSV,6,1,22,4,8,225,,7,14,316,34,8,29,286,28,10,34,131,31*74
$GPGSV,6,2,22,11,1,244,,16,85,138,30,18,37,93,36,20,2,33,*7F
$GPGSV,6,3,22,21,37,49,39,26,54,145,32,27,61,318,27,70,16,45,*74
$GPGSV,6,4,22,71,19,96,20,72,2,141,,75,5,172,,76,47,205,29*46
$GPGSV,6,5,22,77,48,304,32,78,2,338,,85,4,60,19,86,48,26,26*70
$GPGSV,6,6,22,87,46,287,,88,6,258,*40
$GPRMC,175648.00,A,3945.1284,N,00807.5851,W,5.958,181.202,140517,,E,A*0D
$GPGGA,175649.00,3945.1268,N,00807.5851,W,1,10,1.109,325.033,M,,M,0,*54
$GPGSA,A,3,7,8,10,16,18,21,26,27,77,86,,,1.984,1.109,1.645*35
$GPGSV,6,1,22,4,8,225,,7,14,316,35,8,29,286,27,10,34,131,29*73
$GPGSV,6,2,22,11,1,244,,16,85,138,30,18,37,93,34,20,2,33,*7D
$GPGSV,6,3,22,21,37,49,40,26,54,145,33,27,61,318,34,70,16,45,*79
$GPGSV,6,4,22,71,19,96,20,72,2,141,,75,5,172,,76,47,205,31*4F
$GPGSV,6,5,22,77,48,304,31,78,2,338,,85,4,60,19,86,48,26,30*74
$GPGSV,6,6,22,87,46,287,,88,6,258,*40
$GPRMC,175649.00,A,3945.1268,N,00807.5851,W,5.207,182.324,140517,,E,A*09
$GPGGA,175650.00,3945.1253,N,00807.5852,W,1,10,1.109,324.905,M,,M,0,*5A
$GPGSA,A,3,7,8,10,16,18,21,26,27,77,86,,,1.984,1.109,1.645*35
$GPGSV,6,1,22,4,8,225,,7,14,316,33,8,29,286,26,10,34,131,32*7E
$GPGSV,6,2,22,11,1,244,,16,85,138,29,18,37,93,34,20,2,33,*75
$GPGSV,6,3,22,21,37,49,35,26,54,145,33,27,61,318,34,70,16,45,*7B
$GPGSV,6,4,22,71,19,96,20,72,2,141,,75,5,172,,76,47,205,29*46
$GPGSV,6,5,22,77,48,304,27,78,2,338,,85,4,60,19,86,48,26,29*7B
$GPGSV,6,6,22,87,46,287,,88,6,258,*40
$GPRMC,175650.00,A,3945.1253,N,00807.5852,W,5.025,183.888,140517,,E,A*04
$GPGGA,175651.00,3945.1237,N,00807.5853,W,1,10,1.109,324.583,M,,M,0,*5A
$GPGSA,A,3,7,8,10,16,18,21,26,27,77,86,,,1.984,1.109,1.645*35
$GPGSV,6,1,22,4,8,225,,7,14,316,30,8,29,286,26,10,34,131,32*7D
$GPGSV,6,2,22,11,1,244,,16,85,138,29,18,37,93,34,20,2,33,*75
$GPGSV,6,3,22,21,37,49,36,26,54,145,33,27,61,318,34,70,16,45,*78
$GPGSV,6,4,22,71,19,96,24,72,2,141,,75,5,172,,76,47,205,30*4A
$GPGSV,6,5,22,77,48,304,30,78,2,338,,85,4,60,18,86,48,26,28*7D
$GPGSV,6,6,22,87,46,287,,88,6,258,*40
$GPRMC,175651.00,A,3945.1237,N,00807.5853,W,5.893,183.535,140517,,E,A*08
$GPGGA,175652.00,3945.1221,N,00807.5854,W,1,10,1.109,324.662,M,,M,0,*55
$GPGSA,A,3,7,8,10,16,18,21,26,27,77,86,,,1.984,1.109,1.645*35
$GPGSV,6,1,22,4,8,225,,7,14,316,31,8,29,286,25,10,34,131,28*74
$GPGSV,6,2,22,11,1,244,,16,85,138,30,18,37,93,34,20,2,33,*7D
$GPGSV,6,3,22,21,37,49,38,26,54,145,33,27,61,318,30,70,16,45,*72
$GPGSV,6,4,22,71,19,96,22,72,2,141,,75,5,172,,76,47,205,29*44
$GPGSV,6,5,22,77,48,304,29,78,2,338,,85,4,60,16,86,48,26,28*7B
$GPGSV,6,6,22,87,46,287,,88,6,258,*40
$GPRMC,175652.00,A,3945.1221,N,00807.5854,W,5.382,188.689,140517,,E,A*0F
$GPGGA,175653.00,3945.1206,N,00807.5857,W,1,9,1.267,324.615,M,,M,0,*61
$GPGSA,A,3,7,8,10,16,18,21,26,27,77,,,,2.118,1.267,1.698*3E
$GPGSV,6,1,22,4,8,225,,7,14,316,31,8,30,286,25,10,34,131,28*7C
$GPGSV,6,2,22,11,1,244,,16,85,138,32,18,37,93,33,20,2,33,*78
$GPGSV,6,3,22,21,37,49,35,26,54,145,33,27,61,318,35,70,16,45,*7A
$GPGSV,6,4,22,71,19,96,24,72,2,141,,75,5,172,,76,47,205,30*4A
$GPGSV,6,5,22,77,48,304,30,78,2,338,,85,4,60,18,86,48,26,30*74
$GPGSV,6,6,22,87,46,287,,88,6,258,*40
$GPRMC,175653.00,A,3945.1206,N,00807.5857,W,5.238,189.499,140517,,E,A*0A
$GPGGA,175654.00,3945.1191,N,00807.5858,W,1,10,1.237,324.510,M,,M,0,*5F
$GPGSA,A,3,7,8,10,16,18,21,26,27,71,77,,,1.952,1.237,1.509*33
$GPGSV,6,1,22,4,8,225,,7,14,316,30,8,30,286,27,10,34,131,32*74
$GPGSV,6,2,22,11,1,244,,16,85,138,31,18,37,93,32,20,2,33,*7A
$GPGSV,6,3,22,21,37,49,35,26,54,145,32,27,61,318,36,70,16,45,*78
$GPGSV,6,4,22,71,19,96,26,72,2,141,,75,5,172,,76,47,205,28*41
$GPGSV,6,5,22,77,48,304,30,78,2,338,,85,4,60,15,86,48,26,29*71
$GPGSV,6,6,22,87,46,287,,88,6,258,*40
$GPRMC,175654.00,A,3945.1191,N,00807.5858,W,5.040,185.964,140517,,E,A*01
$GPGGA,175655.00,3945.1173,N,00807.5860,W,1,10,1.109,324.570,M,,M,0,*51
$GPGSA,A,3,7,8,10,16,18,21,26,27,77,86,,,1.985,1.109,1.646*37
$GPGSV,6,1,22,4,8,225,,7,14,316,33,8,30,286,29,10,34,131,33*78
$GPGSV,6,2,22,11,1,244,,16,85,138,30,18,37,93,29,20,2,33,*71
$GPGSV,6,3,22,21,37,49,34,26,54,145,33,27,61,318,34,70,16,45,*7A
$GPGSV,6,4,22,71,19,96,24,72,2,141,,75,5,172,,76,47,205,26*4D
$GPGSV,6,5,22,77,48,304,30,78,2,338,,85,4,60,19,86,48,26,29*7D
$GPGSV,6,6,22,87,46,287,,88,6,258,*40
$GPRMC,175655.00,A,3945.1173,N,00807.5860,W,5.825,189.002,140517,,E,A*09
$GPGGA,175656.00,3945.1155,N,00807.5863,W,1,10,1.109,324.588,M,,M,0,*52
$GPGSA,A,3,7,8,10,16,18,21,26,27,77,86,,,1.985,1.109,1.646*37
$GPGSV,6,1,22,4,8,225,,7,14,316,30,8,30,286,28,10,34,131,31*78
$GPGSV,6,2,22,11,1,244,,16,85,138,30,18,37,93,36,20,2,33,*7F
$GPGSV,6,3,22,21,37,49,32,26,54,145,34,27,61,318,31,70,16,45,*7E
$GPGSV,6,4,22,71,19,96,23,72,2,141,,75,5,172,,76,47,205,22*4E
$GPGSV,6,5,22,77,48,304,31,78,3,338,,85,4,60,17,86,48,26,29*73
$GPGSV,6,6,22,87,46,287,,88,6,258,*40
$GPRMC,175656.00,A,3945.1155,N,00807.5863,W,5.298,186.103,140517,,E,A*0E
$GPGGA,175657.00,3945.1137,N,00807.5868,W,1,11,1.077,324.689,M,,M,0,*57
$GPGSA,A,3,7,8,10,16,18,21,26,27,71,77,86,,1.796,1.077,1.438*3E
$GPGSV,6,1,22,4,8,225,,7,14,316,32,8,30,286,28,10,34,131,34*7F
$GPGSV,6,2,22,11,1,244,,16,85,138,28,18,37,93,36,20,2,33,*76
$GPGSV,6,3,22,21,37,49,31,26,54,145,34,27,61,318,29,70,16,45,*74
$GPGSV,6,4,22,71,19,96,25,72,2,141,,75,5,172,,76,46,205,21*4A
$GPGSV,6,5,22,77,48,304,30,78,3,338,,85,4,60,15,86,48,26,27*7E
$GPGSV,6,6,22,87,46,287,,88,6,258,*40
$GPRMC,175657.00,A,3945.1137,N,00807.5868,W,6.227,201.996,140517,,E,A*0F
$GPGGA,175658.00,3945.1119,N,00807.5879,W,1,11,1.077,324.512,M,,M,0,*55
$GPGSA,A,3,7,8,10,16,18,21,26,27,71,77,86,,1.796,1.077,1.438*3E
$GPGSV,6,1,22,4,8,225,,7,14,316,31,8,30,286,31,10,34,131,35*75
$GPGSV,6,2,22,11,1,244,,16,85,138,28,18,37,93,43,20,2,33,*74
$GPGSV,6,3,22,21,37,49,33,26,53,145,37,27,61,318,33,70,16,45,*79
$GPGSV,6,4,22,71,19,96,33,72,2,141,,75,5,172,,76,46,205,25*49
$GPGSV,6,5,22,77,48,304,27,78,3,338,,85,4,60,18,86,48,26,27*75
$GPGSV,6,6,22,87,46,287,,88,6,258,*40
$GPRMC,175658.00,A,3945.1119,N,00807.5879,W,6.532,211.843,140517,,E,A*07
$GPGGA,175659.00,3945.1102,N,00807.5892,W,1,11,1.077,324.148,M,,M,0,*50
$GPGSA,A,3,7,8,10,16,18,21,26,27,71,77,86,,1.796,1.077,1.438*3E
$GPGSV,6,1,22,4,8,225,,7,14,316,33,8,30,286,27,10,34,131,37*72
$GPGSV,6,2,22,11,1,244,,16,85,138,27,18,37,93,43,20,2,33,*7B
$GPGSV,6,3,22,21,36,49,33,26,53,145,38,27,61,318,35,70,16,45,*71
$GPGSV,6,4,22,71,19,96,33,72,2,141,,75,5,172,,76,46,205,26*4A
$GPGSV,6,5,22,77,48,304,30,78,3,338,,85,4,60,18,86,48,26,28*7C
$GPGSV,6,6,22,87,46,287,,88,6,258,*40
$GPRMC,175659.00,A,3945.1102,N,00807.5892,W,6.592,211.407,140517,,E,A*0F
$GPGGA,175700.00,3945.1085,N,00807.5904,W,1,11,1.077,323.803,M,,M,0,*5C
$GPGSA,A,3,7,8,10,16,18,21,26,27,71,77,86,,1.797,1.077,1.438*3F
$GPGSV,6,1,22,4,8,225,,7,14,316,34,8,30,286,31,10,34,131,35*70
$GPGSV,6,2,22,11,1,244,,16,85,138,27,18,37,93,43,20,2,33,*7B
$GPGSV,6,3,22,21,36,49,31,26,53,145,38,27,61,318,35,70,16,45,*73
$GPGSV,6,4,22,71,19,96,33,72,2,141,,75,5,172,,76,46,205,26*4A
$GPGSV,6,5,22,77,48,304,32,78,3,338,,85,4,60,22,86,48,26,25*7A
$GPGSV,6,6,22,87,46,287,,88,6,258,*40
$GPRMC,175700.00,A,3945.1085,N,00807.5904,W,6.360,207.911,140517,,E,A*04
$GPGGA,175701.00,3945.1070,N,00807.5915,W,1,11,1.077,323.999,M,,M,0,*55
$GPGSA,A,3,7,8,10,16,18,21,26,27,71,77,86,,1.797,1.077,1.439*3E
$GPGSV,6,1,22,4,8,225,,7,14,316,33,8,30,286,30,10,34,131,35*76
$GPGSV,6,2,22,11,1,244,,16,85,138,27,18,37,93,43,20,2,33,*7B
$GPGSV,6,3,22,21,36,49,33,26,53,145,38,27,61,318,34,70,16,45,*70
$GPGSV,6,4,22,71,19,96,31,72,2,141,,75,5,172,,76,46,205,22*4C
$GPGSV,6,5,22,77,48,304,31,78,3,338,,85,4,60,24,86,48,26,27*7D
$GPGSV,6,6,22,87,46,287,,88,6,258,*40
$GPRMC,175701.00,A,3945.1070,N,00807.5915,W,6.136,209.176,140517,,E,A*09
$GPGGA,175702.00,3945.1054,N,00807.5927,W,1,11,1.077,324.165,M,,M,0,*5D
$GPGSA,A,3,7,8,10,16,18,21,26,27,71,77,86,,1.797,1.077,1.439*3E
$GPGSV,6,1,22,4,8,225,,7,14,316,30,8,30,286,30,10,34,131,35*75
$GPGSV,6,2,22,11,1,244,,16,85,138,24,18,37,93,43,20,2,33,*78
$GPGSV,6,3,22,21,36,49,34,26,53,145,39,27,61,318,32,70,16,45,*70
$GPGSV,6,4,22,71,19,96,33,72,2,141,,75,5,172,,76,46,205,23*4F
$GPGSV,6,5,22,77,48,304,30,78,3,338,,85,4,60,17,86,48,26,27*7C
$GPGSV,6,6,22,87,46,287,,88,6,258,*40
$GPRMC,175702.00,A,3945.1054,N,00807.5927,W,6.804,208.688,140517,,E,A*02
$GPGGA,175703.00,3945.1037,N,00807.5938,W,1,11,1.077,324.899,M,,M,0,*5D
$GPGSA,A,3,7,8,10,16,18,21,26,27,71,77,86,,1.797,1.077,1.439*3E
$GPGSV,6,1,22,4,8,225,,7,14,316,30,8,30,286,28,10,34,131,36*7F
$GPGSV,6,2,22,11,1,244,,16,85,139,28,18,37,93,44,20,2,33,*72
$GPGSV,6,3,22,21,36,49,35,26,53,145,38,27,61,318,37,70,16,45,*75
$GPGSV,6,4,22,71,19,96,36,72,2,141,,75,5,172,,76,46,205,24*4D
$GPGSV,6,5,22,77,48,304,30,78,3,338,,85,4,60,19,86,48,26,27*72
$GPGSV,6,6,22,87,46,287,,88,6,258,*40
$GPRMC,175703.00,A,3945.1037,N,00807.5938,W,7.083,206.723,140517,,E,A*00
$GPGGA,175704.00,3945.1020,N,00807.5948,W,1,10,1.237,325.687,M,,M,0,*5C
$GPGSA,A,3,7,8,10,16,18,21,26,27,71,77,,,1.954,1.237,1.512*3F
$GPGSV,6,1,22,4,8,225,,7,14,316,32,8,30,287,29,10,34,131,35*7E
$GPGSV,6,2,22,11,1,244,,16,85,139,24,18,37,93,44,20,2,33,*7E
$GPGSV,6,3,22,21,36,49,30,26,53,145,37,27,61,318,36,70,16,45,*7E
$GPGSV,6,4,22,71,19,96,37,72,2,141,,75,5,172,,76,46,205,28*40
$GPGSV,6,5,22,77,48,304,30,78,3,338,,85,4,60,24,86,48,26,23*78
$GPGSV,6,6,22,87,46,287,,88,6,258,*40
$GPRMC,175704.00,A,3945.1020,N,00807.5948,W,7.146,204.350,140517,,E,A*0C
$GPGGA,175705.00,3945.1002,N,00807.5956,W,1,12,1.027,326.372,M,,M,0,*5F
$GPGSA,A,3,7,8,10,16,18,21,26,27,71,77,85,86,1.627,1.027,1.262*34
$GPGSV,6,1,22,4,8,225,,7,14,316,33,8,30,287,29,10,34,131,36*7C
$GPGSV,6,2,22,11,1,244,,16,85,139,23,18,37,93,44,20,2,33,*79
$GPGSV,6,3,22,21,36,49,29,26,53,145,36,27,61,318,35,70,16,45,*74
$GPGSV,6,4,22,71,19,96,35,72,2,141,,75,5,172,,76,46,205,30*4B
$GPGSV,6,5,22,77,48,304,27,78,3,338,,85,4,60,25,86,48,26,25*79
$GPGSV,6,6,22,87,46,287,,88,6,258,*40
$GPRMC,175705.00,A,3945.1002,N,00807.5956,W,7.162,203.152,140517,,E,A*03
$GPGGA,175706.00,3945.0983,N,00807.5965,W,1,11,1.077,326.791,M,,M,0,*52
$GPGSA,A,3,7,8,10,16,18,21,26,27,71,77,86,,1.798,1.077,1.440*3F
$GPGSV,6,1,22,4,8,225,,7,14,316,31,8,30,287,26,10,34,131,34*73
$GPGSV,6,2,22,11,1,244,,16,85,139,20,18,37,93,44,20,2,33,*7A
$GPGSV,6,3,22,21,36,49,31,26,53,145,35,27,61,318,33,70,16,45,*78
$GPGSV,6,4,22,71,20,96,35,72,2,141,,75,5,172,,76,46,205,28*48
$GPGSV,6,5,22,77,48,304,28,78,3,338,,85,4,60,24,86,48,26,30*73
$GPGSV,6,6,22,87,46,287,,88,6,258,*40
$GPRMC,175706.00,A,3945.0983,N,00807.5965,W,7.283,203.950,140517,,E,A*07
$GPGGA,175707.00,3945.0964,N,00807.5974,W,1,12,1.027,326.871,M,,M,0,*5D
$GPGSA,A,3,7,8,10,16,18,21,26,27,71,77,85,86,1.627,1.027,1.262*34
$GPGSV,6,1,22,4,8,225,,7,14,316,33,8,30,287,29,10,34,131,33*79
$GPGSV,6,2,22,11,1,244,,16,85,139,20,18,37,93,41,20,2,33,*7F
$GPGSV,6,3,22,21,36,49,30,26,53,145,34,27,61,318,30,70,16,45,*7B
$GPGSV,6,4,22,71,20,96,34,72,2,141,,75,5,172,,76,46,205,31*41
$GPGSV,6,5,22,77,48,304,28,78,3,338,,85,4,60,25,86,48,26,32*70
$GPGSV,6,6,22,87,46,287,,88,6,258,*40
$GPRMC,175707.00,A,3945.0964,N,00807.5974,W,6.894,203.529,140517,,E,A*00
$GPGGA,175708.00,3945.0944,N,00807.5982,W,1,11,1.077,326.666,M,,M,0,*57
$GPGSA,A,3,7,8,10,16,18,21,26,27,71,77,86,,1.798,1.077,1.441*3E
$GPGSV,6,1,22,4,8,225,,7,14,316,33,8,30,287,27,10,34,131,33*77
$GPGSV,6,2,22,11,1,244,,16,85,139,26,18,37,93,39,20,2,33,*76
$GPGSV,6,3,22,21,36,49,32,26,53,145,35,27,61,318,34,70,16,45,*7C
$GPGSV,6,4,22,71,20,96,31,72,2,141,,75,5,172,,76,46,205,30*45
$GPGSV,6,5,22,77,48,304,32,78,3,338,,85,4,60,23,86,48,26,32*7D
$GPGSV,6,6,22,87,46,287,,88,6,258,*40
$GPRMC,175708.00,A,3945.0944,N,00807.5982,W,6.545,198.905,140517,,E,A*06
$GPGGA,175709.00,3945.0925,N,00807.5990,W,1,11,1.076,326.424,M,,M,0,*57
$GPGSA,A,3,7,8,10,16,18,21,26,27,71,77,86,,1.799,1.076,1.441*3E
$GPGSV,6,1,22,4,8,225,,7,14,316,34,8,30,287,27,10,34,131,35*76
$GPGSV,6,2,22,11,1,244,,16,85,139,26,18,37,93,42,20,2,33,*7A
$GPGSV,6,3,22,21,36,49,31,26,53,145,33,27,61,318,37,70,16,45,*7A
$GPGSV,6,4,22,71,20,96,32,72,2,141,,75,5,172,,76,46,205,29*4E
$GPGSV,6,5,22,77,48,304,30,78,3,338,,85,4,60,23,86,48,26,31*7C
$GPGSV,6,6,22,87,46,287,,88,6,258,*40
$GPRMC,175709.00,A,3945.0925,N,00807.5990,W,6.840,196.914,140517,,E,A*05
$GPGGA,175710.00,3945.0906,N,00807.5995,W,1,11,1.076,326.244,M,,M,0,*5B
$GPGSA,A,3,7,8,10,16,18,21,26,27,71,77,86,,1.799,1.076,1.441*3E
$GPGSV,6,1,22,4,8,225,,7,14,316,33,8,30,287,27,10,34,131,36*72
$GPGSV,6,2,22,11,1,244,,16,85,139,23,18,37,93,42,20,2,33,*7F
$GPGSV,6,3,22,21,36,49,31,26,53,145,34,27,61,318,39,70,16,45,*73
$GPGSV,6,4,22,71,20,96,30,72,2,141,,75,5,172,,76,46,205,30*44
$GPGSV,6,5,22,77,48,304,27,78,3,338,,85,4,60,19,86,48,26,31*73
$GPGSV,6,6,22,87,46,287,,88,6,258,*40
$GPRMC,175710.00,A,3945.0906,N,00807.5995,W,5.956,192.538,140517,,E,A*0A
$GPGGA,175711.00,3945.0890,N,00807.5998,W,1,10,1.092,326.573,M,,M,0,*51
$GPGSA,A,3,7,8,10,16,18,21,26,27,71,86,,,1.827,1.092,1.464*39
$GPGSV,6,1,22,4,8,225,,7,14,316,31,8,30,287,26,10,34,131,37*70
$GPGSV,6,2,22,11,1,244,,16,85,139,27,18,37,93,42,20,2,33,*7B
$GPGSV,6,3,22,21,36,49,32,26,53,145,34,27,61,318,39,70,16,45,*70
$GPGSV,6,4,22,71,20,96,32,72,2,141,,75,5,172,,76,46,205,31*47
$GPGSV,6,5,22,77,49,304,22,78,3,338,,85,4,60,18,86,48,26,28*7E
$GPGSV,6,6,22,87,46,287,,88,6,258,*40
$GPRMC,175711.00,A,3945.0890,N,00807.5998,W,4.962,184.633,140517,,E,A*01
$GPGGA,175712.00,3945.0876,N,00807.5999,W,1,11,1.076,326.659,M,,M,0,*5B
$GPGSA,A,3,7,8,10,16,18,21,26,27,71,77,86,,1.799,1.076,1.442*3D
$GPGSV,6,1,22,4,8,225,,7,14,316,31,8,30,287,30,10,34,131,36*76
$GPGSV,6,2,22,11,1,244,,16,85,139,25,18,37,93,43,20,2,33,*78
$GPGSV,6,3,22,21,36,49,34,26,53,145,33,27,61,318,36,70,16,45,*7E
$GPGSV,6,4,22,71,20,96,26,72,2,141,,75,5,172,,76,46,205,32*41
$GPGSV,6,5,22,77,49,304,30,78,3,338,,85,4,60,17,86,48,26,29*73
$GPGSV,6,6,22,87,46,287,,88,6,258,*40
$GPRMC,175712.00,A,3945.0876,N,00807.5999,W,4.859,182.219,140517,,E,A*08
$GPGGA,175713.00,3945.0860,N,00807.6001,W,1,11,1.076,326.731,M,,M,0,*59
$GPGSA,A,3,7,8,10,16,18,21,26,27,71,77,86,,1.799,1.076,1.442*3D
$GPGSV,6,1,22,4,8,225,,7,14,316,33,8,30,287,30,10,34,131,37*75
$GPGSV,6,2,22,11,1,244,,16,85,139,25,18,37,93,41,20,2,33,*7A
$GPGSV,6,3,22,21,36,49,34,26,53,145,32,27,61,318,33,70,16,45,*7A
$GPGSV,6,4,22,71,20,96,25,72,2,141,,75,5,172,,76,46,205,29*48
$GPGSV,6,5,22,77,49,304,29,78,3,338,,85,4,60,21,86,48,26,34*72
$GPGSV,6,6,22,87,46,287,,88,6,258,*40
$GPRMC,175713.00,A,3945.0860,N,00807.6001,W,5.522,189.465,140517,,E,A*03
$GPGGA,175714.00,3945.0842,N,00807.6005,W,1,11,1.050,326.766,M,,M,0,*5C
$GPGSA,A,3,7,8,10,16,18,21,26,27,77,85,86,,1.689,1.050,1.323*32
$GPGSV,6,1,22,4,8,225,,7,14,316,30,8,30,287,31,10,34,131,37*77
$GPGSV,6,2,22,11,1,244,,16,85,139,28,18,37,93,40,20,2,33,*76
$GPGSV,6,3,22,21,36,49,36,26,53,145,35,27,61,318,33,70,16,45,*7F
$GPGSV,6,4,22,71,20,96,24,72,2,141,,75,5,172,,76,46,205,25*45
$GPGSV,6,5,22,77,49,304,28,78,3,338,,85,4,60,25,86,48,26,32*71
$GPGSV,6,6,22,87,46,287,,88,6,258,*40
$GPRMC,175714.00,A,3945.0842,N,00807.6005,W,5.753,191.525,140517,,E,A*08
$GPGGA,175715.00,3945.0825,N,00807.6009,W,1,11,1.076,326.326,M,,M,0,*54
$GPGSA,A,3,7,8,10,16,18,21,26,27,71,77,86,,1.800,1.076,1.442*32
$GPGSV,6,1,22,4,8,225,,7,14,316,30,8,30,287,25,10,34,131,35*70
$GPGSV,6,2,22,11,1,244,,16,85,139,31,18,37,93,41,20,2,33,*7F
$GPGSV,6,3,22,21,36,49,38,26,53,145,33,27,61,318,32,70,16,45,*76
$GPGSV,6,4,22,71,20,96,29,72,2,141,,75,5,172,,76,46,205,27*4A
$GPGSV,6,5,22,77,49,304,29,78,3,338,,85,4,60,22,86,48,26,28*7C
$GPGSV,6,6,22,87,46,287,,88,6,258,*40
$GPRMC,175715.00,A,3945.0825,N,00807.6009,W,5.184,182.783,140517,,E,A*04
$GPGGA,175716.00,3945.0808,N,00807.6008,W,1,11,1.076,326.016,M,,M,0,*59
$GPGSA,A,3,7,8,10,16,18,21,26,27,71,77,86,,1.800,1.076,1.443*33
$GPGSV,6,1,22,4,8,225,,7,14,316,30,8,30,287,27,10,34,131,37*70
$GPGSV,6,2,22,11,1,244,,16,85,139,30,18,37,93,41,20,2,33,*7E
$GPGSV,6,3,22,21,36,49,38,26,53,145,27,27,61,318,26,70,16,45,*76
$GPGSV,6,4,22,71,20,96,29,72,2,141,,75,5,172,,76,46,205,33*4F
$GPGSV,6,5,22,77,49,304,28,78,3,338,,85,4,60,23,86,48,26,31*74
$GPGSV,6,6,22,87,46,287,,88,6,258,*40
$GPRMC,175716.00,A,3945.0808,N,00807.6008,W,5.923,175.034,140517,,E,A*0F
$GPGGA,175717.00,3945.0790,N,00807.6006,W,1,10,1.092,325.771,M,,M,0,*56
$GPGSA,A,3,7,8,10,16,18,21,26,27,71,86,,,1.828,1.092,1.466*34
$GPGSV,6,1,22,4,8,225,,7,14,316,32,8,30,287,30,10,34,131,37*74
$GPGSV,6,2,22,11,1,244,,16,85,139,29,18,37,93,41,20,2,33,*76
$GPGSV,6,3,22,21,36,49,39,26,53,145,27,27,61,318,27,70,16,45,*76
$GPGSV,6,4,22,71,20,96,29,72,2,141,,75,5,172,,76,46,205,33*4F
$GPGSV,6,5,22,77,49,304,24,78,3,337,,85,4,60,23,86,48,26,31*77
$GPGSV,6,6,22,87,46,287,,88,6,258,*40
$GPRMC,175717.00,A,3945.0790,N,00807.6006,W,6.522,173.517,140517,,E,A*02
$GPGGA,175718.00,3945.0771,N,00807.6002,W,1,12,1.027,325.548,M,,M,0,*56
$GPGSA,A,3,7,8,10,16,18,21,26,27,71,77,85,86,1.629,1.027,1.264*3C
$GPGSV,6,1,22,4,8,225,,7,14,316,34,8,30,287,32,10,34,131,34*73
$GPGSV,6,2,22,11,1,244,,16,85,139,28,18,37,93,35,20,2,33,*74
$GPGSV,6,3,22,21,36,49,39,26,53,145,28,27,61,318,29,70,16,45,*77
$GPGSV,6,4,22,71,20,96,26,72,2,141,,75,5,172,,76,46,205,28*4A
$GPGSV,6,5,22,77,49,304,25,78,3,337,,85,4,60,25,86,48,26,30*71
$GPGSV,6,6,22,87,46,287,,88,6,258,*40
$GPRMC,175718.00,A,3945.0771,N,00807.6002,W,6.517,167.073,140517,,E,A*02
$GPGGA,175719.00,3945.0752,N,00807.5996,W,1,10,1.108,325.452,M,,M,0,*55
$GPGSA,A,3,7,8,10,16,18,21,26,27,77,86,,,1.990,1.108,1.652*37
$GPGSV,6,1,22,4,8,225,,7,14,316,28,8,30,287,32,10,34,131,34*7E
$GPGSV,6,2,22,11,1,244,,16,85,139,27,18,37,93,34,20,2,33,*7A
$GPGSV,6,3,22,21,36,49,39,26,53,145,32,27,61,318,29,70,16,45,*7C
$GPGSV,6,4,22,71,20,96,24,72,2,141,,75,5,172,,76,46,205,23*43
$GPGSV,6,5,22,77,49,304,25,78,3,337,,85,4,60,24,86,48,26,26*77
$GPGSV,6,6,22,87,46,287,,88,6,258,*40
$GPRMC,175719.00,A,3945.0752,N,00807.5996,W,6.530,162.543,140517,,E,A*03
$GPGGA,175720.00,3945.0733,N,00807.5988,W,1,10,1.067,325.330,M,,M,0,*5C
$GPGSA,A,3,7,8,10,16,18,21,26,27,85,86,,,1.713,1.067,1.341*30
$GPGSV,6,1,22,4,8,225,,7,14,316,26,8,30,287,28,10,34,131,32*7D
$GPGSV,6,2,22,11,1,244,,16,85,139,25,18,37,93,35,20,2,33,*79
$GPGSV,6,3,22,21,36,49,42,26,53,145,30,27,61,318,27,70,16,45,*7C
$GPGSV,6,4,22,71,20,96,24,72,2,141,,75,5,172,,76,46,205,24*44
$GPGSV,6,5,22,77,49,304,24,78,3,337,,85,4,60,26,86,48,26,33*70
$GPGSV,6,6,22,87,46,287,,88,6,258,*40
$GPRMC,175720.00,A,3945.0733,N,00807.5988,W,6.823,157.189,140517,,E,A*0A
$GPGGA,175721.00,3945.0716,N,00807.5977,W,1,11,1.041,325.227,M,,M,0,*58
$GPGSA,A,3,7,8,10,16,18,21,26,27,71,85,86,,1.647,1.041,1.276*37
$GPGSV,6,1,22,4,8,225,,7,14,316,25,8,30,287,27,10,34,131,33*70
$GPGSV,6,2,22,11,1,244,,16,85,139,24,18,37,93,35,20,2,33,*78
$GPGSV,6,3,22,21,36,49,40,26,53,145,30,27,61,318,24,70,16,45,*7D
$GPGSV,6,4,22,71,20,96,29,72,2,141,,75,5,172,,76,46,205,20*4D
$GPGSV,6,5,22,77,49,303,23,78,3,337,,85,4,60,29,86,48,26,35*79
$GPGSV,6,6,22,87,46,287,,88,6,258,*40
$GPRMC,175721.00,A,3945.0716,N,00807.5977,W,6.716,154.490,140517,,E,A*0B
$GPGGA,175722.00,3945.0699,N,00807.5964,W,1,12,1.028,324.948,M,,M,0,*50
$GPGSA,A,3,7,8,10,16,18,21,26,27,71,77,85,86,1.629,1.028,1.264*33
$GPGSV,6,1,22,4,8,225,,7,14,316,26,8,30,287,22,10,34,131,32*77
$GPGSV,6,2,22,11,1,244,,16,85,139,21,18,37,92,32,20,2,33,*7B
$GPGSV,6,3,22,21,36,49,41,26,53,145,28,27,61,318,30,70,16,45,*70
$GPGSV,6,4,22,71,20,96,31,72,2,141,,75,5,172,,76,46,205,27*43
$GPGSV,6,5,22,77,49,303,27,78,3,337,,85,4,60,31,86,48,26,40*76
$GPGSV,6,6,22,87,46,287,,88,6,258,*40
$GPRMC,175722.00,A,3945.0699,N,00807.5964,W,6.814,145.010,140517,,E,A*0D
$GPGGA,175723.00,3945.0683,N,00807.5950,W,1,12,1.028,324.879,M,,M,0,*5E
$GPGSA,A,3,7,8,10,16,18,21,26,27,71,77,85,86,1.630,1.028,1.265*3A
$GPGSV,6,1,22,4,8,225,,7,14,316,25,8,30,287,22,10,34,131,29*7E
$GPGSV,6,2,22,11,1,244,,16,85,139,23,18,37,92,34,20,2,33,*7F
$GPGSV,6,3,22,21,36,49,40,26,53,145,28,27,61,318,31,70,16,45,*70
$GPGSV,6,4,22,71,20,96,34,72,2,141,,75,5,172,,76,46,205,29*48
$GPGSV,6,5,22,77,49,303,27,78,3,337,,85,4,60,30,86,48,26,42*75
$GPGSV,6,6,22,87,46,287,,88,6,258,*40
$GPRMC,175723.00,A,3945.0683,N,00807.5950,W,6.699,141.469,140517,,E,A*05
$GPGGA,175724.00,3945.0668,N,00807.5935,W,1,12,1.028,324.652,M,,M,0,*58
$GPGSA,A,3,7,8,10,16,18,21,26,27,71,77,85,86,1.630,1.028,1.265*3A
$GPGSV,6,1,22,4,8,225,,7,14,316,24,8,30,287,22,10,34,131,33*74
$GPGSV,6,2,22,11,1,244,,16,85,139,24,18,37,92,34,20,2,33,*78
$GPGSV,6,3,22,21,36,49,41,26,53,145,30,27,61,318,35,70,16,45,*7C
$GPGSV,6,4,22,71,20,96,33,72,2,141,,75,5,172,,76,46,205,33*44
$GPGSV,6,5,22,77,49,303,26,78,3,337,,85,4,60,27,86,48,26,42*72
$GPGSV,6,6,22,87,46,287,,88,6,258,*40
$GPRMC,175724.00,A,3945.0668,N,00807.5935,W,6.019,129.135,140517,,E,A*08
$GPGGA,175725.00,3945.0654,N,00807.5920,W,1,12,1.028,324.716,M,,M,0,*53
$GPGSA,A,3,7,8,10,16,18,21,26,27,71,77,85,86,1.630,1.028,1.265*3A
$GPGSV,6,1,22,4,8,225,,7,14,315,32,8,30,287,31,10,34,131,29*79
$GPGSV,6,2,22,11,1,244,,16,85,139,25,18,37,92,39,20,2,33,*74
$GPGSV,6,3,22,21,36,49,37,26,53,145,28,27,61,318,38,70,16,45,*79
$GPGSV,6,4,22,71,20,96,30,72,2,141,,75,5,172,,76,46,205,33*47
$GPGSV,6,5,22,77,49,303,25,78,3,337,,85,4,60,30,86,48,26,39*7B
$GPGSV,6,6,22,87,46,287,,88,6,258,*40
$GPRMC,175725.00,A,3945.0654,N,00807.5920,W,6.854,125.310,140517,,E,A*0A
$GPGGA,175726.00,3945.0641,N,00807.5903,W,1,12,1.028,324.875,M,,M,0,*5F
$GPGSA,A,3,7,8,10,16,18,21,26,27,71,77,85,86,1.630,1.028,1.265*3A
$GPGSV,6,1,22,4,8,225,,7,14,315,26,8,30,287,34,10,34,131,29*79
$GPGSV,6,2,22,11,1,244,,16,85,139,28,18,37,92,39,20,2,33,*79
$GPGSV,6,3,22,21,36,49,33,26,53,145,29,27,61,318,39,70,16,45,*7D
$GPGSV,6,4,22,71,20,96,30,72,2,141,,75,5,172,,76,46,205,33*47
$GPGSV,6,5,22,77,49,303,31,78,3,337,,85,4,60,30,86,48,26,40*70
$GPGSV,6,6,22,87,46,287,,88,6,258,*40
$GPRMC,175726.00,A,3945.0641,N,00807.5903,W,6.907,126.320,140517,,E,A*0B
$GPGGA,175727.00,3945.0629,N,00807.5887,W,1,12,1.028,324.885,M,,M,0,*52
$GPGSA,A,3,7,8,10,16,18,21,26,27,71,77,85,86,1.630,1.028,1.265*3A
$GPGSV,6,1,22,4,8,225,,7,14,315,26,8,30,287,30,10,34,131,29*7D
$GPGSV,6,2,22,11,1,244,,16,85,139,27,18,37,92,35,20,2,33,*7A
$GPGSV,6,3,22,21,36,49,31,26,53,145,26,27,61,318,39,70,16,45,*70
$GPGSV,6,4,22,71,20,96,29,72,2,141,,75,5,172,,76,46,205,29*44
$GPGSV,6,5,22,77,49,303,28,78,3,337,,85,4,60,27,86,48,26,39*70
$GPGSV,6,6,22,87,46,287,,88,6,258,*40
$GPRMC,175727.00,A,3945.0629,N,00807.5887,W,5.735,127.042,140517,,E,A*03
$GPGGA,175728.00,3945.0621,N,00807.5871,W,1,11,1.076,324.481,M,,M,0,*5C
$GPGSA,A,3,7,8,10,16,18,21,26,27,71,77,86,,1.803,1.076,1.446*35
$GPGSV,6,1,22,4,8,225,,7,14,315,24,8,30,287,26,10,34,131,33*73
$GPGSV,6,2,22,11,1,244,,16,85,139,26,18,37,92,33,20,2,33,*7D
$GPGSV,6,3,22,21,36,49,34,26,53,145,30,27,61,318,35,70,16,45,*7E
$GPGSV,6,4,22,71,20,96,29,72,2,141,,75,5,172,,76,46,205,26*4B
$GPGSV,6,5,22,77,49,303,32,78,3,337,,85,4,60,22,86,48,26,37*70
$GPGSV,6,6,22,87,46,287,,88,6,258,*40
$GPRMC,175728.00,A,3945.0621,N,00807.5871,W,5.588,117.995,140517,,E,A*09
$GPGGA,175729.00,3945.0613,N,00807.5854,W,1,11,1.076,324.266,M,,M,0,*54
$GPGSA,A,3,7,8,10,16,18,21,26,27,71,77,86,,1.803,1.076,1.446*35
$GPGSV,6,1,22,4,8,225,,7,14,315,24,8,30,287,23,10,34,131,33*76
$GPGSV,6,2,22,11,1,244,,16,85,139,28,18,37,92,33,20,2,33,*73
$GPGSV,6,3,22,21,36,49,35,26,53,145,30,27,61,318,34,70,16,45,*7E
$GPGSV,6,4,22,71,20,96,26,72,2,141,,75,5,172,,76,46,205,26*44
$GPGSV,6,5,22,77,49,303,35,78,3,337,,85,4,60,17,86,48,26,38*7E
$GPGSV,6,6,22,87,46,287,,88,6,258,*40
$GPRMC,175729.00,A,3945.0613,N,00807.5854,W,6.006,113.480,140517,,E,A*03
$GPGGA,175730.00,3945.0607,N,00807.5834,W,1,10,1.108,323.755,M,,M,0,*54
$GPGSA,A,3,7,8,10,16,18,21,26,27,77,86,,,1.992,1.108,1.655*32
$GPGSV,6,1,22,4,8,225,,7,14,315,27,8,30,287,27,10,34,131,33*71
$GPGSV,6,2,22,11,1,244,,16,85,139,27,18,37,92,36,20,2,33,*79
$GPGSV,6,3,22,21,36,49,35,26,53,145,31,27,61,318,36,70,16,45,*7D
$GPGSV,6,4,22,71,20,96,24,72,2,141,,75,5,172,,76,46,205,26*46
$GPGSV,6,5,22,77,49,303,35,78,3,337,,85,4,60,22,86,48,26,39*79
$GPGSV,6,6,22,87,46,287,,88,6,258,*40
$GPRMC,175730.00,A,3945.0607,N,00807.5834,W,6.210,109.022,140517,,E,A*0A
$GPGGA,175731.00,3945.0600,N,00807.5812,W,1,11,1.076,323.291,M,,M,0,*52
$GPGSA,A,3,7,8,10,16,18,21,26,27,71,77,86,,1.803,1.076,1.447*34
$GPGSV,6,1,22,4,8,225,,7,14,315,28,8,30,287,27,10,34,131,31*7C
$GPGSV,6,2,22,11,1,244,,16,85,139,26,18,37,92,35,20,2,33,*7B
$GPGSV,6,3,22,21,36,49,31,26,53,145,30,27,61,318,37,70,16,45,*79
$GPGSV,6,4,22,71,20,96,25,72,2,141,,75,5,172,,76,46,205,29*48
$GPGSV,6,5,22,77,49,303,34,78,3,337,,85,4,60,19,86,48,26,39*70
$GPGSV,6,6,22,87,46,287,,88,6,258,*40
$GPRMC,175731.00,A,3945.0600,N,00807.5812,W,6.795,102.930,140517,,E,A*01
$GPGGA,175732.00,3945.0596,N,00807.5789,W,1,11,1.076,322.940,M,,M,0,*56
$GPGSA,A,3,7,8,10,16,18,21,26,27,71,77,86,,1.803,1.076,1.447*34
$GPGSV,6,1,22,4,8,225,,7,14,315,27,8,30,287,27,10,34,130,30*73
$GPGSV,6,2,22,11,1,244,,16,85,139,26,18,37,92,32,20,2,33,*7C
$GPGSV,6,3,22,21,36,49,34,26,53,145,32,27,61,318,40,70,16,45,*7E
$GPGSV,6,4,22,71,20,96,27,72,2,141,,75,5,172,,76,46,205,26*45
$GPGSV,6,5,22,77,49,303,33,78,3,337,,85,4,60,18,86,48,26,39*76
$GPGSV,6,6,22,87,46,287,,88,6,258,*40
$GPRMC,175732.00,A,3945.0596,N,00807.5789,W,7.635,101.403,140517,,E,A*07
$GPGGA,175733.00,3945.0590,N,00807.5764,W,1,11,1.076,322.370,M,,M,0,*5B
$GPGSA,A,3,7,8,10,16,18,21,26,27,71,77,86,,1.804,1.076,1.447*33
$GPGSV,6,1,22,4,8,225,,7,14,315,28,8,30,287,30,10,34,130,27*7C
$GPGSV,6,2,22,11,1,244,,16,85,139,28,18,37,92,31,20,2,33,*71
$GPGSV,6,3,22,21,36,49,32,26,53,145,34,27,61,318,40,70,16,45,*7E
$GPGSV,6,4,22,71,20,96,29,72,2,141,,75,5,172,,76,46,204,29*45
$GPGSV,6,5,22,77,49,303,32,78,3,337,,85,4,60,19,86,48,26,40*78
$GPGSV,6,6,22,87,46,287,,88,6,258,*40
$GPRMC,175733.00,A,3945.0590,N,00807.5764,W,7.882,102.306,140517,,E,A*00
$GPGGA,175734.00,3945.0584,N,00807.5736,W,1,10,1.108,322.019,M,,M,0,*5B
$GPGSA,A,3,7,8,10,16,18,21,26,27,77,86,,,1.993,1.108,1.656*30
$GPGSV,6,1,22,4,8,225,,7,14,315,25,8,30,287,28,10,34,130,26*79
$GPGSV,6,2,22,11,1,244,,16,84,139,27,18,37,92,25,20,2,33,*7A
$GPGSV,6,3,22,21,36,49,35,26,53,145,31,27,61,318,40,70,16,45,*7C
$GPGSV,6,4,22,71,20,96,23,72,2,141,,75,5,172,,76,46,204,27*41
$GPGSV,6,5,22,77,49,303,33,78,3,337,,85,4,60,22,86,48,26,40*71
$GPGSV,6,6,22,87,46,287,,88,6,258,*40
$GPRMC,175734.00,A,3945.0584,N,00807.5736,W,7.831,101.244,140517,,E,A*09
$GPGGA,175735.00,3945.0580,N,00807.5710,W,1,10,1.108,321.922,M,,M,0,*58
$GPGSA,A,3,7,8,10,16,18,21,26,27,77,86,,,1.993,1.108,1.656*30
$GPGSV,6,1,22,4,8,225,,7,14,315,27,8,30,287,30,10,34,130,32*77
$GPGSV,6,2,22,11,1,244,,16,84,139,22,18,37,92,27,20,2,33,*7D
$GPGSV,6,3,22,21,36,49,35,26,53,145,28,27,61,318,40,70,16,45,*74
$GPGSV,6,4,22,71,20,96,24,72,2,141,,75,5,172,,76,46,204,29*48
$GPGSV,6,5,22,77,49,303,30,78,3,337,,85,4,60,18,86,48,26,38*74
$GPGSV,6,6,22,87,46,287,,88,6,258,*40
$GPRMC,175735.00,A,3945.0580,N,00807.5710,W,7.800,101.781,140517,,E,A*06
$GPGGA,175736.00,3945.0575,N,00807.5684,W,1,11,1.051,322.078,M,,M,0,*54
$GPGSA,A,3,7,8,10,16,18,21,26,27,77,85,86,,1.691,1.051,1.325*3C
$GPGSV,6,1,22,4,8,225,,7,14,315,25,8,30,287,27,10,34,130,31*70
$GPGSV,6,2,22,11,1,244,,16,84,140,20,18,37,92,28,20,2,33,*7E
$GPGSV,6,3,22,21,36,49,34,26,53,145,31,27,61,318,43,70,16,45,*7E
$GPGSV,6,4,22,71,20,96,23,72,2,141,,75,5,172,,76,46,204,32*45
$GPGSV,6,5,22,77,49,303,27,78,3,337,,85,4,60,27,86,48,26,38*7E
$GPGSV,6,6,22,87,46,287,,88,6,258,*40
$GPRMC,175736.00,A,3945.0575,N,00807.5684,W,8.011,104.517,140517,,E,A*0C
$GPGGA,175737.00,3945.0568,N,00807.5658,W,1,12,1.029,322.129,M,,M,0,*51
$GPGSA,A,3,7,8,10,16,18,21,26,27,71,77,85,86,1.631,1.029,1.266*39
$GPGSV,6,1,22,4,8,225,,7,14,315,24,8,30,287,27,10,34,130,27*76
$GPGSV,6,2,22,11,1,244,,16,84,140,28,18,37,92,30,20,2,33,*7F
$GPGSV,6,3,22,21,36,49,34,26,53,145,30,27,61,318,43,70,16,45,*7F
$GPGSV,6,4,22,71,20,96,25,72,2,141,,75,5,172,,76,46,204,34*45
$GPGSV,6,5,22,77,49,303,29,78,3,337,,85,4,60,25,86,48,26,37*7D
$GPGSV,6,6,22,87,46,287,,88,6,258,*40
$GPRMC,175737.00,A,3945.0568,N,00807.5658,W,7.447,109.122,140517,,E,A*07
$GPGGA,175738.00,3945.0562,N,00807.5635,W,1,11,1.076,321.820,M,,M,0,*55
$GPGSA,A,3,7,8,10,16,18,21,26,27,71,77,86,,1.805,1.076,1.449*3C
$GPGSV,6,1,22,4,8,225,,7,14,315,30,8,30,287,26,10,34,130,24*71
$GPGSV,6,2,22,11,1,244,,16,84,140,32,18,37,92,26,20,2,33,*73
$GPGSV,6,3,22,21,36,49,34,26,53,145,24,27,61,318,42,70,16,45,*7B
$GPGSV,6,4,22,71,20,96,27,72,2,141,,75,5,172,,76,46,204,35*46
$GPGSV,6,5,22,77,49,303,30,78,3,337,,85,4,60,23,86,48,26,40*73
$GPGSV,6,6,22,87,46,287,,88,6,258,*40
$GPRMC,175738.00,A,3945.0562,N,00807.5635,W,6.567,108.442,140517,,E,A*09
$GPGGA,175739.00,3945.0555,N,00807.5613,W,1,11,1.076,321.770,M,,M,0,*5E
$GPGSA,A,3,7,8,10,16,18,21,26,27,71,77,86,,1.805,1.076,1.449*3C
$GPGSV,6,1,22,4,8,225,,7,14,315,34,8,30,287,20,10,34,130,28*7F
$GPGSV,6,2,22,11,1,244,,16,84,140,32,18,37,92,26,20,2,33,*73
$GPGSV,6,3,22,21,36,49,35,26,53,145,28,27,61,318,42,70,16,45,*76
$GPGSV,6,4,22,71,20,96,29,72,2,141,,75,5,172,,76,46,204,30*4D
$GPGSV,6,5,22,77,49,303,29,78,3,337,,85,4,60,15,86,48,26,40*7E
$GPGSV,6,6,22,87,46,287,,88,6,258,*40
$GPRMC,175739.00,A,3945.0555,N,00807.5613,W,6.962,110.417,140517,,E,A*08
$GPGGA,175740.00,3945.0547,N,00807.5590,W,1,11,1.051,322.339,M,,M,0,*54
$GPGSA,A,3,7,8,10,16,18,21,26,27,77,85,86,,1.691,1.051,1.325*3C
$GPGSV,6,1,22,4,8,225,,7,14,315,34,8,30,287,23,10,34,130,25*71
$GPGSV,6,2,22,11,1,244,,16,84,140,33,18,37,92,30,20,2,33,*75
$GPGSV,6,3,22,21,36,49,32,26,53,145,31,27,61,318,42,70,16,45,*79
$GPGSV,6,4,22,71,20,96,24,72,2,141,,75,5,172,,76,46,204,30*40
$GPGSV,6,5,22,77,49,303,32,78,3,337,,85,4,60,31,86,48,26,38*7D
$GPGSV,6,6,22,87,46,287,,88,6,258,*40
$GPRMC,175740.00,A,3945.0547,N,00807.5590,W,7.104,114.168,140517,,E,A*0D
$GPGGA,175741.00,3945.0537,N,00807.5567,W,1,10,1.108,323.188,M,,M,0,*5F
$GPGSA,A,3,7,8,10,16,18,21,26,27,77,86,,,1.994,1.108,1.658*39
$GPGSV,6,1,22,4,8,225,,7,14,315,34,8,30,287,35,10,34,130,28*7B
$GPGSV,6,2,22,11,1,244,,16,84,140,32,18,37,92,33,20,2,33,*77
$GPGSV,6,3,22,21,36,49,33,26,53,145,26,27,61,318,41,70,16,45,*7D
$GPGSV,6,4,22,71,20,96,23,72,3,141,,75,5,172,,76,46,204,28*4F
$GPGSV,6,5,22,77,49,303,31,78,3,337,,85,4,60,23,86,48,26,37*72
$GPGSV,6,6,22,87,46,287,,88,6,258,*40
$GPRMC,175741.00,A,3945.0537,N,00807.5567,W,7.024,123.700,140517,,E,A*0C
$GPGGA,175742.00,3945.0525,N,00807.5546,W,1,11,1.076,324.370,M,,M,0,*57
$GPGSA,A,3,7,8,10,16,18,21,26,27,71,77,86,,1.805,1.076,1.450*34
$GPGSV,6,1,22,4,8,225,,7,14,315,37,8,30,287,33,10,34,130,27*71
$GPGSV,6,2,22,11,1,244,,16,84,140,33,18,37,92,37,20,2,33,*72
$GPGSV,6,3,22,21,36,49,32,26,53,145,32,27,61,318,38,70,16,44,*76
$GPGSV,6,4,22,71,20,96,28,72,3,141,,75,5,172,,76,46,204,26*4A
$GPGSV,6,5,22,77,49,303,32,78,3,337,,85,4,60,23,86,48,26,37*71
$GPGSV,6,6,22,87,46,287,,88,6,258,*40
$GPRMC,175742.00,A,3945.0525,N,00807.5546,W,6.507,134.320,140517,,E,A*0A
$GPGGA,175743.00,3945.0508,N,00807.5530,W,1,11,1.076,323.368,M,,M,0,*56
$GPGSA,A,3,7,8,10,16,18,21,26,27,71,77,86,,1.806,1.076,1.450*37
$GPGSV,6,1,22,4,8,225,,7,14,315,32,8,30,287,29,10,34,130,20*78
$GPGSV,6,2,22,11,1,244,,16,84,140,33,18,37,92,39,20,2,33,*7C
$GPGSV,6,3,22,21,36,49,36,26,53,145,33,27,61,319,39,70,16,44,*73
$GPGSV,6,4,22,71,20,96,29,72,3,141,,75,5,172,,76,46,204,28*45
$GPGSV,6,5,22,77,49,303,32,78,3,337,,85,4,60,19,86,48,26,41*79
$GPGSV,6,6,22,87,46,287,,88,6,258,*40
$GPRMC,175743.00,A,3945.0508,N,00807.5530,W,6.875,148.023,140517,,E,A*06
$GPGGA,175744.00,3945.0490,N,00807.5517,W,1,11,1.076,322.462,M,,M,0,*58
$GPGSA,A,3,7,8,10,16,18,21,26,27,71,77,86,,1.806,1.076,1.451*36
$GPGSV,6,1,22,4,8,225,,7,14,315,29,8,30,287,31,10,34,130,31*7B
$GPGSV,6,2,22,11,1,244,,16,84,140,29,18,37,92,39,20,2,33,*77
$GPGSV,6,3,22,21,36,49,40,26,53,145,30,27,61,319,38,70,16,44,*70
$GPGSV,6,4,22,71,20,96,25,72,3,141,,75,5,172,,76,46,204,28*49
$GPGSV,6,5,22,77,49,303,25,78,3,337,,85,4,60,22,86,48,26,41*77
$GPGSV,6,6,22,87,46,287,,88,6,258,*40
$GPRMC,175744.00,A,3945.0490,N,00807.5517,W,6.318,149.555,140517,,E,A*01
$GPGGA,175745.00,3945.0476,N,00807.5506,W,1,9,1.132,321.704,M,,M,0,*69
$GPGSA,A,3,7,8,10,16,18,21,26,27,86,,,,2.050,1.132,1.709*37
$GPGSV,6,1,22,4,8,225,,7,14,315,29,8,30,287,33,10,34,130,29*70
$GPGSV,6,2,22,11,1,244,,16,84,140,29,18,37,92,39,20,2,33,*77
$GPGSV,6,3,22,21,36,49,41,26,53,145,30,27,61,319,35,70,16,44,*7C
$GPGSV,6,4,22,71,20,96,21,72,3,141,,75,5,172,,76,46,204,26*43
$GPGSV,6,5,22,77,49,303,21,78,3,337,,85,4,60,18,86,48,26,42*79
$GPGSV,6,6,22,87,46,287,,88,6,258,*40
$GPRMC,175745.00,A,3945.0476,N,00807.5506,W,4.957,150.413,140517,,E,A*00
$GPGGA,175746.00,3945.0463,N,00807.5496,W,1,9,1.132,321.201,M,,M,0,*66
$GPGSA,A,3,7,8,10,16,18,21,26,27,86,,,,2.050,1.132,1.709*37
$GPGSV,6,1,22,4,8,225,,7,14,315,31,8,30,287,34,10,34,130,30*76
$GPGSV,6,2,22,11,1,244,,16,84,140,27,18,37,92,38,20,2,33,*78
$GPGSV,6,3,22,21,36,49,40,26,53,145,31,27,61,319,36,70,16,44,*7F
$GPGSV,6,4,22,71,20,96,24,72,3,141,,75,5,172,,76,46,204,28*48
$GPGSV,6,5,22,77,49,303,24,78,3,337,,85,4,60,18,86,48,26,41*7F
$GPGSV,6,6,22,87,46,287,,88,6,258,*40
$GPRMC,175746.00,A,3945.0463,N,00807.5496,W,4.751,144.559,140517,,E,A*0D
$GPGGA,175747.00,3945.0451,N,00807.5485,W,1,11,1.076,320.931,M,,M,0,*55
$GPGSA,A,3,7,8,10,16,18,21,26,27,71,77,86,,1.807,1.076,1.451*37
$GPGSV,6,1,22,4,8,225,,7,14,315,32,8,30,287,32,10,34,130,30*73
$GPGSV,6,2,22,11,1,244,,16,84,140,27,18,37,92,34,20,2,33,*74
$GPGSV,6,3,22,21,36,49,40,26,53,145,31,27,61,319,35,70,16,44,*7C
$GPGSV,6,4,22,71,20,96,26,72,3,141,,75,5,172,,76,46,204,30*43
$GPGSV,6,5,22,77,49,303,25,78,3,337,,85,4,60,18,86,48,26,42*7D
$GPGSV,6,6,22,87,46,287,,88,6,258,*40
$GPRMC,175747.00,A,3945.0451,N,00807.5485,W,5.486,141.170,140517,,E,A*0D
$GPGGA,175748.00,3945.0438,N,00807.5473,W,1,10,1.092,321.197,M,,M,0,*52
$GPGSA,A,3,7,8,10,16,18,21,26,27,71,86,,,1.835,1.092,1.475*3A
$GPGSV,6,1,22,4,8,225,,7,14,315,38,8,30,287,29,10,34,130,29*7B
$GPGSV,6,2,22,11,1,244,,16,84,140,28,18,37,92,34,20,2,33,*7B
$GPGSV,6,3,22,21,36,49,38,26,53,145,33,27,61,319,35,70,16,44,*71
$GPGSV,6,4,22,71,20,96,32,72,3,141,,75,5,172,,76,46,204,26*41
$GPGSV,6,5,22,77,49,303,22,78,3,337,,85,4,60,23,86,48,26,43*73
$GPGSV,6,6,22,87,46,288,,88,6,258,*4F
$GPRMC,175748.00,A,3945.0438,N,00807.5473,W,7.122,148.281,140517,,E,A*09
$GPGGA,175749.00,3945.0420,N,00807.5461,W,1,11,1.043,322.050,M,,M,0,*5D
$GPGSA,A,3,7,8,10,16,18,21,26,27,71,85,86,,1.651,1.043,1.280*3B
$GPGSV,6,1,22,4,8,225,,7,14,315,39,8,30,287,32,10,34,130,30*78
$GPGSV,6,2,22,11,1,244,,16,84,140,31,18,37,92,32,20,2,33,*75
$GPGSV,6,3,22,21,36,49,39,26,53,145,35,27,61,319,38,70,16,44,*7B
$GPGSV,6,4,22,71,20,96,32,72,3,141,,75,5,172,,76,46,204,25*42
$GPGSV,6,5,22,77,49,303,22,78,3,337,,85,4,60,26,86,48,26,44*71
$GPGSV,6,6,22,87,46,288,,88,6,258,*4F
$GPRMC,175749.00,A,3945.0420,N,00807.5461,W,7.750,158.408,140517,,E,A*07
$GPGGA,175750.00,3945.0400,N,00807.5454,W,1,11,1.076,322.594,M,,M,0,*5A
$GPGSA,A,3,7,8,10,16,18,21,26,27,71,77,86,,1.807,1.076,1.452*34
$GPGSV,6,1,22,4,8,225,,7,14,315,37,8,30,287,31,10,34,130,30*75
$GPGSV,6,2,22,11,1,244,,16,84,140,30,18,37,92,30,20,2,33,*76
$GPGSV,6,3,22,21,36,49,37,26,53,145,32,27,61,319,35,70,16,44,*7F
$GPGSV,6,4,22,71,20,96,28,72,3,141,,75,5,172,,76,46,204,31*4C
$GPGSV,6,5,22,77,49,303,27,78,3,337,,85,4,60,24,86,48,26,42*70
$GPGSV,6,6,22,87,46,288,,88,6,258,*4F
$GPRMC,175750.00,A,3945.0400,N,00807.5454,W,6.821,160.360,140517,,E,A*01
$GPGGA,175751.00,3945.0377,N,00807.5449,W,1,11,1.043,322.209,M,,M,0,*55
$GPGSA,A,3,7,8,10,16,18,21,26,27,71,85,86,,1.651,1.043,1.280*3B
$GPGSV,6,1,22,4,8,225,,7,14,315,34,8,30,287,30,10,34,130,33*74
$GPGSV,6,2,22,11,1,244,,16,84,140,29,18,37,92,28,20,2,33,*77
$GPGSV,6,3,22,21,36,49,38,26,53,145,33,27,61,319,32,70,16,44,*76
$GPGSV,6,4,22,71,20,96,31,72,3,141,,75,5,172,,76,46,204,31*44
$GPGSV,6,5,22,77,49,303,24,78,3,337,,85,4,60,26,86,48,26,43*70
$GPGSV,6,6,22,87,46,288,,88,6,258,*4F
$GPRMC,175751.00,A,3945.0377,N,00807.5449,W,6.029,167.227,140517,,E,A*0E
$GPGGA,175752.00,3945.0360,N,00807.5444,W,1,12,1.029,322.342,M,,M,0,*5C
$GPGSA,A,3,7,8,10,16,18,21,26,27,71,77,85,86,1.634,1.029,1.268*32
$GPGSV,6,1,22,4,8,225,,7,14,315,33,8,30,287,30,10,34,130,35*75
$GPGSV,6,2,22,11,1,244,,16,84,140,29,18,37,92,28,20,2,33,*77
$GPGSV,6,3,22,21,36,49,44,26,53,145,34,27,61,319,34,70,16,44,*7C
$GPGSV,6,4,22,71,20,96,27,72,3,141,,75,5,172,,76,46,204,31*43
$GPGSV,6,5,22,77,49,303,30,78,3,337,,85,4,60,25,86,48,26,41*74
$GPGSV,6,6,22,87,46,288,,88,6,258,*4F
$GPRMC,175752.00,A,3945.0360,N,00807.5444,W,5.731,178.614,140517,,E,A*01
$GPGGA,175753.00,3945.0343,N,00807.5444,W,1,11,1.076,322.234,M,,M,0,*55
$GPGSA,A,3,7,8,10,16,18,21,26,27,71,77,86,,1.808,1.076,1.453*3A
$GPGSV,6,1,22,4,8,225,,7,14,315,31,8,30,287,29,10,34,130,35*7F
$GPGSV,6,2,22,11,1,244,,16,84,140,31,18,37,92,32,20,2,33,*75
$GPGSV,6,3,22,21,36,49,42,26,53,145,35,27,61,319,36,70,16,44,*79
$GPGSV,6,4,22,71,20,96,30,72,3,141,,75,5,172,,76,46,204,29*4C
$GPGSV,6,5,22,77,49,303,26,78,3,337,,85,4,60,23,86,48,26,40*74
$GPGSV,6,6,22,87,46,288,,88,6,258,*4F
$GPRMC,175753.00,A,3945.0343,N,00807.5444,W,5.631,188.042,140517,,E,A*0A
$GPGGA,175754.00,3945.0328,N,00807.5444,W,1,11,1.076,321.880,M,,M,0,*59
$GPGSA,A,3,7,8,10,16,18,21,26,27,71,77,86,,1.808,1.076,1.453*3A
$GPGSV,6,1,22,4,8,225,,7,14,315,29,8,30,287,30,10,34,130,37*7C
$GPGSV,6,2,22,11,1,244,,16,84,140,32,18,37,92,37,20,2,33,*73
$GPGSV,6,3,22,21,36,49,42,26,53,145,33,27,61,319,33,70,16,44,*7A
$GPGSV,6,4,22,71,20,96,30,72,3,141,,75,5,172,,76,46,204,30*44
$GPGSV,6,5,22,77,49,303,32,78,3,337,,85,4,60,20,86,48,26,38*7D
$GPGSV,6,6,22,87,46,288,,88,6,258,*4F
$GPRMC,175754.00,A,3945.0328,N,00807.5444,W,4.854,192.390,140517,,E,A*0B
$GPGGA,175755.00,3945.0313,N,00807.5448,W,1,11,1.076,321.512,M,,M,0,*5A
$GPGSA,A,3,7,8,10,16,18,21,26,27,71,77,86,,1.808,1.076,1.454*3D
$GPGSV,6,1,22,4,8,225,,7,14,315,29,8,30,287,30,10,34,130,36*7D
$GPGSV,6,2,22,11,1,244,,16,84,140,33,18,37,92,38,20,2,33,*7D
$GPGSV,6,3,22,21,36,49,38,26,53,145,32,27,61,319,35,70,16,44,*70
$GPGSV,6,4,22,71,20,96,31,72,3,141,,75,5,172,,76,46,204,33*46
$GPGSV,6,5,22,77,49,303,33,78,3,337,,85,4,60,23,86,48,26,37*70
$GPGSV,6,6,22,87,46,288,,88,6,258,*4F
$GPRMC,175755.00,A,3945.0313,N,00807.5448,W,4.386,195.853,140517,,E,A*09
$GPGGA,175756.00,3945.0301,N,00807.5451,W,1,11,1.075,321.207,M,,M,0,*52
