$GPGSV,4,1,16,01,,,,07,11,317,,08,26,284,,09,,,*73
$GPGSV,4,2,16,10,30,133,,11,,,,13,,,,15,,,*4D
$GPGSV,4,3,16,16,87,067,,18,35,097,,20,04,035,,21,39,049,*75
$GPGSV,4,4,16,26,57,142,,27,58,312,,29,,,,30,,,*7F
$GLGSV,3,1,12,78,,,,70,16,049,,86,51,019,,77,45,309,*5F
$GLGSV,3,2,12,76,52,205,,75,09,171,,69,,,,88,04,253,*55
$GLGSV,3,3,12,87,44,281,,85,07,056,,71,16,099,,72,,,*5F
$GPGSV,4,1,16,01,,,,07,11,317,,08,26,284,,09,,,*73
$GPGSV,4,2,16,10,30,133,,11,,,,13,,,,15,,,*4D
$GPGSV,4,3,16,16,87,068,,18,35,097,,20,04,035,,21,39,049,*7A
$GPGSV,4,4,16,26,57,142,,27,58,312,,29,,,,30,,,*7F
$GLGSV,3,1,12,78,,,,70,16,049,,86,51,019,,77,45,309,*5F
$GLGSV,3,2,12,76,52,205,,75,09,171,,69,,,,88,04,253,*55
$GLGSV,3,3,12,87,44,281,,85,07,056,,71,16,099,,72,,,*5F
$GPGSV,4,1,16,01,,,,07,11,317,,08,26,284,,09,,,*73
$GPGSV,4,2,16,10,30,133,,11,,,,13,,,,15,,,*4D
$GPGSV,4,3,16,16,87,068,,18,35,097,,20,04,035,,21,39,049,*7A
$GPGSV,4,4,16,26,57,142,,27,58,312,,29,,,,30,,,*7F
$GLGSV,3,1,12,78,,,,70,16,049,,86,51,019,,77,45,309,*5F
$GLGSV,3,2,12,76,52,205,,75,09,171,,69,,,,88,04,253,*55
$GLGSV,3,3,12,87,44,281,,85,07,056,,71,16,099,,72,,,*5F
$GPGSV,4,1,16,01,,,,07,11,317,,08,26,284,,09,,,*73
$GPGSV,4,2,16,10,30,133,,11,,,,13,,,,15,,,*4D
$GPGSV,4,3,16,16,87,068,,18,35,097,,20,04,035,,21,39,049,*7A
$GPGSV,4,4,16,26,57,142,,27,58,312,,29,,,,30,,,*7F
$GLGSV,3,1,12,78,,,,70,16,049,,86,51,019,,77,45,309,*5F
$GLGSV,3,2,12,76,52,205,,75,09,171,,69,,,,88,04,253,*55
$GLGSV,3,3,12,87,44,281,,85,07,056,,71,16,099,,72,,,*5F
$GPGSV,4,1,16,01,,,,07,11,317,,08,26,284,,09,,,*73
$GPGSV,4,2,16,10,30,133,,11,,,,13,,,,15,,,*4D
$GPGSV,4,3,16,16,87,068,,18,35,097,,20,04,035,,21,39,049,*7A
$GPGSV,4,4,16,26,57,142,,27,58,312,,29,,,,30,,,*7F
$GLGSV,3,1,12,78,,,,70,16,049,,86,51,019,,77,45,309,*5F
$GLGSV,3,2,12,76,52,205,,75,09,171,,69,,,,88,04,253,*55
$GLGSV,3,3,12,87,44,281,,85,07,056,,71,16,099,,72,,,*5F
$GPGSV,4,1,16,01,,,,07,11,317,,08,26,284,,09,,,*73
$GPGSV,4,2,16,10,30,133,,11,,,,13,,,,15,,,*4D
$GPGSV,4,3,16,16,87,068,,18,35,097,,20,04,035,,21,39,049,*7A
$GPGSV,4,4,16,26,57,142,,27,58,312,,29,,,,30,,,*7F
$GLGSV,3,1,12,78,,,,70,16,049,,86,51,019,,77,45,309,*5F
$GLGSV,3,2,12,76,52,205,,75,09,171,,69,,,,88,04,253,*55
$GLGSV,3,3,12,87,44,281,,85,07,056,,71,16,099,,72,,,*5F
$GPGSV,4,1,16,01,,,,07,11,317,,08,26,284,,09,,,*73
$GPGSV,4,2,16,10,30,133,,11,,,,13,,,,15,,,*4D
$GPGSV,4,3,16,16,87,070,,18,35,097,,20,04,035,,21,39,049,*73
$GPGSV,4,4,16,26,57,142,,27,58,312,,29,,,,30,,,*7F
$GLGSV,3,1,12,78,,,,70,16,049,,86,51,019,,77,45,309,*5F
$GLGSV,3,2,12,76,52,205,,75,09,171,,69,,,,88,04,253,*55
$GLGSV,3,3,12,87,44,281,,85,07,056,,71,16,099,,72,,,*5F
$GPGSV,4,1,16,01,,,,07,11,317,,08,26,284,,09,,,*73
$GPGSV,4,2,16,10,30,133,,11,,,,13,,,,15,,,*4D
$GPGSV,4,3,16,16,87,070,,18,35,097,,20,04,035,,21,39,049,*73
$GPGSV,4,4,16,26,56,142,,27,58,312,,29,,,,30,,,*7E
$GLGSV,3,1,12,78,,,,70,16,049,,86,51,019,,77,45,309,*5F
$GLGSV,3,2,12,76,52,205,,75,09,171,,69,,,,88,04,253,*55
$GLGSV,3,3,12,87,44,281,,85,07,056,,71,16,099,,72,,,*5F
$GPGSV,3,1,09,07,13,316,28,08,28,285,18,10,32,130,28,16,84,137,20*79
$GPGSV,3,2,09,18,36,092,32,26,53,144,29,27,60,316,27,11,00,243,*78
$GPGSV,3,3,09,20,02,033,*40
$GLGSV,3,1,11,70,16,045,12,86,48,025,24,77,48,303,13,76,47,202,19*62
$GLGSV,3,2,11,87,46,285,20,85,04,059,14,71,18,097,26,78,02,337,*6B
$GLGSV,3,3,11,75,05,171,,88,06,255,,72,02,142,*51
$GPGGA,175609.0,3945.167871,N,00807.532975,W,1,08,0.8,239.3,M,55.0,M,,*4C
$GNGNS,175609.0,3945.167871,N,00807.532975,W,AA,15,0.8,239.3,55.0,,*74
$GPVTG,228.3,T,228.3,M,16.4,N,30.3,K,A*20
$GPRMC,175609.0,A,3945.167871,N,00807.532975,W,16.4,228.3,140517,0.0,E,A*20
$GPGSA,A,2,07,08,10,16,18,21,26,27,,,,,1.1,0.8,0.8*31
$GNGSA,A,2,07,08,10,16,18,21,26,27,,,,,1.1,0.8,0.8*2F
$GNGSA,A,2,70,71,76,77,85,86,87,,,,,,1.1,0.8,0.8*21
$GPGSV,3,1,10,07,13,316,25,08,28,285,18,10,32,130,29,16,84,137,20*7D
$GPGSV,3,2,10,18,36,092,28,21,36,049,21,26,53,144,22,27,60,316,20*7A
$GPGSV,3,3,10,11,00,243,,20,02,033,*7D
$GLGSV,3,1,11,70,16,045,12,86,48,025,24,77,48,303,13,76,47,202,19*62
$GLGSV,3,2,11,87,46,285,20,85,04,059,14,71,18,097,26,78,02,337,*6B
$GLGSV,3,3,11,75,05,171,,88,06,255,,72,02,142,*51
$GPGGA,175610.0,3945.165229,N,00807.533873,W,1,08,0.8,238.9,M,55.0,M,,*4C
$GNGNS,175610.0,3945.165229,N,00807.533873,W,AA,15,0.8,238.9,55.0,,*74
$GPVTG,220.6,T,220.6,M,12.4,N,23.0,K,A*25
$GPRMC,175610.0,A,3945.165229,N,00807.533873,W,12.4,220.6,140517,0.0,E,A*22
$GPGSA,A,2,07,08,10,16,18,21,26,27,,,,,1.1,0.8,0.8*31
$GNGSA,A,2,07,08,10,16,18,21,26,27,,,,,1.1,0.8,0.8*2F
$GNGSA,A,2,70,71,76,77,85,86,87,,,,,,1.1,0.8,0.8*21
$GPGSV,3,1,10,07,13,316,23,08,28,285,13,10,32,130,33,16,84,137,15*7D
$GPGSV,3,2,10,18,36,092,26,21,36,049,18,26,53,144,25,27,60,316,16*7C
$GPGSV,3,3,10,11,00,243,,20,02,033,*7D
$GLGSV,3,1,11,70,16,045,12,86,48,025,24,77,48,303,13,76,47,202,14*6F
$GLGSV,3,2,11,87,46,285,20,85,04,059,16,71,18,097,30,78,02,337,*6E
$GLGSV,3,3,11,75,05,171,,88,06,255,,72,02,142,*51
$GPGGA,175611.0,3945.165796,N,00807.532423,W,1,08,0.8,239.5,M,55.0,M,,*49
$GNGNS,175611.0,3945.165796,N,00807.532423,W,AA,15,0.8,239.5,55.0,,*71
$GPVTG,228.5,T,228.5,M,4.0,N,7.4,K,A*24
$GPRMC,175611.0,A,3945.165796,N,00807.532423,W,4.0,228.5,140517,0.0,E,A*12
$GPGSA,A,2,07,08,10,16,18,21,26,27,,,,,1.1,0.8,0.8*31
$GNGSA,A,2,07,08,10,16,18,21,26,27,,,,,1.1,0.8,0.8*2F
$GNGSA,A,2,70,71,76,77,85,86,87,,,,,,1.1,0.8,0.8*21
$GPGSV,3,1,09,07,13,314,23,08,28,285,13,10,32,130,34,16,84,137,21*77
$GPGSV,3,2,09,18,36,092,27,26,53,144,28,27,60,316,26,11,00,243,*7C
$GPGSV,3,3,09,20,02,033,*40
$GLGSV,3,1,11,70,16,045,12,86,48,025,24,77,48,303,13,76,47,202,19*62
$GLGSV,3,2,11,87,46,285,13,85,04,059,16,71,18,097,30,78,02,337,*6E
$GLGSV,3,3,11,75,05,171,,88,06,255,,72,02,142,*51
$GPGGA,175612.0,3945.165365,N,00807.533765,W,1,08,0.8,238.9,M,55.0,M,,*4F
$GNGNS,175612.0,3945.165365,N,00807.533765,W,AA,15,0.8,238.9,55.0,,*77
$GPVTG,228.5,T,228.5,M,1.4,N,2.5,K,A*21
$GPRMC,175612.0,A,3945.165365,N,00807.533765,W,1.4,228.5,140517,0.0,E,A*18
$GPGSA,A,2,07,08,10,16,18,21,26,27,,,,,1.1,0.8,0.8*31
$GNGSA,A,2,07,08,10,16,18,21,26,27,,,,,1.1,0.8,0.8*2F
$GNGSA,A,2,70,71,76,77,85,86,87,,,,,,1.1,0.8,0.8*21
$GPGSV,3,1,09,07,13,314,17,08,28,285,19,10,32,130,35,16,84,137,21*7B
$GPGSV,3,2,09,18,36,092,29,26,53,144,30,27,60,316,27,11,00,243,*7A
$GPGSV,3,3,09,20,02,033,*40
$GLGSV,3,1,11,70,16,045,12,86,48,025,24,77,48,303,11,76,47,202,20*6A
$GLGSV,3,2,11,87,46,285,20,85,04,059,16,71,18,097,31,78,02,337,*6F
$GLGSV,3,3,11,75,05,171,,88,06,255,,72,02,142,*51
$GPGGA,175613.0,3945.165273,N,00807.533580,W,1,08,0.8,256.0,M,55.0,M,,*40
$GNGNS,175613.0,3945.165273,N,00807.533580,W,AA,14,0.8,256.0,55.0,,*79
$GPVTG,228.2,T,228.2,M,1.7,N,3.1,K,A*27
$GPRMC,175613.0,A,3945.165273,N,00807.533580,W,1.7,228.2,140517,0.0,E,A*12
$GPGSA,A,2,07,08,10,16,18,21,26,27,,,,,1.1,0.8,0.8*31
$GNGSA,A,2,07,08,10,16,18,21,26,27,,,,,1.1,0.8,0.8*2F
$GNGSA,A,2,71,76,77,85,86,87,,,,,,,1.1,0.8,0.8*26
$GPGSV,3,1,09,07,13,314,17,08,28,285,17,10,32,130,33,16,84,137,22*70
$GPGSV,3,2,09,18,36,092,23,26,53,144,28,27,60,316,27,11,00,243,*79
$GPGSV,3,3,09,20,02,033,*40
$GLGSV,3,1,11,70,16,045,12,86,48,025,24,77,48,303,11,76,47,202,20*6A
$GLGSV,3,2,11,87,46,285,22,85,04,059,16,71,18,097,28,78,02,337,*65
$GLGSV,3,3,11,75,05,171,,88,06,255,,72,02,142,*51
$GPGGA,175614.0,3945.164589,N,00807.533992,W,1,08,0.9,252.9,M,55.0,M,,*47
$GNGNS,175614.0,3945.164589,N,00807.533992,W,AA,13,0.9,252.9,55.0,,*79
$GPVTG,225.9,T,225.9,M,3.0,N,5.6,K,A*23
$GPRMC,175614.0,A,3945.164589,N,00807.533992,W,3.0,225.9,140517,0.0,E,A*1A
$GPGSA,A,2,07,08,10,16,18,21,26,27,,,,,1.2,0.9,0.8*33
$GNGSA,A,2,07,08,10,16,18,21,26,27,,,,,1.2,0.9,0.8*2D
$GNGSA,A,2,71,76,77,85,87,,,,,,,,1.2,0.9,0.8*2A
$GPGSV,3,1,09,07,13,314,17,08,28,285,18,10,32,130,33,16,84,137,23*7E
$GPGSV,3,2,09,18,36,092,22,26,53,144,29,27,60,316,17,11,00,243,*7A
$GPGSV,3,3,09,20,02,033,*40
$GLGSV,3,1,11,70,16,045,12,86,48,025,24,77,48,303,11,76,47,202,16*6F
$GLGSV,3,2,11,87,46,285,19,85,04,059,16,71,18,097,26,78,02,337,*63
$GLGSV,3,3,11,75,05,171,,88,06,255,,72,02,142,*51
$GPGGA,175615.0,3945.163687,N,00807.535666,W,1,08,0.9,250.0,M,55.0,M,,*45
$GNGNS,175615.0,3945.163687,N,00807.535666,W,AA,13,0.9,250.0,55.0,,*7B
$GPVTG,230.7,T,230.7,M,5.8,N,10.7,K,A*18
$GPRMC,175615.0,A,3945.163687,N,00807.535666,W,5.8,230.7,140517,0.0,E,A*17
$GPGSA,A,2,07,08,10,16,18,21,26,27,,,,,1.2,0.9,0.8*33
$GNGSA,A,2,07,08,10,16,18,21,26,27,,,,,1.2,0.9,0.8*2D
$GNGSA,A,2,71,76,77,85,87,,,,,,,,1.2,0.9,0.8*2A
$GPGSV,3,1,09,07,13,314,18,08,28,285,20,10,32,130,32,16,84,137,26*7E
$GPGSV,3,2,09,18,36,092,19,26,53,144,28,27,60,316,20,11,00,243,*77
$GPGSV,3,3,09,20,02,033,*40
$GLGSV,3,1,11,70,16,045,12,86,48,025,24,77,48,303,11,76,47,202,16*6F
$GLGSV,3,2,11,87,46,285,22,85,04,059,14,71,18,097,26,78,02,337,*69
$GLGSV,3,3,11,75,05,171,,88,06,255,,72,02,142,*51
$GPGGA,175616.0,3945.163174,N,00807.537960,W,1,08,0.9,248.4,M,55.0,M,,*4B
$GNGNS,175616.0,3945.163174,N,00807.537960,W,AA,13,0.9,248.4,55.0,,*75
$GPVTG,236.8,T,236.8,M,5.8,N,10.7,K,A*18
$GPRMC,175616.0,A,3945.163174,N,00807.537960,W,5.8,236.8,140517,0.0,E,A*1D
$GPGSA,A,2,07,08,10,16,18,21,26,27,,,,,1.2,0.9,0.8*33
$GNGSA,A,2,07,08,10,16,18,21,26,27,,,,,1.2,0.9,0.8*2D
$GNGSA,A,2,71,76,77,85,87,,,,,,,,1.2,0.9,0.8*2A
$GPGSV,3,1,09,07,13,314,18,08,28,285,18,10,32,130,32,16,84,137,21*72
$GPGSV,3,2,09,18,36,092,18,26,53,144,27,27,60,316,18,11,00,243,*72
$GPGSV,3,3,09,20,02,033,*40
$GLGSV,3,1,11,70,16,045,12,86,48,025,24,77,48,303,11,76,47,202,16*6F
$GLGSV,3,2,11,87,46,285,25,85,04,059,21,71,18,097,25,78,02,337,*6B
$GLGSV,3,3,11,75,05,171,,88,06,255,,72,02,142,*51
$GPGGA,175617.0,3945.162585,N,00807.539163,W,1,08,0.9,247.7,M,55.0,M,,*48
$GNGNS,175617.0,3945.162585,N,00807.539163,W,AA,13,0.9,247.7,55.0,,*76
$GPVTG,247.7,T,247.7,M,5.5,N,10.1,K,A*13
$GPRMC,175617.0,A,3945.162585,N,00807.539163,W,5.5,247.7,140517,0.0,E,A*16
$GPGSA,A,2,07,08,10,16,18,21,26,27,,,,,1.2,0.9,0.8*33
$GNGSA,A,2,07,08,10,16,18,21,26,27,,,,,1.2,0.9,0.8*2D
$GNGSA,A,2,71,76,77,85,87,,,,,,,,1.2,0.9,0.8*2A
$GPGSV,3,1,10,07,13,314,18,08,28,285,22,10,32,130,28,16,84,137,20*79
$GPGSV,3,2,10,18,36,092,17,21,36,049,23,26,53,144,25,27,60,316,18*78
$GPGSV,3,3,10,11,00,243,,20,02,033,*7D
$GLGSV,3,1,11,70,16,045,12,86,48,025,24,77,48,303,12,76,47,202,17*6D
$GLGSV,3,2,11,87,46,285,20,85,04,059,19,71,18,097,21,78,02,337,*61
$GLGSV,3,3,11,75,05,171,,88,06,255,,72,02,142,*51
$GPGGA,175618.0,3945.161857,N,00807.539998,W,1,08,0.8,246.7,M,55.0,M,,*4A
$GNGNS,175618.0,3945.161857,N,00807.539998,W,AA,14,0.8,246.7,55.0,,*73
$GPVTG,247.3,T,247.3,M,5.2,N,9.6,K,A*2B
$GPRMC,175618.0,A,3945.161857,N,00807.539998,W,5.2,247.3,140517,0.0,E,A*17
$GPGSA,A,2,07,08,10,16,18,21,26,27,,,,,1.2,0.8,0.8*32
$GNGSA,A,2,07,08,10,16,18,21,26,27,,,,,1.2,0.8,0.8*2C
$GNGSA,A,2,70,71,76,77,85,87,,,,,,,1.2,0.8,0.8*2C
$GPGSV,3,1,10,07,13,314,18,08,28,285,21,10,32,130,25,16,84,137,16*72
$GPGSV,3,2,10,18,36,092,17,21,36,049,19,26,53,144,21,27,60,316,18*75
$GPGSV,3,3,10,11,00,243,,20,02,033,*7D
$GLGSV,3,1,11,70,16,045,12,86,48,025,24,77,48,303,12,76,47,202,17*6D
$GLGSV,3,2,11,87,46,285,19,85,04,059,22,71,18,097,20,78,02,337,*62
$GLGSV,3,3,11,75,05,171,,88,06,255,,72,02,142,*51
$GPGGA,175619.0,3945.161955,N,00807.541187,W,1,08,0.8,246.5,M,55.0,M,,*43
$GNGNS,175619.0,3945.161955,N,00807.541187,W,AA,14,0.8,246.5,55.0,,*7A
$GPVTG,258.7,T,258.7,M,5.4,N,10.1,K,A*12
$GPRMC,175619.0,A,3945.161955,N,00807.541187,W,5.4,258.7,140517,0.0,E,A*10
$GPGSA,A,2,07,08,10,16,18,21,26,27,,,,,1.2,0.8,0.8*32
$GNGSA,A,2,07,08,10,16,18,21,26,27,,,,,1.2,0.8,0.8*2C
$GNGSA,A,2,70,71,76,77,85,87,,,,,,,1.2,0.8,0.8*2C
$GPGSV,3,1,10,07,13,314,19,08,28,285,25,10,32,130,24,16,84,137,16*76
$GPGSV,3,2,10,18,36,092,17,21,36,049,17,26,53,144,22,27,60,316,24*77
$GPGSV,3,3,10,11,00,243,,20,02,033,*7D
$GLGSV,3,1,11,70,16,045,12,86,48,025,24,77,48,303,12,76,47,202,17*6D
$GLGSV,3,2,11,87,46,285,19,85,04,059,26,71,19,097,21,78,02,337,*66
$GLGSV,3,3,11,75,05,171,,88,06,257,,72,02,142,*53
$GPGGA,175620.0,3945.160988,N,00807.543097,W,1,08,0.8,246.6,M,55.0,M,,*49
$GNGNS,175620.0,3945.160988,N,00807.543097,W,AA,14,0.8,246.6,55.0,,*70
$GPVTG,249.9,T,249.9,M,6.2,N,11.5,K,A*12
$GPRMC,175620.0,A,3945.160988,N,00807.543097,W,6.2,249.9,140517,0.0,E,A*12
$GPGSA,A,2,07,08,10,16,18,21,26,27,,,,,1.2,0.8,0.8*32
$GNGSA,A,2,07,08,10,16,18,21,26,27,,,,,1.2,0.8,0.8*2C
$GNGSA,A,2,70,71,76,77,85,87,,,,,,,1.2,0.8,0.8*2C
$GPGSV,3,1,10,07,13,314,19,08,28,285,23,10,32,130,23,16,84,137,17*76
$GPGSV,3,2,10,18,36,092,20,21,36,049,20,26,53,144,19,27,60,316,24*7F
$GPGSV,3,3,10,11,00,243,,20,02,033,*7D
$GLGSV,3,1,11,70,16,045,12,86,48,025,24,77,48,303,12,76,47,202,17*6D
$GLGSV,3,2,11,87,46,285,19,85,04,059,22,71,19,097,21,78,02,337,*62
$GLGSV,3,3,11,75,05,171,,88,06,257,,72,02,142,*53
$GPGGA,175621.0,3945.160504,N,00807.545023,W,1,08,0.8,248.0,M,55.0,M,,*41
$GNGNS,175621.0,3945.160504,N,00807.545023,W,AA,14,0.8,248.0,55.0,,*78
$GPVTG,252.1,T,252.1,M,5.8,N,10.7,K,A*18
$GPRMC,175621.0,A,3945.160504,N,00807.545023,W,5.8,252.1,140517,0.0,E,A*19
$GPGSA,A,2,07,08,10,16,18,21,26,27,,,,,1.2,0.8,0.8*32
$GNGSA,A,2,07,08,10,16,18,21,26,27,,,,,1.2,0.8,0.8*2C
$GNGSA,A,2,70,71,76,77,85,87,,,,,,,1.2,0.8,0.8*2C
$GPGSV,3,1,10,07,13,314,18,08,28,285,23,10,32,130,23,16,84,137,17*77
$GPGSV,3,2,10,18,36,092,19,21,36,049,17,26,53,144,22,27,60,316,23*7E
$GPGSV,3,3,10,11,00,243,,20,02,033,*7D
$GLGSV,3,1,11,70,16,045,12,86,48,025,20,77,48,303,12,76,47,202,14*6A
$GLGSV,3,2,11,87,46,285,19,85,04,059,23,71,19,097,24,78,02,337,*66
$GLGSV,3,3,11,75,05,171,,88,06,257,,72,02,142,*53
$GPGGA,175622.0,3945.159730,N,00807.546748,W,1,08,0.8,248.4,M,55.0,M,,*40
$GNGNS,175622.0,3945.159730,N,00807.546748,W,AA,15,0.8,248.4,55.0,,*78
$GPVTG,243.9,T,243.9,M,5.9,N,10.8,K,A*16
$GPRMC,175622.0,A,3945.159730,N,00807.546748,W,5.9,243.9,140517,0.0,E,A*15
$GPGSA,A,2,07,08,10,16,18,21,26,27,,,,,1.1,0.8,0.8*31
$GNGSA,A,2,07,08,10,16,18,21,26,27,,,,,1.1,0.8,0.8*2F
$GNGSA,A,2,70,71,76,77,85,86,87,,,,,,1.1,0.8,0.8*21
$GPGSV,3,1,10,07,13,314,20,08,28,285,18,10,32,130,25,16,84,137,18*7D
$GPGSV,3,2,10,18,36,092,19,21,36,049,17,26,53,144,21,27,60,316,21*7F
$GPGSV,3,3,10,11,00,243,,20,02,033,*7D
$GLGSV,3,1,11,70,16,045,12,86,48,025,20,77,48,303,12,76,47,202,16*68
$GLGSV,3,2,11,87,46,285,19,85,04,059,19,71,19,097,21,78,02,337,*6A
$GLGSV,3,3,11,75,05,171,,88,06,257,,72,02,142,*53
$GPGGA,175623.0,3945.159154,N,00807.548579,W,1,08,0.8,247.7,M,55.0,M,,*47
$GNGNS,175623.0,3945.159154,N,00807.548579,W,AA,15,0.8,247.7,55.0,,*7F
$GPVTG,247.0,T,247.0,M,5.8,N,10.8,K,A*17
$GPRMC,175623.0,A,3945.159154,N,00807.548579,W,5.8,247.0,140517,0.0,E,A*12
$GPGSA,A,2,07,08,10,16,18,21,26,27,,,,,1.1,0.8,0.8*31
$GNGSA,A,2,07,08,10,16,18,21,26,27,,,,,1.1,0.8,0.8*2F
$GNGSA,A,2,70,71,76,77,85,86,87,,,,,,1.1,0.8,0.8*21
$GPGSV,3,1,10,07,13,314,21,08,28,285,22,10,32,130,23,16,84,137,22*7A
$GPGSV,3,2,10,18,36,092,18,21,36,049,17,26,53,144,21,27,60,316,21*7E
$GPGSV,3,3,10,11,00,243,,20,02,033,*7D
$GLGSV,3,1,11,70,16,045,12,86,48,025,20,77,48,303,12,76,47,202,16*68
$GLGSV,3,2,11,87,46,285,14,85,04,059,20,71,19,097,22,78,02,337,*6E
$GLGSV,3,3,11,75,05,171,,88,06,257,,72,02,142,*53
$GPGGA,175624.0,3945.158594,N,00807.550437,W,1,08,0.8,249.7,M,55.0,M,,*45
$GNGNS,175624.0,3945.158594,N,00807.550437,W,AA,15,0.8,249.7,55.0,,*7D
$GPVTG,249.6,T,249.6,M,5.8,N,10.7,K,A*18
$GPRMC,175624.0,A,3945.158594,N,00807.550437,W,5.8,249.6,140517,0.0,E,A*16
$GPGSA,A,2,07,08,10,16,18,21,26,27,,,,,1.1,0.8,0.8*31
$GNGSA,A,2,07,08,10,16,18,21,26,27,,,,,1.1,0.8,0.8*2F
$GNGSA,A,2,70,71,76,77,85,86,87,,,,,,1.1,0.8,0.8*21
$GPGSV,3,1,10,07,13,314,22,08,28,285,23,10,32,130,23,16,84,137,21*7B
$GPGSV,3,2,10,18,36,092,19,21,36,049,17,26,53,144,22,27,60,316,23*7E
$GPGSV,3,3,10,11,00,243,,20,02,033,*7D
$GLGSV,3,1,11,70,16,045,12,86,48,025,19,77,48,303,12,76,47,202,15*61
$GLGSV,3,2,11,87,46,285,14,85,04,059,20,71,19,097,20,78,02,337,*6C
$GLGSV,3,3,11,75,05,171,,88,06,257,,72,02,142,*53
$GPGGA,175625.0,3945.158213,N,00807.552226,W,1,08,0.8,250.7,M,55.0,M,,*40
$GNGNS,175625.0,3945.158213,N,00807.552226,W,AA,13,0.8,250.7,55.0,,*7E
$GPVTG,256.5,T,256.5,M,5.9,N,10.9,K,A*17
$GPRMC,175625.0,A,3945.158213,N,00807.552226,W,5.9,256.5,140517,0.0,E,A*17
$GPGSA,A,2,07,08,10,16,18,21,26,27,,,,,1.1,0.8,0.8*31
$GNGSA,A,2,07,08,10,16,18,21,26,27,,,,,1.1,0.8,0.8*2F
$GNGSA,A,2,71,76,85,86,87,,,,,,,,1.1,0.8,0.8*26
$GPGSV,3,1,10,07,13,314,21,08,28,285,22,10,32,130,20,16,84,137,21*7A
$GPGSV,3,2,10,18,36,092,18,21,36,049,15,26,53,144,22,27,60,316,23*7D
$GPGSV,3,3,10,11,00,243,,20,02,033,*7D
$GLGSV,3,1,11,70,16,045,12,86,48,025,19,77,48,303,12,76,47,202,17*63
$GLGSV,3,2,11,87,46,285,14,85,04,059,17,71,19,097,19,78,02,337,*62
$GLGSV,3,3,11,75,05,171,,88,06,257,,72,02,142,*53
$GPGGA,175626.0,3945.157633,N,00807.554320,W,1,08,0.8,251.4,M,55.0,M,,*49
$GNGNS,175626.0,3945.157633,N,00807.554320,W,AA,13,0.8,251.4,55.0,,*77
$GPVTG,256.4,T,256.4,M,6.1,N,11.3,K,A*17
$GPRMC,175626.0,A,3945.157633,N,00807.554320,W,6.1,256.4,140517,0.0,E,A*16
$GPGSA,A,2,07,08,10,16,18,21,26,27,,,,,1.1,0.8,0.8*31
$GNGSA,A,2,07,08,10,16,18,21,26,27,,,,,1.1,0.8,0.8*2F
$GNGSA,A,2,71,76,85,86,87,,,,,,,,1.1,0.8,0.8*26
$GPGSV,3,1,10,07,13,314,21,08,28,285,20,10,32,130,21,16,84,137,21*79
$GPGSV,3,2,10,18,36,092,17,21,36,049,15,26,53,144,15,27,60,316,23*76
$GPGSV,3,3,10,11,00,243,,20,02,033,*7D
$GLGSV,3,1,11,70,16,045,12,86,48,025,19,77,48,303,12,76,47,202,17*63
$GLGSV,3,2,11,87,46,285,14,85,04,059,17,71,19,097,20,78,02,337,*68
$GLGSV,3,3,11,75,05,171,,88,06,257,,72,02,142,*53
$GPGGA,175627.0,3945.156999,N,00807.556444,W,1,08,0.8,252.7,M,55.0,M,,*41
$GNGNS,175627.0,3945.156999,N,00807.556444,W,AA,13,0.8,252.7,55.0,,*7F
$GPVTG,253.3,T,253.3,M,6.2,N,11.4,K,A*13
$GPRMC,175627.0,A,3945.156999,N,00807.556444,W,6.2,253.3,140517,0.0,E,A*1F
$GPGSA,A,2,07,08,10,16,18,21,26,27,,,,,1.1,0.8,0.8*31
$GNGSA,A,2,07,08,10,16,18,21,26,27,,,,,1.1,0.8,0.8*2F
$GNGSA,A,2,71,76,85,86,87,,,,,,,,1.1,0.8,0.8*26
$GPGSV,3,1,10,07,13,314,21,08,28,285,20,10,32,130,24,16,84,137,23*7E
$GPGSV,3,2,10,18,36,092,20,21,36,049,17,26,53,144,17,27,60,316,23*72
$GPGSV,3,3,10,11,00,243,,20,02,033,*7D
$GLGSV,3,1,11,70,16,045,12,86,48,025,19,77,48,303,10,76,47,202,15*63
$GLGSV,3,2,11,87,46,285,14,85,04,059,19,71,19,097,20,78,02,337,*66
$GLGSV,3,3,11,75,05,171,,88,06,257,,72,02,142,*53
$GPGGA,175628.0,3945.156298,N,00807.558491,W,1,08,0.8,253.7,M,55.0,M,,*43
$GNGNS,175628.0,3945.156298,N,00807.558491,W,AA,14,0.8,253.7,55.0,,*7A
$GPVTG,250.5,T,250.5,M,6.1,N,11.3,K,A*17
$GPRMC,175628.0,A,3945.156298,N,00807.558491,W,6.1,250.5,140517,0.0,E,A*1A
$GPGSA,A,2,07,08,10,16,18,21,26,27,,,,,1.1,0.8,0.8*31
$GNGSA,A,2,07,08,10,16,18,21,26,27,,,,,1.1,0.8,0.8*2F
$GNGSA,A,2,71,76,77,85,86,87,,,,,,,1.1,0.8,0.8*26
$GPGSV,3,1,10,07,13,314,21,08,28,285,20,10,32,130,26,16,84,137,24*7B
$GPGSV,3,2,10,18,36,092,20,21,36,049,17,26,53,144,17,27,60,316,18*7A
$GPGSV,3,3,10,11,00,243,,20,02,033,*7D
$GLGSV,3,1,11,70,16,045,12,86,48,025,17,77,48,303,19,76,47,202,15*64
$GLGSV,3,2,11,87,46,285,13,85,04,059,19,71,19,097,20,78,02,337,*61
$GLGSV,3,3,11,75,05,171,,88,06,257,,72,02,142,*53
$GPGGA,175629.0,3945.155611,N,00807.560763,W,1,08,0.8,253.6,M,55.0,M,,*40
$GNGNS,175629.0,3945.155611,N,00807.560763,W,AA,14,0.8,253.6,55.0,,*79
$GPVTG,252.3,T,252.3,M,6.3,N,11.6,K,A*10
$GPRMC,175629.0,A,3945.155611,N,00807.560763,W,6.3,252.3,140517,0.0,E,A*1E
$GPGSA,A,2,07,08,10,16,18,21,26,27,,,,,1.1,0.8,0.8*31
$GNGSA,A,2,07,08,10,16,18,21,26,27,,,,,1.1,0.8,0.8*2F
$GNGSA,A,2,71,76,77,85,86,87,,,,,,,1.1,0.8,0.8*26
$GPGSV,3,1,10,07,13,314,21,08,28,285,16,10,32,130,31,16,84,137,22*7E
$GPGSV,3,2,10,18,36,092,22,21,36,049,18,26,53,144,17,27,60,316,25*79
$GPGSV,3,3,10,11,00,243,,20,02,033,*7D
$GLGSV,3,1,11,70,16,045,12,86,48,025,18,77,48,303,18,76,47,202,15*6A
$GLGSV,3,2,11,87,46,285,24,85,04,059,19,71,19,097,13,78,02,337,*65
$GLGSV,3,3,11,75,05,171,,88,06,257,,72,02,142,*53
$GPGGA,175630.0,3945.154817,N,00807.563352,W,1,08,0.8,252.9,M,55.0,M,,*4A
$GNGNS,175630.0,3945.154817,N,00807.563352,W,AA,14,0.8,252.9,55.0,,*73
$GPVTG,252.6,T,252.6,M,6.4,N,11.9,K,A*18
$GPRMC,175630.0,A,3945.154817,N,00807.563352,W,6.4,252.6,140517,0.0,E,A*18
$GPGSA,A,2,07,08,10,16,18,21,26,27,,,,,1.1,0.8,0.8*31
$GNGSA,A,2,07,08,10,16,18,21,26,27,,,,,1.1,0.8,0.8*2F
$GNGSA,A,2,71,76,77,85,86,87,,,,,,,1.1,0.8,0.8*26
$GPGSV,3,1,10,07,13,314,15,08,28,285,16,10,32,130,33,16,84,137,24*7D
$GPGSV,3,2,10,18,36,092,21,21,36,049,17,26,53,144,19,27,60,316,23*7D
$GPGSV,3,3,10,11,00,243,,20,02,033,*7D
$GLGSV,3,1,11,70,16,045,12,86,48,025,18,77,48,303,18,76,47,202,15*6A
$GLGSV,3,2,11,87,46,285,22,85,04,059,17,71,19,097,19,78,02,337,*67
$GLGSV,3,3,11,75,05,171,,88,06,257,,72,02,142,*53
$GPGGA,175631.0,3945.153961,N,00807.566272,W,1,08,0.8,252.6,M,55.0,M,,*45
$GNGNS,175631.0,3945.153961,N,00807.566272,W,AA,14,0.8,252.6,55.0,,*7C
$GPVTG,251.7,T,251.7,M,6.7,N,12.4,K,A*15
$GPRMC,175631.0,A,3945.153961,N,00807.566272,W,6.7,251.7,140517,0.0,E,A*19
$GPGSA,A,2,07,08,10,16,18,21,26,27,,,,,1.1,0.8,0.8*31
$GNGSA,A,2,07,08,10,16,18,21,26,27,,,,,1.1,0.8,0.8*2F
$GNGSA,A,2,71,76,77,85,86,87,,,,,,,1.1,0.8,0.8*26
$GPGSV,3,1,10,07,13,314,15,08,28,285,18,10,32,130,32,16,84,137,20*76
$GPGSV,3,2,10,18,36,092,23,21,36,049,21,26,53,144,27,27,60,316,25*71
$GPGSV,3,3,10,11,00,243,,20,02,033,*7D
$GLGSV,3,1,11,70,16,045,12,86,48,025,15,77,48,303,18,76,47,202,15*67
$GLGSV,3,2,11,87,46,285,22,85,04,059,19,71,19,097,22,78,02,337,*61
$GLGSV,3,3,11,75,05,171,,88,06,257,,72,02,142,*53
$GPGGA,175632.0,3945.153083,N,00807.569042,W,1,08,0.8,253.2,M,55.0,M,,*48
$GNGNS,175632.0,3945.153083,N,00807.569042,W,AA,14,0.8,253.2,55.0,,*71
$GPVTG,248.2,T,248.2,M,6.7,N,12.4,K,A*15
$GPRMC,175632.0,A,3945.153083,N,00807.569042,W,6.7,248.2,140517,0.0,E,A*1C
$GPGSA,A,2,07,08,10,16,18,21,26,27,,,,,1.1,0.8,0.8*31
$GNGSA,A,2,07,08,10,16,18,21,26,27,,,,,1.1,0.8,0.8*2F
$GNGSA,A,2,71,76,77,85,86,87,,,,,,,1.1,0.8,0.8*26
$GPGSV,3,1,10,07,13,314,22,08,28,285,21,10,32,130,33,16,84,139,22*75
$GPGSV,3,2,10,18,36,092,24,21,36,049,22,26,53,144,28,27,60,316,24*7B
$GPGSV,3,3,10,11,00,243,,20,02,033,*7D
$GLGSV,3,1,11,70,16,045,12,86,48,025,15,77,48,303,14,76,47,202,10*6E
$GLGSV,3,2,11,87,46,285,17,85,04,059,19,71,19,095,22,78,02,337,*65
$GLGSV,3,3,11,75,04,171,,88,06,257,,72,02,140,*50
$GPGGA,175633.0,3945.152134,N,00807.571574,W,1,08,0.8,254.6,M,55.0,M,,*4F
$GNGNS,175633.0,3945.152134,N,00807.571574,W,AA,14,0.8,254.6,55.0,,*76
$GPVTG,243.7,T,243.7,M,6.7,N,12.4,K,A*15
$GPRMC,175633.0,A,3945.152134,N,00807.571574,W,6.7,243.7,140517,0.0,E,A*16
$GPGSA,A,2,07,08,10,16,18,21,26,27,,,,,1.1,0.8,0.8*31
$GNGSA,A,2,07,08,10,16,18,21,26,27,,,,,1.1,0.8,0.8*2F
$GNGSA,A,2,71,76,77,85,86,87,,,,,,,1.1,0.8,0.8*26
$GPGSV,3,1,10,07,13,314,19,08,28,285,21,10,32,130,33,16,84,139,21*7E
$GPGSV,3,2,10,18,36,092,20,21,36,049,21,26,53,144,26,27,60,316,21*77
$GPGSV,3,3,10,11,00,243,,20,02,033,*7D
$GLGSV,3,1,11,70,16,045,12,86,48,025,15,77,48,303,14,76,47,202,10*6E
$GLGSV,3,2,11,87,46,285,24,85,04,059,19,71,19,095,23,78,02,337,*64
$GLGSV,3,3,11,75,04,171,,88,06,257,,72,02,140,*50
$GPGGA,175634.0,3945.151034,N,00807.574000,W,1,08,0.8,255.7,M,55.0,M,,*49
$GNGNS,175634.0,3945.151034,N,00807.574000,W,AA,14,0.8,255.7,55.0,,*70
$GPVTG,237.7,T,237.7,M,6.7,N,12.5,K,A*14
$GPRMC,175634.0,A,3945.151034,N,00807.574000,W,6.7,237.7,140517,0.0,E,A*13
$GPGSA,A,2,07,08,10,16,18,21,26,27,,,,,1.1,0.8,0.8*31
$GNGSA,A,2,07,08,10,16,18,21,26,27,,,,,1.1,0.8,0.8*2F
$GNGSA,A,2,71,76,77,85,86,87,,,,,,,1.1,0.8,0.8*26
$GPGSV,3,1,10,07,13,314,19,08,28,285,21,10,32,130,31,16,84,139,22*7F
$GPGSV,3,2,10,18,36,092,24,21,36,049,20,26,53,144,26,27,60,316,17*77
$GPGSV,3,3,10,11,00,243,,20,02,033,*7D
$GLGSV,3,1,11,70,16,045,12,86,48,025,15,77,48,303,14,76,47,202,16*68
$GLGSV,3,2,11,87,46,285,21,85,04,059,19,71,19,095,26,78,02,337,*64
$GLGSV,3,3,11,75,04,171,,88,06,257,,72,02,140,*50
$GPGGA,175635.0,3945.149913,N,00807.576386,W,1,08,0.8,255.1,M,55.0,M,,*44
$GNGNS,175635.0,3945.149913,N,00807.576386,W,AA,14,0.8,255.1,55.0,,*7D
$GPVTG,234.8,T,234.8,M,6.7,N,12.5,K,A*14
$GPRMC,175635.0,A,3945.149913,N,00807.576386,W,6.7,234.8,140517,0.0,E,A*14
$GPGSA,A,2,07,08,10,16,18,21,26,27,,,,,1.1,0.8,0.8*31
$GNGSA,A,2,07,08,10,16,18,21,26,27,,,,,1.1,0.8,0.8*2F
$GNGSA,A,2,71,76,77,85,86,87,,,,,,,1.1,0.8,0.8*26
$GPGSV,3,1,10,07,13,314,18,08,28,285,16,10,32,130,30,16,84,139,22*7B
$GPGSV,3,2,10,18,36,092,22,21,36,049,17,26,53,144,26,27,60,317,21*71
$GPGSV,3,3,10,11,00,243,,20,02,033,*7D
$GLGSV,3,1,11,70,16,045,12,86,48,025,15,77,48,303,14,76,47,202,16*68
$GLGSV,3,2,11,87,46,286,22,85,04,059,16,71,19,095,23,78,02,337,*6E
$GLGSV,3,3,11,75,04,171,,88,06,257,,72,02,140,*50
$GPGGA,175636.0,3945.148690,N,00807.578532,W,1,08,0.8,255.5,M,55.0,M,,*41
$GNGNS,175636.0,3945.148690,N,00807.578532,W,AA,14,0.8,255.5,55.0,,*78
$GPVTG,231.2,T,231.2,M,6.7,N,12.4,K,A*15
$GPRMC,175636.0,A,3945.148690,N,00807.578532,W,6.7,231.2,140517,0.0,E,A*1A
$GPGSA,A,2,07,08,10,16,18,21,26,27,,,,,1.1,0.8,0.8*31
$GNGSA,A,2,07,08,10,16,18,21,26,27,,,,,1.1,0.8,0.8*2F
$GNGSA,A,2,71,76,77,85,86,87,,,,,,,1.1,0.8,0.8*26
$GPGSV,3,1,10,07,13,314,18,08,28,285,19,10,32,130,24,16,84,139,18*78
$GPGSV,3,2,10,18,36,092,20,21,36,049,20,26,53,144,26,27,60,317,20*76
$GPGSV,3,3,10,11,00,243,,20,02,033,*7D
$GLGSV,3,1,10,86,48,025,12,77,48,303,14,76,47,202,15,87,46,286,22*6E
$GLGSV,3,2,10,85,04,059,16,71,19,095,21,78,02,337,,75,04,171,*6D
$GLGSV,3,3,10,88,06,257,,72,02,140,*60
$GPGGA,175637.0,3945.147416,N,00807.580313,W,1,08,0.8,256.1,M,55.0,M,,*46
$GNGNS,175637.0,3945.147416,N,00807.580313,W,AA,14,0.8,256.1,55.0,,*7F
$GPVTG,226.5,T,226.5,M,6.6,N,12.3,K,A*13
$GPRMC,175637.0,A,3945.147416,N,00807.580313,W,6.6,226.5,140517,0.0,E,A*1A
$GPGSA,A,2,07,08,10,16,18,21,26,27,,,,,1.1,0.8,0.8*31
$GNGSA,A,2,07,08,10,16,18,21,26,27,,,,,1.1,0.8,0.8*2F
$GNGSA,A,2,71,76,77,85,86,87,,,,,,,1.1,0.8,0.8*26
$GPGSV,3,1,10,07,13,314,23,08,28,285,19,10,33,130,25,16,84,139,18*70
$GPGSV,3,2,10,18,36,092,22,21,36,049,20,26,53,144,28,27,60,317,24*7E
$GPGSV,3,3,10,11,00,243,,20,02,033,*7D
$GLGSV,3,1,11,86,48,025,12,77,48,303,14,76,47,202,15,87,46,286,17*69
$GLGSV,3,2,11,85,04,059,16,71,19,095,18,78,02,337,,70,16,045,*66
$GLGSV,3,3,11,75,04,171,,88,06,257,,72,02,140,*50
$GPGGA,175638.0,3945.146098,N,00807.581784,W,1,08,0.8,257.0,M,55.0,M,,*41
$GNGNS,175638.0,3945.146098,N,00807.581784,W,AA,14,0.8,257.0,55.0,,*78
$GPVTG,221.8,T,221.8,M,6.6,N,12.2,K,A*12
$GPRMC,175638.0,A,3945.146098,N,00807.581784,W,6.6,221.8,140517,0.0,E,A*17
$GPGSA,A,2,07,08,10,16,18,21,26,27,,,,,1.1,0.8,0.8*31
$GNGSA,A,2,07,08,10,16,18,21,26,27,,,,,1.1,0.8,0.8*2F
$GNGSA,A,2,71,76,77,85,86,87,,,,,,,1.1,0.8,0.8*26
$GPGSV,3,1,10,07,13,314,22,08,28,285,19,10,33,130,28,16,84,139,19*7D
$GPGSV,3,2,10,18,36,092,19,21,36,049,16,26,53,144,26,27,60,317,23*7A
$GPGSV,3,3,10,11,00,243,,20,02,033,*7D
$GLGSV,3,1,11,86,48,025,22,77,48,303,14,76,47,202,16,87,46,286,17*69
$GLGSV,3,2,11,85,04,059,16,71,19,095,18,78,02,337,,70,16,045,*66
$GLGSV,3,3,11,75,04,171,,88,06,257,,72,02,140,*50
$GPGGA,175639.0,3945.144467,N,00807.583302,W,1,08,0.8,256.2,M,55.0,M,,*4D
$GNGNS,175639.0,3945.144467,N,00807.583302,W,AA,14,0.8,256.2,55.0,,*74
$GPVTG,217.7,T,217.7,M,6.6,N,12.2,K,A*12
$GPRMC,175639.0,A,3945.144467,N,00807.583302,W,6.6,217.7,140517,0.0,E,A*12
$GPGSA,A,2,07,08,10,16,18,21,26,27,,,,,1.1,0.8,0.8*31
$GNGSA,A,2,07,08,10,16,18,21,26,27,,,,,1.1,0.8,0.8*2F
$GNGSA,A,2,71,76,77,85,86,87,,,,,,,1.1,0.8,0.8*26
$GPGSV,3,1,10,07,13,314,19,08,28,285,19,10,33,130,28,16,84,139,20*7F
$GPGSV,3,2,10,18,36,092,29,21,36,049,16,26,53,144,24,27,60,317,20*78
$GPGSV,3,3,10,11,00,243,,20,02,033,*7D
$GLGSV,3,1,11,86,48,025,18,77,48,303,14,76,47,202,16,87,46,286,17*60
$GLGSV,3,2,11,85,04,059,16,71,19,095,16,78,02,337,,70,16,045,*68
$GLGSV,3,3,11,75,04,171,,88,06,257,,72,02,140,*50
$GPGGA,175640.0,3945.142623,N,00807.584981,W,1,08,0.8,256.0,M,55.0,M,,*43
$GNGNS,175640.0,3945.142623,N,00807.584981,W,AA,13,0.8,256.0,55.0,,*7D
$GPVTG,215.7,T,215.7,M,6.7,N,12.4,K,A*15
$GPRMC,175640.0,A,3945.142623,N,00807.584981,W,6.7,215.7,140517,0.0,E,A*1D
$GPGSA,A,2,07,08,10,16,18,21,26,27,,,,,1.1,0.8,0.8*31
$GNGSA,A,2,07,08,10,16,18,21,26,27,,,,,1.1,0.8,0.8*2F
$GNGSA,A,2,71,76,85,86,87,,,,,,,,1.1,0.8,0.8*26
$GPGSV,3,1,10,07,13,314,19,08,28,285,19,10,33,130,27,16,84,139,20*70
$GPGSV,3,2,10,18,36,092,27,21,36,049,16,26,53,144,24,27,60,317,20*76
$GPGSV,3,3,10,11,00,243,,20,02,033,*7D
$GLGSV,3,1,11,86,48,025,19,77,48,303,14,76,47,202,16,87,46,286,16*60
$GLGSV,3,2,11,85,04,059,16,71,19,095,22,78,02,337,,70,16,045,*6F
$GLGSV,3,3,11,75,04,171,,88,06,257,,72,02,140,*50
$GPGGA,175641.0,3945.140942,N,00807.587015,W,1,08,0.8,256.0,M,55.0,M,,*4F
$GNGNS,175641.0,3945.140942,N,00807.587015,W,AA,14,0.8,256.0,55.0,,*76
$GPVTG,218.0,T,218.0,M,6.7,N,12.5,K,A*14
$GPRMC,175641.0,A,3945.140942,N,00807.587015,W,6.7,218.0,140517,0.0,E,A*1B
$GPGSA,A,2,07,08,10,16,18,21,26,27,,,,,1.1,0.8,0.8*31
$GNGSA,A,2,07,08,10,16,18,21,26,27,,,,,1.1,0.8,0.8*2F
$GNGSA,A,2,71,76,77,85,86,87,,,,,,,1.1,0.8,0.8*26
$GPGSV,3,1,10,07,13,314,19,08,28,285,16,10,33,130,23,16,84,139,21*7A
$GPGSV,3,2,10,18,36,092,28,21,36,049,20,26,53,144,24,27,60,317,20*7C
$GPGSV,3,3,10,11,00,243,,20,02,033,*7D
$GLGSV,3,1,11,86,48,025,18,77,48,303,14,76,47,202,16,87,46,286,17*60
$GLGSV,3,2,11,85,04,059,14,71,19,095,22,78,02,337,,70,16,045,*6D
$GLGSV,3,3,11,75,04,171,,88,06,257,,72,02,140,*50
$GPGGA,175642.0,3945.139160,N,00807.588452,W,1,08,0.8,256.0,M,55.0,M,,*42
$GNGNS,175642.0,3945.139160,N,00807.588452,W,AA,14,0.8,256.0,55.0,,*7B
$GPVTG,215.6,T,215.6,M,6.7,N,12.4,K,A*15
$GPRMC,175642.0,A,3945.139160,N,00807.588452,W,6.7,215.6,140517,0.0,E,A*1D
$GPGSA,A,2,07,08,10,16,18,21,26,27,,,,,1.1,0.8,0.8*31
$GNGSA,A,2,07,08,10,16,18,21,26,27,,,,,1.1,0.8,0.8*2F
$GNGSA,A,2,71,76,77,85,86,87,,,,,,,1.1,0.8,0.8*26
$GPGSV,3,1,10,07,13,314,19,08,28,285,16,10,33,130,23,16,84,139,21*7A
$GPGSV,3,2,10,18,36,092,28,21,36,049,20,26,53,144,24,27,60,317,20*7C
$GPGSV,3,3,10,11,00,243,,20,02,033,*7D
$GLGSV,3,1,11,86,48,025,16,77,48,303,14,76,47,202,16,87,46,286,21*6B
$GLGSV,3,2,11,85,04,059,14,71,19,095,23,78,02,337,,70,16,045,*6C
$GLGSV,3,3,11,75,04,171,,88,06,257,,72,02,140,*50
$GPGGA,175643.0,3945.137380,N,00807.589513,W,1,08,0.8,255.9,M,55.0,M,,*4E
$GNGNS,175643.0,3945.137380,N,00807.589513,W,AA,14,0.8,255.9,55.0,,*77
$GPVTG,208.2,T,208.2,M,6.6,N,12.3,K,A*13
$GPRMC,175643.0,A,3945.137380,N,00807.589513,W,6.6,208.2,140517,0.0,E,A*12
$GPGSA,A,2,07,08,10,16,18,21,26,27,,,,,1.1,0.8,0.8*31
$GNGSA,A,2,07,08,10,16,18,21,26,27,,,,,1.1,0.8,0.8*2F
$GNGSA,A,2,71,76,77,85,86,87,,,,,,,1.1,0.8,0.8*26
$GPGSV,3,1,10,07,13,314,19,08,28,285,16,10,33,130,16,16,84,139,21*7C
$GPGSV,3,2,10,18,36,092,22,21,36,049,22,26,53,144,24,27,60,317,19*7E
$GPGSV,3,3,10,11,00,243,,20,02,033,*7D
$GLGSV,3,1,11,86,48,025,16,77,48,303,14,76,47,202,16,87,46,286,18*61
$GLGSV,3,2,11,85,04,059,14,71,19,095,23,78,02,337,,70,16,045,*6C
$GLGSV,3,3,11,75,04,171,,88,06,257,,72,02,140,*50
$GPGGA,175644.0,3945.135723,N,00807.589930,W,1,08,0.8,256.3,M,55.0,M,,*42
$GNGNS,175644.0,3945.135723,N,00807.589930,W,AA,14,0.8,256.3,55.0,,*7B
$GPVTG,198.6,T,198.6,M,6.6,N,12.2,K,A*12
$GPRMC,175644.0,A,3945.135723,N,00807.589930,W,6.6,198.6,140517,0.0,E,A*19
$GPGSA,A,2,07,08,10,16,18,21,26,27,,,,,1.1,0.8,0.8*31
$GNGSA,A,2,07,08,10,16,18,21,26,27,,,,,1.1,0.8,0.8*2F
$GNGSA,A,2,71,76,77,85,86,87,,,,,,,1.1,0.8,0.8*26
$GPGSV,3,1,10,07,13,314,18,08,28,285,18,10,33,130,20,16,84,139,20*77
$GPGSV,3,2,10,18,36,092,23,21,36,049,26,26,53,144,18,27,60,317,22*7C
$GPGSV,3,3,10,11,00,243,,20,02,033,*7D
$GLGSV,3,1,11,86,48,025,16,77,48,303,14,76,47,202,12,87,46,286,19*64
$GLGSV,3,2,11,85,04,059,14,71,19,095,23,78,02,337,,70,16,045,*6C
$GLGSV,3,3,11,75,04,171,,88,06,257,,72,02,140,*50
$GPGGA,175645.0,3945.133955,N,00807.590330,W,1,08,0.8,256.6,M,55.0,M,,*4D
$GNGNS,175645.0,3945.133955,N,00807.590330,W,AA,14,0.8,256.6,55.0,,*74
$GPVTG,190.6,T,190.6,M,6.5,N,12.1,K,A*12
$GPRMC,175645.0,A,3945.133955,N,00807.590330,W,6.5,190.6,140517,0.0,E,A*18
$GPGSA,A,2,07,08,10,16,18,21,26,27,,,,,1.1,0.8,0.8*31
$GNGSA,A,2,07,08,10,16,18,21,26,27,,,,,1.1,0.8,0.8*2F
$GNGSA,A,2,71,76,77,85,86,87,,,,,,,1.1,0.8,0.8*26
$GPGSV,3,1,10,07,13,314,24,08,28,285,22,10,33,130,16,16,84,139,19*7E
$GPGSV,3,2,10,18,36,092,21,21,36,049,25,26,53,144,18,27,60,317,23*7C
$GPGSV,3,3,10,11,00,243,,20,02,033,*7D
$GLGSV,3,1,11,86,48,025,16,77,48,303,14,76,47,202,12,87,46,286,19*64
$GLGSV,3,2,11,85,04,059,14,71,19,095,23,78,02,337,,70,16,045,*6C
$GLGSV,3,3,11,75,04,171,,88,06,257,,72,02,140,*50
$GPGGA,175646.0,3945.132384,N,00807.590258,W,1,08,0.8,257.3,M,55.0,M,,*42
$GNGNS,175646.0,3945.132384,N,00807.590258,W,AA,14,0.8,257.3,55.0,,*7B
$GPVTG,187.4,T,187.4,M,6.5,N,12.0,K,A*13
$GPRMC,175646.0,A,3945.132384,N,00807.590258,W,6.5,187.4,140517,0.0,E,A*17
$GPGSA,A,2,07,08,10,16,18,21,26,27,,,,,1.1,0.8,0.8*31
$GNGSA,A,2,07,08,10,16,18,21,26,27,,,,,1.1,0.8,0.8*2F
$GNGSA,A,2,71,76,77,85,86,87,,,,,,,1.1,0.8,0.8*26
$GPGSV,3,1,10,07,13,314,22,08,28,285,23,10,33,130,19,16,84,139,16*79
$GPGSV,3,2,10,18,36,092,22,21,36,049,25,26,53,144,18,27,60,317,23*7F
$GPGSV,3,3,10,11,00,243,,20,02,033,*7D
$GLGSV,3,1,11,86,48,025,15,77,48,303,14,76,47,202,12,87,46,286,22*6F
$GLGSV,3,2,11,85,04,059,14,71,19,095,23,78,02,337,,70,16,045,*6C
$GLGSV,3,3,11,75,04,171,,88,06,257,,72,02,140,*50
$GPGGA,175647.0,3945.131160,N,00807.589906,W,1,08,0.8,258.8,M,55.0,M,,*44
$GNGNS,175647.0,3945.131160,N,00807.589906,W,AA,14,0.8,258.8,55.0,,*7D
$GPVTG,180.1,T,180.1,M,5.9,N,11.0,K,A*1F
$GPRMC,175647.0,A,3945.131160,N,00807.589906,W,5.9,180.1,140517,0.0,E,A*18
$GPGSA,A,2,07,08,10,16,18,21,26,27,,,,,1.1,0.8,0.8*31
$GNGSA,A,2,07,08,10,16,18,21,26,27,,,,,1.1,0.8,0.8*2F
$GNGSA,A,2,71,76,77,85,86,87,,,,,,,1.1,0.8,0.8*26
$GPGSV,3,1,10,07,13,314,19,08,28,285,19,10,33,130,19,16,84,139,16*78
$GPGSV,3,2,10,18,36,092,23,21,36,049,23,26,53,144,14,27,60,317,21*76
$GPGSV,3,3,10,11,00,243,,20,02,033,*7D
$GLGSV,3,1,11,86,48,025,15,77,48,303,14,76,47,202,12,87,46,286,20*6D
$GLGSV,3,2,11,85,04,059,14,71,19,095,23,78,02,337,,70,16,045,*6C
$GLGSV,3,3,11,75,04,171,,88,06,257,,72,02,140,*50
$GPGGA,175648.0,3945.129921,N,00807.589566,W,1,08,0.8,258.9,M,55.0,M,,*44
$GNGNS,175648.0,3945.129921,N,00807.589566,W,AA,13,0.8,258.9,55.0,,*7A
$GPVTG,179.4,T,179.4,M,5.8,N,10.8,K,A*17
$GPRMC,175648.0,A,3945.129921,N,00807.589566,W,5.8,179.4,140517,0.0,E,A*1B
$GPGSA,A,2,07,08,10,16,18,21,26,27,,,,,1.1,0.8,0.8*31
$GNGSA,A,2,07,08,10,16,18,21,26,27,,,,,1.1,0.8,0.8*2F
$GNGSA,A,2,71,76,85,86,87,,,,,,,,1.1,0.8,0.8*26
$GPGSV,3,1,10,07,13,314,23,08,28,285,21,10,33,130,17,16,84,139,19*7B
$GPGSV,3,2,10,18,36,092,23,21,36,049,28,26,53,144,14,27,60,317,21*7D
$GPGSV,3,3,10,11,00,243,,20,02,033,*7D
$GLGSV,3,1,11,86,48,025,15,77,48,303,14,76,47,202,12,87,46,286,22*6F
$GLGSV,3,2,11,85,04,059,14,71,19,095,23,78,02,337,,70,16,045,*6C
$GLGSV,3,3,11,75,04,171,,88,06,257,,72,02,140,*50
$GPGGA,175649.0,3945.128662,N,00807.589151,W,1,08,0.9,260.1,M,55.0,M,,*4E
$GNGNS,175649.0,3945.128662,N,00807.589151,W,AA,12,0.9,260.1,55.0,,*71
$GPVTG,178.4,T,178.4,M,5.8,N,10.7,K,A*18
$GPRMC,175649.0,A,3945.128662,N,00807.589151,W,5.8,178.4,140517,0.0,E,A*12
$GPGSA,A,2,07,08,10,16,18,21,26,27,,,,,1.2,0.9,0.8*33
$GNGSA,A,2,07,08,10,16,18,21,26,27,,,,,1.2,0.9,0.8*2D
$GNGSA,A,2,71,76,86,87,,,,,,,,,1.2,0.9,0.8*29
$GPGSV,3,1,10,07,13,314,21,08,28,285,20,10,33,130,17,16,84,139,21*73
$GPGSV,3,2,10,18,36,092,22,21,36,049,24,26,53,144,14,27,60,317,19*7B
$GPGSV,3,3,10,11,00,243,,20,02,033,*7D
$GLGSV,3,1,11,86,48,025,15,77,48,303,14,76,47,202,12,87,46,286,20*6D
$GLGSV,3,2,11,85,04,059,14,71,19,095,12,78,02,337,,70,16,045,*6E
$GLGSV,3,3,11,75,04,171,,88,06,257,,72,02,140,*50
$GPGGA,175650.0,3945.127365,N,00807.589099,W,1,08,0.9,260.6,M,55.0,M,,*49
$GNGNS,175650.0,3945.127365,N,00807.589099,W,AA,12,0.9,260.6,55.0,,*76
$GPVTG,179.4,T,179.4,M,5.5,N,10.1,K,A*13
$GPRMC,175650.0,A,3945.127365,N,00807.589099,W,5.5,179.4,140517,0.0,E,A*1E
$GPGSA,A,2,07,08,10,16,18,21,26,27,,,,,1.2,0.9,0.8*33
$GNGSA,A,2,07,08,10,16,18,21,26,27,,,,,1.2,0.9,0.8*2D
$GNGSA,A,2,71,76,86,87,,,,,,,,,1.2,0.9,0.8*29
$GPGSV,3,1,10,07,13,314,20,08,29,285,18,10,33,130,17,16,84,139,19*73
$GPGSV,3,2,10,18,36,092,24,21,36,049,23,26,52,144,15,27,60,317,22*72
$GPGSV,3,3,10,11,00,243,,20,02,033,*7D
$GLGSV,3,1,11,86,48,025,15,77,48,303,14,76,47,202,12,87,46,286,21*6C
$GLGSV,3,2,11,85,04,059,14,71,19,095,16,78,02,337,,70,16,045,*6A
$GLGSV,3,3,11,75,04,171,,88,06,257,,72,02,140,*50
$GPGGA,175651.0,3945.126255,N,00807.589043,W,1,08,0.9,261.4,M,55.0,M,,*4F
$GNGNS,175651.0,3945.126255,N,00807.589043,W,AA,12,0.9,261.4,55.0,,*70
$GPVTG,180.7,T,180.7,M,5.2,N,9.6,K,A*2B
$GPRMC,175651.0,A,3945.126255,N,00807.589043,W,5.2,180.7,140517,0.0,E,A*19
$GPGSA,A,2,07,08,10,16,18,21,26,27,,,,,1.2,0.9,0.8*33
$GNGSA,A,2,07,08,10,16,18,21,26,27,,,,,1.2,0.9,0.8*2D
$GNGSA,A,2,71,76,86,87,,,,,,,,,1.2,0.9,0.8*29
$GPGSV,3,1,10,07,13,314,20,08,29,285,16,10,33,130,17,16,84,139,19*7D
$GPGSV,3,2,10,18,36,092,20,21,36,049,23,26,52,144,19,27,60,317,21*79
$GPGSV,3,3,10,11,00,243,,20,02,033,*7D
$GLGSV,3,1,11,86,48,025,12,77,48,303,14,76,47,202,13,87,46,286,17*6F
$GLGSV,3,2,11,85,04,059,14,71,19,095,18,78,02,337,,70,16,045,*64
$GLGSV,3,3,11,75,04,171,,88,06,257,,72,02,140,*50
$GPGGA,175652.0,3945.125034,N,00807.588964,W,1,08,0.9,261.4,M,55.0,M,,*47
$GNGNS,175652.0,3945.125034,N,00807.588964,W,AA,12,0.9,261.4,55.0,,*78
$GPVTG,179.2,T,179.2,M,5.1,N,9.5,K,A*2B
$GPRMC,175652.0,A,3945.125034,N,00807.588964,W,5.1,179.2,140517,0.0,E,A*11
$GPGSA,A,2,07,08,10,16,18,21,26,27,,,,,1.2,0.9,0.8*33
$GNGSA,A,2,07,08,10,16,18,21,26,27,,,,,1.2,0.9,0.8*2D
$GNGSA,A,2,71,76,86,87,,,,,,,,,1.2,0.9,0.8*29
$GPGSV,3,1,10,07,13,314,19,08,29,285,16,10,33,130,17,16,84,139,19*77
$GPGSV,3,2,10,18,36,092,19,21,36,049,23,26,52,144,22,27,60,317,20*7A
$GPGSV,3,3,10,11,00,243,,20,02,033,*7D
$GLGSV,3,1,11,86,48,025,16,77,48,303,14,76,47,202,16,87,46,286,19*60
$GLGSV,3,2,11,85,04,059,14,71,19,095,18,78,02,337,,70,16,045,*64
$GLGSV,3,3,11,75,04,171,,88,06,257,,72,02,140,*50
$GPGGA,175653.0,3945.124138,N,00807.588861,W,1,08,0.9,263.6,M,55.0,M,,*4E
$GNGNS,175653.0,3945.124138,N,00807.588861,W,AA,12,0.9,263.6,55.0,,*71
$GPVTG,181.3,T,181.3,M,5.3,N,9.7,K,A*2B
$GPRMC,175653.0,A,3945.124138,N,00807.588861,W,5.3,181.3,140517,0.0,E,A*1C
$GPGSA,A,2,07,08,10,16,18,21,26,27,,,,,1.2,0.9,0.8*33
$GNGSA,A,2,07,08,10,16,18,21,26,27,,,,,1.2,0.9,0.8*2D
$GNGSA,A,2,71,76,86,87,,,,,,,,,1.2,0.9,0.8*29
$GPGSV,3,1,10,07,13,314,18,08,29,285,16,10,33,130,18,16,84,139,21*72
$GPGSV,3,2,10,18,36,092,19,21,36,049,24,26,52,144,23,27,60,317,20*7C
$GPGSV,3,3,10,11,00,243,,20,02,033,*7D
$GLGSV,3,1,11,86,48,025,16,77,48,303,14,76,47,202,16,87,46,286,21*6B
$GLGSV,3,2,11,85,04,059,14,71,19,095,17,78,02,337,,70,16,045,*6B
$GLGSV,3,3,11,75,04,171,,88,06,257,,72,02,140,*50
$GPGGA,175654.0,3945.122895,N,00807.589154,W,1,08,0.9,264.0,M,55.0,M,,*4E
$GNGNS,175654.0,3945.122895,N,00807.589154,W,AA,12,0.9,264.0,55.0,,*71
$GPVTG,183.5,T,183.5,M,5.3,N,9.7,K,A*2B
$GPRMC,175654.0,A,3945.122895,N,00807.589154,W,5.3,183.5,140517,0.0,E,A*19
$GPGSA,A,2,07,08,10,16,18,21,26,27,,,,,1.2,0.9,0.8*33
$GNGSA,A,2,07,08,10,16,18,21,26,27,,,,,1.2,0.9,0.8*2D
$GNGSA,A,2,71,76,86,87,,,,,,,,,1.2,0.9,0.8*29
$GPGSV,3,1,10,07,13,314,21,08,29,285,19,10,33,130,20,16,84,139,20*7D
$GPGSV,3,2,10,18,36,092,17,21,36,049,25,26,52,144,23,27,60,317,16*76
$GPGSV,3,3,10,11,00,243,,20,02,033,*7D
$GLGSV,3,1,11,86,48,025,16,77,48,303,14,76,47,202,15,87,46,286,20*69
$GLGSV,3,2,11,85,04,059,14,71,19,095,16,78,02,337,,70,16,045,*6A
$GLGSV,3,3,11,75,04,171,,88,06,257,,72,02,140,*50
$GPGGA,175655.0,3945.121541,N,00807.589596,W,1,08,0.9,265.0,M,55.0,M,,*43
$GNGNS,175655.0,3945.121541,N,00807.589596,W,AA,12,0.9,265.0,55.0,,*7C
$GPVTG,188.6,T,188.6,M,5.3,N,9.8,K,A*24
$GPRMC,175655.0,A,3945.121541,N,00807.589596,W,5.3,188.6,140517,0.0,E,A*1D
$GPGSA,A,2,07,08,10,16,18,21,26,27,,,,,1.2,0.9,0.8*33
$GNGSA,A,2,07,08,10,16,18,21,26,27,,,,,1.2,0.9,0.8*2D
$GNGSA,A,2,71,76,86,87,,,,,,,,,1.2,0.9,0.8*29
$GPGSV,3,1,10,07,13,314,21,08,29,285,19,10,33,130,16,16,84,139,17*7C
$GPGSV,3,2,10,18,36,092,22,21,36,049,25,26,52,144,23,27,60,317,16*70
$GPGSV,3,3,10,11,00,243,,20,02,033,*7D
$GLGSV,3,1,11,86,48,025,15,77,48,303,14,76,47,202,15,87,46,286,20*6A
$GLGSV,3,2,11,85,04,059,14,71,19,095,16,78,02,337,,70,16,045,*6A
$GLGSV,3,3,11,75,04,171,,88,06,257,,72,02,140,*50
$GPGGA,175656.0,3945.120162,N,00807.590142,W,1,08,0.9,265.3,M,55.0,M,,*42
$GNGNS,175656.0,3945.120162,N,00807.590142,W,AA,12,0.9,265.3,55.0,,*7D
$GPVTG,191.4,T,191.4,M,5.3,N,9.7,K,A*2B
$GPRMC,175656.0,A,3945.120162,N,00807.590142,W,5.3,191.4,140517,0.0,E,A*15
$GPGSA,A,2,07,08,10,16,18,21,26,27,,,,,1.2,0.9,0.8*33
$GNGSA,A,2,07,08,10,16,18,21,26,27,,,,,1.2,0.9,0.8*2D
$GNGSA,A,2,71,76,86,87,,,,,,,,,1.2,0.9,0.8*29
$GPGSV,3,1,10,07,13,314,18,08,29,285,19,10,33,130,18,16,84,139,21*7D
$GPGSV,3,2,10,18,36,092,30,21,36,049,16,26,52,144,16,27,60,317,19*7A
$GPGSV,3,3,10,11,00,243,,20,02,033,*7D
$GLGSV,3,1,11,86,48,025,15,77,48,303,14,76,47,202,15,87,46,286,15*6C
$GLGSV,3,2,11,85,04,059,14,71,19,095,20,78,02,337,,70,16,045,*6F
$GLGSV,3,3,11,75,04,171,,88,06,257,,72,02,140,*50
$GPGGA,175657.0,3945.118722,N,00807.590670,W,1,08,0.9,265.8,M,55.0,M,,*47
$GNGNS,175657.0,3945.118722,N,00807.590670,W,AA,12,0.9,265.8,55.0,,*78
$GPVTG,191.1,T,191.1,M,5.3,N,9.7,K,A*2B
$GPRMC,175657.0,A,3945.118722,N,00807.590670,W,5.3,191.1,140517,0.0,E,A*1E
$GPGSA,A,2,07,08,10,16,18,21,26,27,,,,,1.2,0.9,0.8*33
$GNGSA,A,2,07,08,10,16,18,21,26,27,,,,,1.2,0.9,0.8*2D
$GNGSA,A,2,71,76,86,87,,,,,,,,,1.2,0.9,0.8*29
$GPGSV,3,1,10,07,13,314,21,08,29,285,19,10,33,130,16,16,84,139,20*78
$GPGSV,3,2,10,18,36,092,31,21,36,049,20,26,52,144,22,27,60,317,22*71
$GPGSV,3,3,10,11,00,243,,20,02,033,*7D
$GLGSV,3,1,11,86,48,025,15,77,48,303,14,76,47,202,13,87,46,286,17*68
$GLGSV,3,2,11,85,04,059,14,71,19,095,29,78,02,337,,70,16,045,*66
$GLGSV,3,3,11,75,04,171,,88,06,257,,72,02,140,*50
$GPGGA,175658.0,3945.116844,N,00807.591574,W,1,08,0.9,265.2,M,55.0,M,,*45
$GNGNS,175658.0,3945.116844,N,00807.591574,W,AA,12,0.9,265.2,55.0,,*7A
$GPVTG,194.3,T,194.3,M,5.4,N,10.0,K,A*13
$GPRMC,175658.0,A,3945.116844,N,00807.591574,W,5.4,194.3,140517,0.0,E,A*16
$GPGSA,A,2,07,08,10,16,18,21,26,27,,,,,1.2,0.9,0.8*33
$GNGSA,A,2,07,08,10,16,18,21,26,27,,,,,1.2,0.9,0.8*2D
$GNGSA,A,2,71,76,86,87,,,,,,,,,1.2,0.9,0.8*29
$GPGSV,3,1,10,07,13,314,18,08,29,285,19,16,84,139,22,18,36,092,34*74
$GPGSV,3,2,10,21,36,049,24,26,52,144,24,27,60,317,21,10,33,130,*76
$GPGSV,3,3,10,11,00,243,,20,02,033,*7D
$GLGSV,3,1,11,86,48,025,17,77,48,303,14,76,47,202,13,87,46,286,19*64
$GLGSV,3,2,11,85,04,059,14,71,19,095,31,78,02,337,,70,16,045,*6F
$GLGSV,3,3,11,75,04,171,,88,06,257,,72,02,140,*50
$GPGGA,175659.0,3945.114974,N,00807.592460,W,1,08,0.9,264.7,M,55.0,M,,*47
$GNGNS,175659.0,3945.114974,N,00807.592460,W,AA,12,0.9,264.7,55.0,,*78
$GPVTG,198.6,T,198.6,M,5.4,N,10.0,K,A*13
$GPRMC,175659.0,A,3945.114974,N,00807.592460,W,5.4,198.6,140517,0.0,E,A*19
$GPGSA,A,2,07,08,10,16,18,21,26,27,,,,,1.2,0.9,0.8*33
$GNGSA,A,2,07,08,10,16,18,21,26,27,,,,,1.2,0.9,0.8*2D
$GNGSA,A,2,71,76,86,87,,,,,,,,,1.2,0.9,0.8*29
$GPGSV,3,1,10,07,13,314,18,08,29,285,12,16,84,139,20,18,36,092,33*7A
$GPGSV,3,2,10,21,36,049,18,26,52,144,25,27,60,317,20,10,33,130,*79
$GPGSV,3,3,10,11,00,243,,20,02,033,*7D
$GLGSV,3,1,11,86,48,025,19,77,48,303,14,76,47,202,13,87,46,286,19*6A
$GLGSV,3,2,11,85,04,059,14,71,19,095,28,78,02,337,,70,16,045,*67
$GLGSV,3,3,11,75,04,171,,88,06,257,,72,02,140,*50
$GPGGA,175700.0,3945.112995,N,00807.593500,W,1,08,0.9,263.9,M,55.0,M,,*4C
$GNGNS,175700.0,3945.112995,N,00807.593500,W,AA,12,0.9,263.9,55.0,,*73
$GPVTG,203.3,T,203.3,M,5.5,N,10.2,K,A*10
$GPRMC,175700.0,A,3945.112995,N,00807.593500,W,5.5,203.3,140517,0.0,E,A*1E
$GPGSA,A,2,07,08,10,16,18,21,26,27,,,,,1.2,0.9,0.8*33
$GNGSA,A,2,07,08,10,16,18,21,26,27,,,,,1.2,0.9,0.8*2D
$GNGSA,A,2,71,76,86,87,,,,,,,,,1.2,0.9,0.8*29
$GPGSV,3,1,10,07,13,314,20,08,29,285,12,10,33,130,31,16,84,139,19*7D
$GPGSV,3,2,10,18,36,092,31,21,36,049,18,26,52,144,26,27,60,317,20*7C
$GPGSV,3,3,10,11,00,243,,20,02,033,*7D
$GLGSV,3,1,11,86,48,025,19,77,48,303,14,76,47,202,13,87,46,286,16*65
$GLGSV,3,2,11,85,04,059,14,71,19,095,27,78,02,337,,70,16,045,*68
$GLGSV,3,3,11,75,04,171,,88,06,257,,72,02,140,*50
$GPGGA,175701.0,3945.110911,N,00807.594475,W,1,08,0.9,263.3,M,55.0,M,,*4D
$GNGNS,175701.0,3945.110911,N,00807.594475,W,AA,12,0.9,263.3,55.0,,*72
$GPVTG,204.4,T,204.4,M,5.6,N,10.4,K,A*15
$GPRMC,175701.0,A,3945.110911,N,00807.594475,W,5.6,204.4,140517,0.0,E,A*16
$GPGSA,A,2,07,08,10,16,18,21,26,27,,,,,1.2,0.9,0.8*33
$GNGSA,A,2,07,08,10,16,18,21,26,27,,,,,1.2,0.9,0.8*2D
$GNGSA,A,2,71,76,86,87,,,,,,,,,1.2,0.9,0.8*29
$GPGSV,3,1,09,07,13,314,18,08,29,285,12,10,33,130,27,16,84,139,20*73
$GPGSV,3,2,09,18,36,092,32,26,52,144,26,27,60,317,20,11,00,243,*70
$GPGSV,3,3,09,20,02,033,*40
$GLGSV,3,1,11,86,48,025,19,76,47,202,13,87,46,286,20,85,04,059,14*69
$GLGSV,3,2,11,71,19,095,32,78,02,337,,70,16,045,,,48,303,*60
$GLGSV,3,3,11,75,04,171,,88,06,257,,72,02,140,*50
$GPGGA,175702.0,3945.108595,N,00807.595483,W,1,08,0.9,262.9,M,55.0,M,,*44
$GNGNS,175702.0,3945.108595,N,00807.595483,W,AA,12,0.9,262.9,55.0,,*7B
$GPVTG,203.2,T,203.2,M,6.7,N,12.3,K,A*12
$GPRMC,175702.0,A,3945.108595,N,00807.595483,W,6.7,203.2,140517,0.0,E,A*17
$GPGSA,A,2,07,08,10,16,18,21,26,27,,,,,1.2,0.9,0.8*33
$GNGSA,A,2,07,08,10,16,18,21,26,27,,,,,1.2,0.9,0.8*2D
$GNGSA,A,2,71,76,86,87,,,,,,,,,1.2,0.9,0.8*29
$GPGSV,3,1,09,07,13,314,20,08,29,285,15,10,33,130,27,16,84,139,23*7C
$GPGSV,3,2,09,18,36,092,33,26,52,144,27,27,60,317,16,11,00,243,*75
$GPGSV,3,3,09,20,02,033,*40
$GLGSV,3,1,11,86,48,025,13,76,47,202,13,87,46,286,18,85,04,059,14*68
$GLGSV,3,2,11,71,19,095,32,78,02,337,,70,16,045,,77,48,303,*60
$GLGSV,3,3,11,75,04,171,,88,06,257,,72,02,140,*50
$GPGGA,175703.0,3945.106368,N,00807.596771,W,1,08,0.9,263.6,M,55.0,M,,*4C
$GNGNS,175703.0,3945.106368,N,00807.596771,W,AA,12,0.9,263.6,55.0,,*73
$GPVTG,206.5,T,206.5,M,6.9,N,12.8,K,A*17
$GPRMC,175703.0,A,3945.106368,N,00807.596771,W,6.9,206.5,140517,0.0,E,A*1D
$GPGSA,A,2,07,08,10,16,18,21,26,27,,,,,1.2,0.9,0.8*33
$GNGSA,A,2,07,08,10,16,18,21,26,27,,,,,1.2,0.9,0.8*2D
$GNGSA,A,2,71,76,86,87,,,,,,,,,1.2,0.9,0.8*29
$GPGSV,3,1,09,07,13,314,23,08,29,285,15,10,33,130,24,16,84,139,21*7E
$GPGSV,3,2,09,18,36,092,32,26,52,144,24,27,60,317,16,11,00,243,*77
$GPGSV,3,3,09,20,02,033,*40
$GLGSV,3,1,11,86,48,025,13,76,47,202,13,87,46,286,18,85,04,059,14*68
$GLGSV,3,2,11,71,19,095,31,78,02,337,,70,16,045,,77,48,303,*63
$GLGSV,3,3,11,75,04,171,,88,06,257,,72,02,140,*50
$GPGGA,175704.0,3945.104241,N,00807.598059,W,1,08,0.9,264.5,M,55.0,M,,*44
$GNGNS,175704.0,3945.104241,N,00807.598059,W,AA,12,0.9,264.5,55.0,,*7B
$GPVTG,208.5,T,208.5,M,6.9,N,12.8,K,A*17
$GPRMC,175704.0,A,3945.104241,N,00807.598059,W,6.9,208.5,140517,0.0,E,A*1F
$GPGSA,A,2,07,08,10,16,18,21,26,27,,,,,1.2,0.9,0.8*33
$GNGSA,A,2,07,08,10,16,18,21,26,27,,,,,1.2,0.9,0.8*2D
$GNGSA,A,2,71,76,86,87,,,,,,,,,1.2,0.9,0.8*29
$GPGSV,3,1,09,07,13,314,21,08,29,285,15,10,33,130,26,16,84,139,23*7C
$GPGSV,3,2,09,18,36,092,33,26,52,144,23,27,60,317,16,11,00,243,*71
$GPGSV,3,3,09,20,02,033,*40
$GLGSV,3,1,11,86,48,025,17,76,47,202,13,87,46,286,18,85,04,059,13*6B
$GLGSV,3,2,11,71,19,095,30,78,02,337,,70,16,045,,77,48,303,*62
$GLGSV,3,3,11,75,04,171,,88,06,257,,72,02,140,*50
$GPGGA,175705.0,3945.102016,N,00807.599365,W,1,08,0.9,264.5,M,55.0,M,,*4E
$GNGNS,175705.0,3945.102016,N,00807.599365,W,AA,12,0.9,264.5,55.0,,*71
$GPVTG,208.8,T,208.8,M,7.2,N,13.3,K,A*17
$GPRMC,175705.0,A,3945.102016,N,00807.599365,W,7.2,208.8,140517,0.0,E,A*12
$GPGSA,A,2,07,08,10,16,18,21,26,27,,,,,1.2,0.9,0.8*33
$GNGSA,A,2,07,08,10,16,18,21,26,27,,,,,1.2,0.9,0.8*2D
$GNGSA,A,2,71,76,86,87,,,,,,,,,1.2,0.9,0.8*29
$GPGSV,3,1,10,07,13,314,21,08,29,285,15,10,33,130,23,16,84,139,23*71
$GPGSV,3,2,10,18,36,092,29,21,36,049,21,26,52,144,22,27,60,317,16*7E
$GPGSV,3,3,10,11,00,243,,20,02,033,*7D
$GLGSV,3,1,11,86,48,025,17,76,47,202,13,87,46,286,18,85,04,059,13*6B
$GLGSV,3,2,11,71,19,095,27,78,02,337,,70,16,045,,77,48,303,*64
$GLGSV,3,3,11,75,04,171,,88,06,257,,72,02,140,*50
$GPGGA,175706.0,3945.099666,N,00807.600552,W,1,08,0.9,263.7,M,55.0,M,,*4B
$GNGNS,175706.0,3945.099666,N,00807.600552,W,AA,12,0.9,263.7,55.0,,*74
$GPVTG,205.3,T,205.3,M,7.4,N,13.6,K,A*14
$GPRMC,175706.0,A,3945.099666,N,00807.600552,W,7.4,205.3,140517,0.0,E,A*12
$GPGSA,A,2,07,08,10,16,18,21,26,27,,,,,1.2,0.9,0.8*33
$GNGSA,A,2,07,08,10,16,18,21,26,27,,,,,1.2,0.9,0.8*2D
$GNGSA,A,2,71,76,86,87,,,,,,,,,1.2,0.9,0.8*29
$GPGSV,3,1,10,07,13,314,18,08,29,285,15,10,33,130,24,16,84,139,19*75
$GPGSV,3,2,10,18,36,092,31,21,36,049,24,26,52,144,24,27,60,317,16*74
$GPGSV,3,3,10,11,00,243,,20,02,033,*7D
$GLGSV,3,1,11,86,48,025,13,76,47,202,15,87,46,286,14,85,04,059,16*60
$GLGSV,3,2,11,71,19,095,28,78,02,337,,70,16,045,,77,48,303,*6B
$GLGSV,3,3,11,75,04,171,,88,06,257,,72,02,140,*50
$GPGGA,175707.0,3945.097338,N,00807.601692,W,1,08,0.9,264.6,M,55.0,M,,*42
$GNGNS,175707.0,3945.097338,N,00807.601692,W,AA,12,0.9,264.6,55.0,,*7D
$GPVTG,203.1,T,203.1,M,7.4,N,13.7,K,A*15
$GPRMC,175707.0,A,3945.097338,N,00807.601692,W,7.4,203.1,140517,0.0,E,A*19
$GPGSA,A,2,07,08,10,16,18,21,26,27,,,,,1.2,0.9,0.8*33
$GNGSA,A,2,07,08,10,16,18,21,26,27,,,,,1.2,0.9,0.8*2D
$GNGSA,A,2,71,76,86,87,,,,,,,,,1.2,0.9,0.8*29
$GPGSV,3,1,10,07,13,314,20,08,29,285,12,10,33,130,26,16,84,139,21*70
$GPGSV,3,2,10,18,36,092,29,21,36,049,23,26,52,144,22,27,60,317,20*79
$GPGSV,3,3,10,11,00,243,,20,02,033,*7D
$GLGSV,3,1,11,86,48,025,13,76,47,202,15,87,46,286,19,85,04,059,16*6D
$GLGSV,3,2,11,71,19,095,24,78,02,337,,70,16,045,,77,48,303,*67
$GLGSV,3,3,11,75,04,171,,88,06,257,,72,02,140,*50
$GPGGA,175708.0,3945.095289,N,00807.602705,W,1,08,0.9,264.7,M,55.0,M,,*49
$GNGNS,175708.0,3945.095289,N,00807.602705,W,AA,12,0.9,264.7,55.0,,*76
$GPVTG,201.8,T,201.8,M,7.4,N,13.7,K,A*15
$GPRMC,175708.0,A,3945.095289,N,00807.602705,W,7.4,201.8,140517,0.0,E,A*18
$GPGSA,A,2,07,08,10,16,18,21,26,27,,,,,1.2,0.9,0.8*33
$GNGSA,A,2,07,08,10,16,18,21,26,27,,,,,1.2,0.9,0.8*2D
$GNGSA,A,2,71,76,86,87,,,,,,,,,1.2,0.9,0.8*29
$GPGSV,3,1,10,07,13,314,22,08,29,285,12,10,33,130,27,16,84,139,21*73
$GPGSV,3,2,10,18,36,092,33,21,36,049,24,26,52,144,22,27,60,317,20*75
$GPGSV,3,3,10,11,00,243,,20,02,033,*7D
$GLGSV,3,1,11,86,48,025,13,76,47,202,17,87,46,286,19,85,04,059,16*6F
$GLGSV,3,2,11,71,19,095,29,78,02,337,,70,16,045,,77,48,303,*6A
$GLGSV,3,3,11,75,04,171,,88,06,257,,72,02,140,*50
$GPGGA,175709.0,3945.093052,N,00807.603710,W,1,08,0.9,264.4,M,55.0,M,,*4C
$GNGNS,175709.0,3945.093052,N,00807.603710,W,AA,12,0.9,264.4,55.0,,*73
$GPVTG,201.1,T,201.1,M,7.4,N,13.7,K,A*15
$GPRMC,175709.0,A,3945.093052,N,00807.603710,W,7.4,201.1,140517,0.0,E,A*17
$GPGSA,A,2,07,08,10,16,18,21,26,27,,,,,1.2,0.9,0.8*33
$GNGSA,A,2,07,08,10,16,18,21,26,27,,,,,1.2,0.9,0.8*2D
$GNGSA,A,2,71,76,86,87,,,,,,,,,1.2,0.9,0.8*29
$GPGSV,3,1,10,07,13,314,21,08,29,285,15,10,33,130,26,16,84,139,20*77
$GPGSV,3,2,10,18,36,092,31,21,36,049,23,26,52,144,20,27,60,317,20*72
$GPGSV,3,3,10,11,00,243,,20,02,033,*7D
$GLGSV,3,1,11,70,16,045,12,86,48,025,14,76,47,202,16,87,46,286,19*69
$GLGSV,3,2,11,85,04,059,16,71,19,095,26,78,02,337,,77,48,303,*66
$GLGSV,3,3,11,75,04,171,,88,06,257,,72,02,140,*50
$GPGGA,175710.0,3945.090810,N,00807.604619,W,1,08,0.8,264.4,M,55.0,M,,*47
$GNGNS,175710.0,3945.090810,N,00807.604619,W,AA,13,0.8,264.4,55.0,,*79
$GPVTG,199.9,T,199.9,M,7.4,N,13.6,K,A*14
$GPRMC,175710.0,A,3945.090810,N,00807.604619,W,7.4,199.9,140517,0.0,E,A*17
$GPGSA,A,2,07,08,10,16,18,21,26,27,,,,,1.2,0.8,0.8*32
$GNGSA,A,2,07,08,10,16,18,21,26,27,,,,,1.2,0.8,0.8*2C
$GNGSA,A,2,70,71,76,86,87,,,,,,,,1.2,0.8,0.8*2F
$GPGSV,3,1,10,07,13,314,18,08,29,285,15,10,33,130,25,16,84,139,20*7E
$GPGSV,3,2,10,18,36,092,32,21,36,049,25,26,52,144,22,27,60,317,19*7F
$GPGSV,3,3,10,11,00,243,,20,02,033,*7D
$GLGSV,3,1,11,70,16,045,12,86,48,025,14,76,47,202,17,87,46,286,14*65
$GLGSV,3,2,11,85,04,059,16,71,19,095,29,78,02,337,,77,48,303,*69
$GLGSV,3,3,11,75,04,171,,88,06,257,,72,02,140,*50
$GPGGA,175711.0,3945.088665,N,00807.605491,W,1,08,0.8,266.0,M,55.0,M,,*46
$GNGNS,175711.0,3945.088665,N,00807.605491,W,AA,13,0.8,266.0,55.0,,*78
$GPVTG,198.3,T,198.3,M,7.3,N,13.5,K,A*10
$GPRMC,175711.0,A,3945.088665,N,00807.605491,W,7.3,198.3,140517,0.0,E,A*1C
$GPGSA,A,2,07,08,10,16,18,21,26,27,,,,,1.2,0.8,0.8*32
$GNGSA,A,2,07,08,10,16,18,21,26,27,,,,,1.2,0.8,0.8*2C
$GNGSA,A,2,70,71,76,86,87,,,,,,,,1.2,0.8,0.8*2F
$GPGSV,3,1,10,07,13,314,22,08,29,285,18,10,33,130,22,16,84,139,21*7C
$GPGSV,3,2,10,18,36,092,33,21,36,049,18,26,52,144,24,27,60,317,20*7C
$GPGSV,3,3,10,11,00,243,,20,02,033,*7D
$GLGSV,3,1,11,70,16,045,12,86,48,025,16,76,47,202,18,87,46,286,19*65
$GLGSV,3,2,11,85,04,059,15,71,19,095,26,78,02,337,,77,48,303,*65
$GLGSV,3,3,11,75,04,171,,88,06,257,,72,02,140,*50
$GPGGA,175712.0,3945.086301,N,00807.606429,W,1,08,0.8,264.1,M,55.0,M,,*4F
$GNGNS,175712.0,3945.086301,N,00807.606429,W,AA,13,0.8,264.1,55.0,,*71
$GPVTG,196.9,T,196.9,M,7.3,N,13.5,K,A*10
$GPRMC,175712.0,A,3945.086301,N,00807.606429,W,7.3,196.9,140517,0.0,E,A*12
$GPGSA,A,2,07,08,10,16,18,21,26,27,,,,,1.2,0.8,0.8*32
$GNGSA,A,2,07,08,10,16,18,21,26,27,,,,,1.2,0.8,0.8*2C
$GNGSA,A,2,70,71,76,86,87,,,,,,,,1.2,0.8,0.8*2F
$GPGSV,3,1,10,07,13,314,22,08,29,285,18,10,33,130,19,16,84,139,18*7E
$GPGSV,3,2,10,18,36,092,28,21,36,049,25,26,52,144,19,27,60,317,21*77
$GPGSV,3,3,10,11,00,243,,20,02,033,*7D
$GLGSV,3,1,11,70,16,045,12,86,48,025,16,76,47,202,17,87,46,286,19*6A
$GLGSV,3,2,11,85,04,059,15,71,19,095,25,78,02,337,,77,48,303,*66
$GLGSV,3,3,11,75,04,171,,88,06,257,,72,02,140,*50
$GPGGA,175713.0,3945.084013,N,00807.607281,W,1,08,0.8,263.1,M,55.0,M,,*4E
$GNGNS,175713.0,3945.084013,N,00807.607281,W,AA,13,0.8,263.1,55.0,,*70
$GPVTG,195.5,T,195.5,M,7.2,N,13.4,K,A*10
$GPRMC,175713.0,A,3945.084013,N,00807.607281,W,7.2,195.5,140517,0.0,E,A*1A
$GPGSA,A,2,07,08,10,16,18,21,26,27,,,,,1.2,0.8,0.8*32
$GNGSA,A,2,07,08,10,16,18,21,26,27,,,,,1.2,0.8,0.8*2C
$GNGSA,A,2,70,71,76,86,87,,,,,,,,1.2,0.8,0.8*2F
$GPGSV,3,1,10,07,13,314,18,08,29,285,19,10,33,130,22,16,84,139,22*77
$GPGSV,3,2,10,18,36,092,25,21,36,049,27,26,52,144,20,27,60,317,24*77
$GPGSV,3,3,10,11,00,243,,20,02,033,*7D
$GLGSV,3,1,11,70,16,045,12,86,48,025,16,76,47,202,17,87,46,286,16*65
$GLGSV,3,2,11,85,04,059,17,71,19,095,27,78,02,337,,77,48,303,*66
$GLGSV,3,3,11,75,04,171,,88,06,257,,72,02,140,*50
$GPGGA,175714.0,3945.081865,N,00807.607913,W,1,08,0.8,264.0,M,55.0,M,,*43
$GNGNS,175714.0,3945.081865,N,00807.607913,W,AA,13,0.8,264.0,55.0,,*7D
$GPVTG,193.2,T,193.2,M,7.1,N,13.2,K,A*15
$GPRMC,175714.0,A,3945.081865,N,00807.607913,W,7.1,193.2,140517,0.0,E,A*13
$GPGSA,A,2,07,08,10,16,18,21,26,27,,,,,1.2,0.8,0.8*32
$GNGSA,A,2,07,08,10,16,18,21,26,27,,,,,1.2,0.8,0.8*2C
$GNGSA,A,2,70,71,76,86,87,,,,,,,,1.2,0.8,0.8*2F
$GPGSV,3,1,10,07,13,314,21,08,29,285,20,10,33,130,24,16,84,139,22*71
$GPGSV,3,2,10,18,36,092,25,21,36,049,27,26,52,144,20,27,60,317,25*76
$GPGSV,3,3,10,11,00,243,,20,02,033,*7D
$GLGSV,3,1,11,70,16,045,12,86,48,025,16,76,47,202,17,87,46,286,18*6B
$GLGSV,3,2,11,85,04,059,21,71,19,095,27,78,02,337,,77,48,303,*63
$GLGSV,3,3,11,75,04,171,,88,06,257,,72,02,140,*50
$GPGGA,175715.0,3945.079840,N,00807.608145,W,1,08,0.8,263.1,M,55.0,M,,*40
$GNGNS,175715.0,3945.079840,N,00807.608145,W,AA,13,0.8,263.1,55.0,,*7E
$GPVTG,188.7,T,188.7,M,7.0,N,12.9,K,A*1E
$GPRMC,175715.0,A,3945.079840,N,00807.608145,W,7.0,188.7,140517,0.0,E,A*18
$GPGSA,A,2,07,08,10,16,18,21,26,27,,,,,1.2,0.8,0.8*32
$GNGSA,A,2,07,08,10,16,18,21,26,27,,,,,1.2,0.8,0.8*2C
$GNGSA,A,2,70,71,76,86,87,,,,,,,,1.2,0.8,0.8*2F
$GPGSV,3,1,10,07,13,314,21,08,29,285,20,10,33,130,22,16,84,139,19*7F
$GPGSV,3,2,10,18,36,092,25,21,36,049,26,26,52,144,17,27,60,317,16*73
$GPGSV,3,3,10,11,00,243,,20,02,033,*7D
$GLGSV,3,1,11,70,16,045,12,86,48,025,16,76,47,202,14,87,46,286,18*68
$GLGSV,3,2,11,85,04,059,22,71,19,095,27,78,02,337,,77,48,303,*60
$GLGSV,3,3,11,75,04,171,,88,06,257,,72,02,140,*50
$GPGGA,175716.0,3945.078228,N,00807.607855,W,1,08,0.8,261.7,M,55.0,M,,*45
$GNGNS,175716.0,3945.078228,N,00807.607855,W,AA,13,0.8,261.7,55.0,,*7B
$GPVTG,180.5,T,180.5,M,5.8,N,10.8,K,A*17
$GPRMC,175716.0,A,3945.078228,N,00807.607855,W,5.8,180.5,140517,0.0,E,A*19
$GPGSA,A,2,07,08,10,16,18,21,26,27,,,,,1.2,0.8,0.8*32
$GNGSA,A,2,07,08,10,16,18,21,26,27,,,,,1.2,0.8,0.8*2C
$GNGSA,A,2,70,71,76,86,87,,,,,,,,1.2,0.8,0.8*2F
$GPGSV,3,1,10,07,13,314,17,08,29,285,19,10,33,130,22,16,84,139,20*7A
$GPGSV,3,2,10,18,36,092,23,21,36,049,27,26,52,144,17,27,60,317,16*74
$GPGSV,3,3,10,11,00,243,,20,02,033,*7D
$GLGSV,3,1,11,70,16,045,15,86,48,025,16,76,47,202,18,87,46,286,17*6C
$GLGSV,3,2,11,85,04,059,22,71,19,095,19,78,02,337,,77,48,303,*6D
$GLGSV,3,3,11,75,04,171,,88,06,257,,72,02,140,*50
$GPGGA,175717.0,3945.076533,N,00807.607275,W,1,08,0.8,261.9,M,55.0,M,,*41
$GNGNS,175717.0,3945.076533,N,00807.607275,W,AA,13,0.8,261.9,55.0,,*7F
$GPVTG,172.9,T,172.9,M,5.8,N,10.7,K,A*18
$GPRMC,175717.0,A,3945.076533,N,00807.607275,W,5.8,172.9,140517,0.0,E,A*12
$GPGSA,A,2,07,08,10,16,18,21,26,27,,,,,1.2,0.8,0.8*32
$GNGSA,A,2,07,08,10,16,18,21,26,27,,,,,1.2,0.8,0.8*2C
$GNGSA,A,2,70,71,76,86,87,,,,,,,,1.2,0.8,0.8*2F
$GPGSV,3,1,10,07,13,314,24,08,29,285,20,10,33,130,18,16,84,139,20*79
$GPGSV,3,2,10,18,36,092,26,21,36,049,28,26,52,144,17,27,60,317,15*7D
$GPGSV,3,3,10,11,00,243,,20,02,033,*7D
$GLGSV,3,1,11,70,16,045,16,86,48,025,16,76,47,202,18,87,46,286,20*6B
$GLGSV,3,2,11,85,04,059,22,71,19,095,22,78,02,337,,77,48,303,*65
$GLGSV,3,3,11,75,04,171,,88,06,257,,72,02,140,*50
$GPGGA,175718.0,3945.074882,N,00807.606731,W,1,08,0.8,262.1,M,55.0,M,,*44
$GNGNS,175718.0,3945.074882,N,00807.606731,W,AA,13,0.8,262.1,55.0,,*7A
$GPVTG,169.0,T,169.0,M,5.8,N,10.7,K,A*18
$GPRMC,175718.0,A,3945.074882,N,00807.606731,W,5.8,169.0,140517,0.0,E,A*1F
$GPGSA,A,2,07,08,10,16,18,21,26,27,,,,,1.2,0.8,0.8*32
$GNGSA,A,2,07,08,10,16,18,21,26,27,,,,,1.2,0.8,0.8*2C
$GNGSA,A,2,70,71,76,86,87,,,,,,,,1.2,0.8,0.8*2F
$GPGSV,3,1,10,07,13,314,24,08,29,285,18,10,33,130,20,16,84,139,18*72
$GPGSV,3,2,10,18,36,092,26,21,36,049,32,26,52,144,17,27,60,317,15*76
$GPGSV,3,3,10,11,00,243,,20,02,033,*7D
$GLGSV,3,1,11,70,16,045,16,86,48,025,11,76,47,202,18,87,46,286,20*6C
$GLGSV,3,2,11,85,04,059,16,71,19,095,22,78,02,337,,77,48,303,*62
$GLGSV,3,3,11,75,04,171,,88,06,257,,72,02,140,*50
$GPGGA,175719.0,3945.073148,N,00807.606206,W,1,08,0.8,262.4,M,55.0,M,,*49
$GNGNS,175719.0,3945.073148,N,00807.606206,W,AA,13,0.8,262.4,55.0,,*77
$GPVTG,168.5,T,168.5,M,5.8,N,10.7,K,A*18
$GPRMC,175719.0,A,3945.073148,N,00807.606206,W,5.8,168.5,140517,0.0,E,A*13
$GPGSA,A,2,07,08,10,16,18,21,26,27,,,,,1.2,0.8,0.8*32
$GNGSA,A,2,07,08,10,16,18,21,26,27,,,,,1.2,0.8,0.8*2C
$GNGSA,A,2,70,71,76,86,87,,,,,,,,1.2,0.8,0.8*2F
$GPGSV,3,1,10,07,13,314,24,08,29,285,18,10,33,130,21,16,84,139,19*72
$GPGSV,3,2,10,18,36,092,24,21,36,049,32,26,52,144,17,27,60,317,20*72
$GPGSV,3,3,10,11,00,243,,20,02,033,*7D
$GLGSV,3,1,11,70,16,045,16,86,48,025,24,76,47,202,14,87,46,286,20*66
$GLGSV,3,2,11,85,04,059,18,71,19,095,24,78,02,337,,77,48,303,*6A
$GLGSV,3,3,11,75,04,171,,88,06,257,,72,02,140,*50
$GPGGA,175720.0,3945.071573,N,00807.605769,W,1,08,0.8,262.2,M,55.0,M,,*44
$GNGNS,175720.0,3945.071573,N,00807.605769,W,AA,13,0.8,262.2,55.0,,*7A
$GPVTG,168.5,T,168.5,M,5.7,N,10.6,K,A*16
$GPRMC,175720.0,A,3945.071573,N,00807.605769,W,5.7,168.5,140517,0.0,E,A*17
$GPGSA,A,2,07,08,10,16,18,21,26,27,,,,,1.2,0.8,0.8*32
$GNGSA,A,2,07,08,10,16,18,21,26,27,,,,,1.2,0.8,0.8*2C
$GNGSA,A,2,70,71,76,86,87,,,,,,,,1.2,0.8,0.8*2F
$GPGSV,3,1,10,07,13,314,24,08,29,285,18,10,33,130,21,16,84,139,18*73
$GPGSV,3,2,10,18,36,092,23,21,36,049,32,26,52,144,14,27,60,317,19*7C
$GPGSV,3,3,10,11,00,243,,20,02,033,*7D
$GLGSV,3,1,11,70,16,045,16,86,48,025,25,76,47,202,17,87,46,286,20*64
$GLGSV,3,2,11,85,04,059,19,71,19,095,25,78,02,337,,77,48,303,*6A
$GLGSV,3,3,11,75,04,171,,88,06,257,,72,02,140,*50
$GPGGA,175721.0,3945.069569,N,00807.605594,W,1,08,0.8,261.2,M,55.0,M,,*44
$GNGNS,175721.0,3945.069569,N,00807.605594,W,AA,13,0.8,261.2,55.0,,*7A
$GPVTG,170.2,T,170.2,M,5.9,N,10.9,K,A*17
$GPRMC,175721.0,A,3945.069569,N,00807.605594,W,5.9,170.2,140517,0.0,E,A*14
$GPGSA,A,2,07,08,10,16,18,21,26,27,,,,,1.2,0.8,0.8*32
$GNGSA,A,2,07,08,10,16,18,21,26,27,,,,,1.2,0.8,0.8*2C
$GNGSA,A,2,70,71,76,86,87,,,,,,,,1.2,0.8,0.8*2F
$GPGSV,3,1,10,07,13,314,15,08,29,285,18,10,33,130,15,16,84,139,18*76
$GPGSV,3,2,10,18,36,092,26,21,36,049,29,26,52,144,17,27,60,317,19*70
$GPGSV,3,3,10,11,00,243,,20,02,033,*7D
$GLGSV,3,1,11,70,16,045,16,86,48,025,25,76,47,202,17,87,46,286,13*64
