$GPRMC,195944.00,A,3844.6853,N,00908.0792,W,0.941194,0.000000,130617,,*29
$GPGGA,195944.00,3844.6853,N,00908.0792,W,1,00,0.0,142.176346,M,0.0,M,,*72
$GPGLL,3844.6853,N,00908.0792,W,195944.00,A,*30
$GPGSA,A,3,,,,,,,,,,,,,0.0,0.0,0.0*32
$GPRMC,195954.00,A,3844.6888,N,00908.0808,W,0.468429,340.586446,130617,,*2D
$GPGGA,195954.00,3844.6888,N,00908.0808,W,1,00,0.0,144.683990,M,0.0,M,,*73
$GPGLL,3844.6888,N,00908.0808,W,195954.00,A,*3B
$GPGSA,A,3,,,,,,,,,,,,,0.0,0.0,0.0*32
$GPRMC,195955.00,A,3844.6889,N,00908.0808,W,0.456766,69.335757,130617,,*1D
$GPGGA,195955.00,3844.6889,N,00908.0808,W,1,00,0.0,144.712799,M,0.0,M,,*7D
$GPGLL,3844.6889,N,00908.0808,W,195955.00,A,*3B
$GPGSA,A,3,,,,,,,,,,,,,0.0,0.0,0.0*32
$GPRMC,195956.00,A,3844.6894,N,00908.0815,W,0.424385,317.299919,130617,,*2B
$GPGGA,195956.00,3844.6894,N,00908.0815,W,1,00,0.0,144.723267,M,0.0,M,,*78
$GPGLL,3844.6894,N,00908.0815,W,195956.00,A,*38
$GPGSA,A,3,,,,,,,,,,,,,0.0,0.0,0.0*32
$GPRMC,195957.00,A,3844.6893,N,00908.0820,W,0.333202,250.286243,130617,,*2C
$GPGGA,195957.00,3844.6893,N,00908.0820,W,1,00,0.0,144.740997,M,0.0,M,,*79
$GPGLL,3844.6893,N,00908.0820,W,195957.00,A,*38
$GPGSA,A,3,,,,,,,,,,,,,0.0,0.0,0.0*32
$GPRMC,195958.00,A,3844.6892,N,00908.0820,W,0.319348,150.555409,130617,,*27
$GPGGA,195958.00,3844.6892,N,00908.0820,W,1,00,0.0,144.754761,M,0.0,M,,*75
$GPGLL,3844.6892,N,00908.0820,W,195958.00,A,*36
$GPGSA,A,3,,,,,,,,,,,,,0.0,0.0,0.0*32
$GPRMC,195959.00,A,3844.6891,N,00908.0820,W,0.339062,163.048234,130617,,*2D
$GPGGA,195959.00,3844.6891,N,00908.0820,W,1,00,0.0,144.766525,M,0.0,M,,*74
$GPGLL,3844.6891,N,00908.0820,W,195959.00,A,*34
$GPGSA,A,3,,,,,,,,,,,,,0.0,0.0,0.0*32
$GPRMC,200000.00,A,3844.6891,N,00908.0819,W,0.542812,175.503839,130617,,*22
$GPGGA,200000.00,3844.6891,N,00908.0819,W,1,00,0.0,144.794189,M,0.0,M,,*7B
$GPGLL,3844.6891,N,00908.0819,W,200000.00,A,*34
$GPGSA,A,3,,,,,,,,,,,,,0.0,0.0,0.0*32
$GPRMC,200001.00,A,3844.6889,N,00908.0820,W,0.833856,184.224974,130617,,*2F
$GPGGA,200001.00,3844.6889,N,00908.0820,W,1,00,0.0,144.813950,M,0.0,M,,*75
$GPGLL,3844.6889,N,00908.0820,W,200001.00,A,*36
$GPGSA,A,3,,,,,,,,,,,,,0.0,0.0,0.0*32
$GPRMC,200002.00,A,3844.6891,N,00908.0815,W,1.404225,58.092149,130617,,*1D
$GPGGA,200002.00,3844.6891,N,00908.0815,W,1,00,0.0,144.674850,M,0.0,M,,*77
$GPGLL,3844.6891,N,00908.0815,W,200002.00,A,*3A
$GPGSA,A,3,,,,,,,,,,,,,0.0,0.0,0.0*32
$GPRMC,200003.00,A,3844.6902,N,00908.0797,W,1.489208,53.452354,130617,,*15
$GPGGA,200003.00,3844.6902,N,00908.0797,W,1,00,0.0,147.095840,M,0.0,M,,*73
$GPGLL,3844.6902,N,00908.0797,W,200003.00,A,*35
$GPGSA,A,3,,,,,,,,,,,,,0.0,0.0,0.0*32
$GPRMC,200004.00,A,3844.6901,N,00908.0799,W,1.553157,239.246023,130617,,*2E
$GPGGA,200004.00,3844.6901,N,00908.0799,W,1,00,0.0,147.081680,M,0.0,M,,*7E
$GPGLL,3844.6901,N,00908.0799,W,200004.00,A,*3F
$GPGSA,A,3,,,,,,,,,,,,,0.0,0.0,0.0*32
$GPRMC,200005.00,A,3844.6897,N,00908.0793,W,1.767638,132.844616,130617,,*20
$GPGGA,200005.00,3844.6897,N,00908.0793,W,1,00,0.0,147.291534,M,0.0,M,,*74
$GPGLL,3844.6897,N,00908.0793,W,200005.00,A,*3A
$GPGSA,A,3,,,,,,,,,,,,,0.0,0.0,0.0*32
$GPRMC,200006.00,A,3844.6894,N,00908.0794,W,2.129485,193.145194,130617,,*22
$GPGGA,200006.00,3844.6894,N,00908.0794,W,1,00,0.0,147.291748,M,0.0,M,,*7A
$GPGLL,3844.6894,N,00908.0794,W,200006.00,A,*3D
$GPGSA,A,3,,,,,,,,,,,,,0.0,0.0,0.0*32
$GPRMC,200007.00,A,3844.6889,N,00908.0790,W,1.548163,144.960928,130617,,*2C
$GPGGA,200007.00,3844.6889,N,00908.0790,W,1,00,0.0,147.598633,M,0.0,M,,*70
$GPGLL,3844.6889,N,00908.0790,W,200007.00,A,*34
$GPGSA,A,3,,,,,,,,,,,,,0.0,0.0,0.0*32
$GPRMC,200008.00,A,3844.6889,N,00908.0787,W,0.765835,107.292404,130617,,*21
$GPGGA,200008.00,3844.6889,N,00908.0787,W,1,00,0.0,148.013702,M,0.0,M,,*73
$GPGLL,3844.6889,N,00908.0787,W,200008.00,A,*3D
$GPGSA,A,3,,,,,,,,,,,,,0.0,0.0,0.0*32
$GPRMC,200009.00,A,3844.6887,N,00908.0785,W,0.859369,132.437581,130617,,*2D
$GPGGA,200009.00,3844.6887,N,00908.0785,W,1,00,0.0,148.182190,M,0.0,M,,*7A
$GPGLL,3844.6887,N,00908.0785,W,200009.00,A,*30
$GPGSA,A,3,,,,,,,,,,,,,0.0,0.0,0.0*32
$GPRMC,200010.00,A,3844.6886,N,00908.0784,W,0.519918,149.045829,130617,,*22
$GPGGA,200010.00,3844.6886,N,00908.0784,W,1,00,0.0,148.411179,M,0.0,M,,*7A
$GPGLL,3844.6886,N,00908.0784,W,200010.00,A,*38
$GPGSA,A,3,,,,,,,,,,,,,0.0,0.0,0.0*32
$GPRMC,200011.00,A,3844.6885,N,00908.0784,W,0.456948,193.204391,130617,,*27
$GPGGA,200011.00,3844.6885,N,00908.0784,W,1,00,0.0,148.420120,M,0.0,M,,*76
$GPGLL,3844.6885,N,00908.0784,W,200011.00,A,*3A
$GPGSA,A,3,,,,,,,,,,,,,0.0,0.0,0.0*32
$GPRMC,200012.00,A,3844.6884,N,00908.0784,W,0.422671,181.083620,130617,,*22
$GPGGA,200012.00,3844.6884,N,00908.0784,W,1,00,0.0,148.417267,M,0.0,M,,*70
$GPGLL,3844.6884,N,00908.0784,W,200012.00,A,*38
$GPGSA,A,3,,,,,,,,,,,,,0.0,0.0,0.0*32
$GPRMC,200013.00,A,3844.6883,N,00908.0783,W,0.279028,110.543130,130617,,*26
$GPGGA,200013.00,3844.6883,N,00908.0783,W,1,00,0.0,148.506348,M,0.0,M,,*7C
$GPGLL,3844.6883,N,00908.0783,W,200013.00,A,*39
$GPGSA,A,3,,,,,,,,,,,,,0.0,0.0,0.0*32
$GPRMC,200014.00,A,3844.6883,N,00908.0783,W,0.262874,187.879016,130617,,*25
$GPGGA,200014.00,3844.6883,N,00908.0783,W,1,00,0.0,148.520752,M,0.0,M,,*70
$GPGLL,3844.6883,N,00908.0783,W,200014.00,A,*3E
$GPGSA,A,3,,,,,,,,,,,,,0.0,0.0,0.0*32
$GPRMC,200015.00,A,3844.6882,N,00908.0783,W,0.700987,203.260333,130617,,*20
$GPGGA,200015.00,3844.6882,N,00908.0783,W,1,00,0.0,148.531754,M,0.0,M,,*76
$GPGLL,3844.6882,N,00908.0783,W,200015.00,A,*3E
$GPGSA,A,3,,,,,,,,,,,,,0.0,0.0,0.0*32
$GPRMC,200016.00,A,3844.6878,N,00908.0786,W,1.483896,210.796754,130617,,*20
$GPGGA,200016.00,3844.6878,N,00908.0786,W,1,00,0.0,148.703217,M,0.0,M,,*74
$GPGLL,3844.6878,N,00908.0786,W,200016.00,A,*3D
$GPGSA,A,3,,,,,,,,,,,,,0.0,0.0,0.0*32
$GPRMC,200017.00,A,3844.6876,N,00908.0786,W,1.559980,170.280861,130617,,*21
$GPGGA,200017.00,3844.6876,N,00908.0786,W,1,00,0.0,148.791779,M,0.0,M,,*7D
$GPGLL,3844.6876,N,00908.0786,W,200017.00,A,*32
$GPGSA,A,3,,,,,,,,,,,,,0.0,0.0,0.0*32
$GPRMC,200018.00,A,3844.6878,N,00908.0787,W,1.434691,326.067089,130617,,*20
$GPGGA,200018.00,3844.6878,N,00908.0787,W,1,00,0.0,148.986786,M,0.0,M,,*75
$GPGLL,3844.6878,N,00908.0787,W,200018.00,A,*32
$GPGSA,A,3,,,,,,,,,,,,,0.0,0.0,0.0*32
$GPRMC,200019.00,A,3844.6877,N,00908.0793,W,1.638612,264.025235,130617,,*2A
$GPGGA,200019.00,3844.6877,N,00908.0793,W,1,00,0.0,148.990158,M,0.0,M,,*7C
$GPGLL,3844.6877,N,00908.0793,W,200019.00,A,*39
$GPGSA,A,3,,,,,,,,,,,,,0.0,0.0,0.0*32
$GPRMC,200020.00,A,3844.6878,N,00908.0799,W,1.618431,276.556277,130617,,*20
$GPGGA,200020.00,3844.6878,N,00908.0799,W,1,00,0.0,148.988464,M,0.0,M,,*70
$GPGLL,3844.6878,N,00908.0799,W,200020.00,A,*36
$GPGSA,A,3,,,,,,,,,,,,,0.0,0.0,0.0*32
$GPRMC,200021.00,A,3844.6876,N,00908.0804,W,1.642678,256.005244,130617,,*25
$GPGGA,200021.00,3844.6876,N,00908.0804,W,1,00,0.0,148.983887,M,0.0,M,,*7E
$GPGLL,3844.6876,N,00908.0804,W,200021.00,A,*32
$GPGSA,A,3,,,,,,,,,,,,,0.0,0.0,0.0*32
$GPRMC,200022.00,A,3844.6874,N,00908.0810,W,1.747204,243.812379,130617,,*2F
$GPGGA,200022.00,3844.6874,N,00908.0810,W,1,00,0.0,148.987442,M,0.0,M,,*7B
$GPGLL,3844.6874,N,00908.0810,W,200022.00,A,*36
$GPGSA,A,3,,,,,,,,,,,,,0.0,0.0,0.0*32
$GPRMC,200023.00,A,3844.6867,N,00908.0813,W,1.824228,197.508146,130617,,*29
$GPGGA,200023.00,3844.6867,N,00908.0813,W,1,00,0.0,148.984238,M,0.0,M,,*73
$GPGLL,3844.6867,N,00908.0813,W,200023.00,A,*36
$GPGSA,A,3,,,,,,,,,,,,,0.0,0.0,0.0*32
$GPRMC,200024.00,A,3844.6857,N,00908.0808,W,1.959026,160.045058,130617,,*2A
$GPGGA,200024.00,3844.6857,N,00908.0808,W,1,00,0.0,149.054474,M,0.0,M,,*76
$GPGLL,3844.6857,N,00908.0808,W,200024.00,A,*38
$GPGSA,A,3,,,,,,,,,,,,,0.0,0.0,0.0*32
$GPRMC,200025.00,A,3844.6855,N,00908.0811,W,1.804031,229.845290,130617,,*2E
$GPGGA,200025.00,3844.6855,N,00908.0811,W,1,00,0.0,149.081940,M,0.0,M,,*7F
$GPGLL,3844.6855,N,00908.0811,W,200025.00,A,*33
$GPGSA,A,3,,,,,,,,,,,,,0.0,0.0,0.0*32
$GPRMC,200026.00,A,3844.6856,N,00908.0820,W,1.823902,273.603133,130617,,*29
$GPGGA,200026.00,3844.6856,N,00908.0820,W,1,00,0.0,149.084473,M,0.0,M,,*75
$GPGLL,3844.6856,N,00908.0820,W,200026.00,A,*31
$GPGSA,A,3,,,,,,,,,,,,,0.0,0.0,0.0*32
$GPRMC,200027.00,A,3844.6851,N,00908.0827,W,2.007247,229.164913,130617,,*2C
$GPGGA,200027.00,3844.6851,N,00908.0827,W,1,00,0.0,149.096985,M,0.0,M,,*73
$GPGLL,3844.6851,N,00908.0827,W,200027.00,A,*30
$GPGSA,A,3,,,,,,,,,,,,,0.0,0.0,0.0*32
$GPRMC,200028.00,A,3844.6848,N,00908.0831,W,1.787064,221.560426,130617,,*20
$GPGGA,200028.00,3844.6848,N,00908.0831,W,1,00,0.0,149.103088,M,0.0,M,,*7A
$GPGLL,3844.6848,N,00908.0831,W,200028.00,A,*30
$GPGSA,A,3,,,,,,,,,,,,,0.0,0.0,0.0*32
$GPRMC,200029.00,A,3844.6844,N,00908.0836,W,1.860395,224.897242,130617,,*25
$GPGGA,200029.00,3844.6844,N,00908.0836,W,1,00,0.0,149.145737,M,0.0,M,,*71
$GPGLL,3844.6844,N,00908.0836,W,200029.00,A,*3A
$GPGSA,A,3,,,,,,,,,,,,,0.0,0.0,0.0*32
$GPRMC,200030.00,A,3844.6840,N,00908.0837,W,1.717213,192.404202,130617,,*24
$GPGGA,200030.00,3844.6840,N,00908.0837,W,1,00,0.0,149.187225,M,0.0,M,,*74
$GPGLL,3844.6840,N,00908.0837,W,200030.00,A,*37
$GPGSA,A,3,,,,,,,,,,,,,0.0,0.0,0.0*32
$GPRMC,200031.00,A,3844.6835,N,00908.0838,W,1.562372,191.868258,130617,,*24
$GPGGA,200031.00,3844.6835,N,00908.0838,W,1,00,0.0,149.182404,M,0.0,M,,*78
$GPGLL,3844.6835,N,00908.0838,W,200031.00,A,*3B
$GPGSA,A,3,,,,,,,,,,,,,0.0,0.0,0.0*32
$GPRMC,200032.00,A,3844.6828,N,00908.0839,W,1.689515,183.456948,130617,,*23
$GPGGA,200032.00,3844.6828,N,00908.0839,W,1,00,0.0,149.192383,M,0.0,M,,*7F
$GPGLL,3844.6828,N,00908.0839,W,200032.00,A,*35
$GPGSA,A,3,,,,,,,,,,,,,0.0,0.0,0.0*32
$GPRMC,200033.00,A,3844.6825,N,00908.0841,W,1.582993,207.017265,130617,,*20
$GPGGA,200033.00,3844.6825,N,00908.0841,W,1,00,0.0,149.194519,M,0.0,M,,*7F
$GPGLL,3844.6825,N,00908.0841,W,200033.00,A,*36
$GPGSA,A,3,,,,,,,,,,,,,0.0,0.0,0.0*32
$GPRMC,200034.00,A,3844.6822,N,00908.0841,W,1.255150,167.627778,130617,,*23
$GPGGA,200034.00,3844.6822,N,00908.0841,W,1,00,0.0,149.213272,M,0.0,M,,*79
$GPGLL,3844.6822,N,00908.0841,W,200034.00,A,*36
$GPGSA,A,3,,,,,,,,,,,,,0.0,0.0,0.0*32
$GPRMC,200035.00,A,3844.6820,N,00908.0839,W,1.144786,150.024075,130617,,*2A
$GPGGA,200035.00,3844.6820,N,00908.0839,W,1,00,0.0,149.262054,M,0.0,M,,*75
$GPGLL,3844.6820,N,00908.0839,W,200035.00,A,*3A
$GPGSA,A,3,,,,,,,,,,,,,0.0,0.0,0.0*32
$GPRMC,200036.00,A,3844.6814,N,00908.0834,W,1.362134,146.642199,130617,,*28
$GPGGA,200036.00,3844.6814,N,00908.0834,W,1,00,0.0,149.265045,M,0.0,M,,*7B
$GPGLL,3844.6814,N,00908.0834,W,200036.00,A,*33
$GPGSA,A,3,,,,,,,,,,,,,0.0,0.0,0.0*32
$GPRMC,200037.00,A,3844.6810,N,00908.0830,W,1.472937,143.866428,130617,,*26
$GPGGA,200037.00,3844.6810,N,00908.0830,W,1,00,0.0,149.294113,M,0.0,M,,*76
$GPGLL,3844.6810,N,00908.0830,W,200037.00,A,*32
$GPGSA,A,3,,,,,,,,,,,,,0.0,0.0,0.0*32
$GPRMC,200038.00,A,3844.6807,N,00908.0828,W,1.385823,149.987929,130617,,*25
$GPGGA,200038.00,3844.6807,N,00908.0828,W,1,00,0.0,149.295471,M,0.0,M,,*76
$GPGLL,3844.6807,N,00908.0828,W,200038.00,A,*32
$GPGSA,A,3,,,,,,,,,,,,,0.0,0.0,0.0*32
$GPRMC,200039.00,A,3844.6808,N,00908.0823,W,1.122427,75.459641,130617,,*16
$GPGGA,200039.00,3844.6808,N,00908.0823,W,1,00,0.0,149.327057,M,0.0,M,,*7B
$GPGLL,3844.6808,N,00908.0823,W,200039.00,A,*37
$GPGSA,A,3,,,,,,,,,,,,,0.0,0.0,0.0*32
$GPRMC,200040.00,A,3844.6803,N,00908.0821,W,1.111357,168.058734,130617,,*2A
$GPGGA,200040.00,3844.6803,N,00908.0821,W,1,00,0.0,149.336349,M,0.0,M,,*70
$GPGLL,3844.6803,N,00908.0821,W,200040.00,A,*30
$GPGSA,A,3,,,,,,,,,,,,,0.0,0.0,0.0*32
$GPRMC,200041.00,A,3844.6799,N,00908.0820,W,1.127014,167.122669,130617,,*2D
$GPGGA,200041.00,3844.6799,N,00908.0820,W,1,00,0.0,149.352890,M,0.0,M,,*71
$GPGLL,3844.6799,N,00908.0820,W,200041.00,A,*3C
$GPGSA,A,3,,,,,,,,,,,,,0.0,0.0,0.0*32
$GPRMC,200042.00,A,3844.6796,N,00908.0818,W,0.979451,148.797672,130617,,*22
$GPGGA,200042.00,3844.6796,N,00908.0818,W,1,00,0.0,149.372025,M,0.0,M,,*72
$GPGLL,3844.6796,N,00908.0818,W,200042.00,A,*3B
$GPGSA,A,3,,,,,,,,,,,,,0.0,0.0,0.0*32
$GPRMC,200043.00,A,3844.6796,N,00908.0815,W,0.715686,92.783168,130617,,*1D
$GPGGA,200043.00,3844.6796,N,00908.0815,W,1,00,0.0,149.387802,M,0.0,M,,*79
$GPGLL,3844.6796,N,00908.0815,W,200043.00,A,*37
$GPGSA,A,3,,,,,,,,,,,,,0.0,0.0,0.0*32
$GPRMC,200044.00,A,3844.6790,N,00908.0818,W,0.757898,202.293395,130617,,*29
$GPGGA,200044.00,3844.6790,N,00908.0818,W,1,00,0.0,149.422714,M,0.0,M,,*75
$GPGLL,3844.6790,N,00908.0818,W,200044.00,A,*3B
$GPGSA,A,3,,,,,,,,,,,,,0.0,0.0,0.0*32
$GPRMC,200045.00,A,3844.6787,N,00908.0817,W,0.776015,168.461214,130617,,*23
$GPGGA,200045.00,3844.6787,N,00908.0817,W,1,00,0.0,149.470993,M,0.0,M,,*7B
$GPGLL,3844.6787,N,00908.0817,W,200045.00,A,*33
$GPGSA,A,3,,,,,,,,,,,,,0.0,0.0,0.0*32
$GPRMC,200046.00,A,3844.6782,N,00908.0816,W,1.026783,171.147778,130617,,*29
$GPGGA,200046.00,3844.6782,N,00908.0816,W,1,00,0.0,149.526337,M,0.0,M,,*7A
$GPGLL,3844.6782,N,00908.0816,W,200046.00,A,*34
$GPGSA,A,3,,,,,,,,,,,,,0.0,0.0,0.0*32
$GPRMC,200047.00,A,3844.6775,N,00908.0816,W,1.141009,174.960796,130617,,*2D
$GPGGA,200047.00,3844.6775,N,00908.0816,W,1,00,0.0,149.549225,M,0.0,M,,*78
$GPGLL,3844.6775,N,00908.0816,W,200047.00,A,*3D
$GPGSA,A,3,,,,,,,,,,,,,0.0,0.0,0.0*32
$GPRMC,200048.00,A,3844.6768,N,00908.0813,W,1.246929,164.852071,130617,,*2B
$GPGGA,200048.00,3844.6768,N,00908.0813,W,1,00,0.0,149.607880,M,0.0,M,,*72
$GPGLL,3844.6768,N,00908.0813,W,200048.00,A,*3B
$GPGSA,A,3,,,,,,,,,,,,,0.0,0.0,0.0*32
$GPRMC,200049.00,A,3844.6765,N,00908.0809,W,1.154923,137.940310,130617,,*26
$GPGGA,200049.00,3844.6765,N,00908.0809,W,1,00,0.0,149.664383,M,0.0,M,,*78
$GPGLL,3844.6765,N,00908.0809,W,200049.00,A,*3C
$GPGSA,A,3,,,,,,,,,,,,,0.0,0.0,0.0*32
$GPRMC,200050.00,A,3844.6762,N,00908.0807,W,1.015584,144.498273,130617,,*2A
$GPGGA,200050.00,3844.6762,N,00908.0807,W,1,00,0.0,149.718964,M,0.0,M,,*70
$GPGLL,3844.6762,N,00908.0807,W,200050.00,A,*3D
$GPGSA,A,3,,,,,,,,,,,,,0.0,0.0,0.0*32
$GPRMC,200051.00,A,3844.6761,N,00908.0800,W,1.049073,101.648164,130617,,*20
$GPGGA,200051.00,3844.6761,N,00908.0800,W,1,00,0.0,149.771347,M,0.0,M,,*71
$GPGLL,3844.6761,N,00908.0800,W,200051.00,A,*38
$GPGSA,A,3,,,,,,,,,,,,,0.0,0.0,0.0*32
$GPRMC,200052.00,A,3844.6756,N,00908.0797,W,1.098388,159.765940,130617,,*20
$GPGGA,200052.00,3844.6756,N,00908.0797,W,1,00,0.0,149.827682,M,0.0,M,,*77
$GPGLL,3844.6756,N,00908.0797,W,200052.00,A,*3E
$GPGSA,A,3,,,,,,,,,,,,,0.0,0.0,0.0*32
$GPRMC,200053.00,A,3844.6744,N,00908.0801,W,1.207532,193.871587,130617,,*2A
$GPGGA,200053.00,3844.6744,N,00908.0801,W,1,00,0.0,149.925323,M,0.0,M,,*78
$GPGLL,3844.6744,N,00908.0801,W,200053.00,A,*3C
$GPGSA,A,3,,,,,,,,,,,,,0.0,0.0,0.0*32
$GPRMC,200054.00,A,3844.6740,N,00908.0802,W,1.041723,184.310590,130617,,*24
$GPGGA,200054.00,3844.6740,N,00908.0802,W,1,00,0.0,149.983612,M,0.0,M,,*73
$GPGLL,3844.6740,N,00908.0802,W,200054.00,A,*3C
$GPGSA,A,3,,,,,,,,,,,,,0.0,0.0,0.0*32
$GPRMC,200055.00,A,3844.6733,N,00908.0803,W,1.037451,186.757463,130617,,*2F
$GPGGA,200055.00,3844.6733,N,00908.0803,W,1,00,0.0,150.060989,M,0.0,M,,*76
$GPGLL,3844.6733,N,00908.0803,W,200055.00,A,*38
$GPGSA,A,3,,,,,,,,,,,,,0.0,0.0,0.0*32
$GPRMC,200056.00,A,3844.6723,N,00908.0798,W,1.187402,158.848167,130617,,*2F
$GPGGA,200056.00,3844.6723,N,00908.0798,W,1,00,0.0,149.980789,M,0.0,M,,*78
$GPGLL,3844.6723,N,00908.0798,W,200056.00,A,*37
$GPGSA,A,3,,,,,,,,,,,,,0.0,0.0,0.0*32
$GPRMC,200057.00,A,3844.6719,N,00908.0795,W,1.154181,154.702702,130617,,*22
$GPGGA,200057.00,3844.6719,N,00908.0795,W,1,00,0.0,149.984848,M,0.0,M,,*7B
$GPGLL,3844.6719,N,00908.0795,W,200057.00,A,*32
$GPGSA,A,3,,,,,,,,,,,,,0.0,0.0,0.0*32
$GPRMC,200058.00,A,3844.6714,N,00908.0794,W,1.206689,170.070593,130617,,*24
$GPGGA,200058.00,3844.6714,N,00908.0794,W,1,00,0.0,149.981949,M,0.0,M,,*7D
$GPGLL,3844.6714,N,00908.0794,W,200058.00,A,*31
$GPGSA,A,3,,,,,,,,,,,,,0.0,0.0,0.0*32
$GPRMC,200059.00,A,3844.6711,N,00908.0790,W,1.084998,133.732416,130617,,*29
$GPGGA,200059.00,3844.6711,N,00908.0790,W,1,00,0.0,149.951385,M,0.0,M,,*7A
$GPGLL,3844.6711,N,00908.0790,W,200059.00,A,*31
$GPGSA,A,3,,,,,,,,,,,,,0.0,0.0,0.0*32
$GPRMC,200100.00,A,3844.6703,N,00908.0785,W,1.314277,152.141883,130617,,*26
$GPGGA,200100.00,3844.6703,N,00908.0785,W,1,00,0.0,149.887375,M,0.0,M,,*75
$GPGLL,3844.6703,N,00908.0785,W,200100.00,A,*3B
$GPGSA,A,3,,,,,,,,,,,,,0.0,0.0,0.0*32
$GPRMC,200101.00,A,3844.6700,N,00908.0781,W,1.273759,138.207484,130617,,*2F
$GPGGA,200101.00,3844.6700,N,00908.0781,W,1,00,0.0,149.844269,M,0.0,M,,*70
$GPGLL,3844.6700,N,00908.0781,W,200101.00,A,*3D
$GPGSA,A,3,,,,,,,,,,,,,0.0,0.0,0.0*32
$GPRMC,200102.00,A,3844.6696,N,00908.0777,W,1.322820,146.044013,130617,,*29
$GPGGA,200102.00,3844.6696,N,00908.0777,W,1,00,0.0,149.864441,M,0.0,M,,*7A
$GPGLL,3844.6696,N,00908.0777,W,200102.00,A,*39
$GPGSA,A,3,,,,,,,,,,,,,0.0,0.0,0.0*32
$GPRMC,200103.00,A,3844.6691,N,00908.0771,W,1.332169,132.448458,130617,,*2C
$GPGGA,200103.00,3844.6691,N,00908.0771,W,1,00,0.0,149.893051,M,0.0,M,,*77
$GPGLL,3844.6691,N,00908.0771,W,200103.00,A,*39
$GPGSA,A,3,,,,,,,,,,,,,0.0,0.0,0.0*32
$GPRMC,200104.00,A,3844.6686,N,00908.0766,W,1.330403,137.186108,130617,,*22
$GPGGA,200104.00,3844.6686,N,00908.0766,W,1,00,0.0,149.856979,M,0.0,M,,*7A
$GPGLL,3844.6686,N,00908.0766,W,200104.00,A,*3E
$GPGSA,A,3,,,,,,,,,,,,,0.0,0.0,0.0*32
$GPRMC,200105.00,A,3844.6683,N,00908.0761,W,1.258528,136.235210,130617,,*26
$GPGGA,200105.00,3844.6683,N,00908.0761,W,1,00,0.0,149.817215,M,0.0,M,,*7D
$GPGLL,3844.6683,N,00908.0761,W,200105.00,A,*3D
$GPGSA,A,3,,,,,,,,,,,,,0.0,0.0,0.0*32
$GPRMC,200106.00,A,3844.6678,N,00908.0755,W,1.372854,136.447035,130617,,*2F
$GPGGA,200106.00,3844.6678,N,00908.0755,W,1,00,0.0,149.755005,M,0.0,M,,*77
$GPGLL,3844.6678,N,00908.0755,W,200106.00,A,*3D
$GPGSA,A,3,,,,,,,,,,,,,0.0,0.0,0.0*32
$GPRMC,200107.00,A,3844.6679,N,00908.0741,W,1.326773,84.674017,130617,,*1B
$GPGGA,200107.00,3844.6679,N,00908.0741,W,1,00,0.0,149.452026,M,0.0,M,,*77
$GPGLL,3844.6679,N,00908.0741,W,200107.00,A,*38
$GPGSA,A,3,,,,,,,,,,,,,0.0,0.0,0.0*32
$GPRMC,200108.00,A,3844.6675,N,00908.0739,W,1.363449,154.320278,130617,,*2F
$GPGGA,200108.00,3844.6675,N,00908.0739,W,1,00,0.0,149.402847,M,0.0,M,,*71
$GPGLL,3844.6675,N,00908.0739,W,200108.00,A,*34
$GPGSA,A,3,,,,,,,,,,,,,0.0,0.0,0.0*32
$GPRMC,200109.00,A,3844.6672,N,00908.0736,W,1.197448,138.433361,130617,,*28
$GPGGA,200109.00,3844.6672,N,00908.0736,W,1,00,0.0,149.367493,M,0.0,M,,*79
$GPGLL,3844.6672,N,00908.0736,W,200109.00,A,*3D
$GPGSA,A,3,,,,,,,,,,,,,0.0,0.0,0.0*32
$GPRMC,200110.00,A,3844.6659,N,00908.0729,W,1.972379,157.832684,130617,,*2B
$GPGGA,200110.00,3844.6659,N,00908.0729,W,1,00,0.0,149.344391,M,0.0,M,,*72
$GPGLL,3844.6659,N,00908.0729,W,200110.00,A,*32
$GPGSA,A,3,,,,,,,,,,,,,0.0,0.0,0.0*32
$GPRMC,200111.00,A,3844.6655,N,00908.0726,W,1.769634,148.908533,130617,,*28
$GPGGA,200111.00,3844.6655,N,00908.0726,W,1,00,0.0,149.341156,M,0.0,M,,*7C
$GPGLL,3844.6655,N,00908.0726,W,200111.00,A,*30
$GPGSA,A,3,,,,,,,,,,,,,0.0,0.0,0.0*32
$GPRMC,200112.00,A,3844.6647,N,00908.0724,W,1.943962,172.295975,130617,,*28
$GPGGA,200112.00,3844.6647,N,00908.0724,W,1,00,0.0,149.321228,M,0.0,M,,*72
$GPGLL,3844.6647,N,00908.0724,W,200112.00,A,*32
$GPGSA,A,3,,,,,,,,,,,,,0.0,0.0,0.0*32
$GPRMC,200113.00,A,3844.6644,N,00908.0723,W,1.748762,156.532398,130617,,*23
$GPGGA,200113.00,3844.6644,N,00908.0723,W,1,00,0.0,149.293594,M,0.0,M,,*7F
$GPGLL,3844.6644,N,00908.0723,W,200113.00,A,*37
$GPGSA,A,3,,,,,,,,,,,,,0.0,0.0,0.0*32
$GPRMC,200114.00,A,3844.6643,N,00908.0722,W,1.438149,169.341489,130617,,*20
$GPGGA,200114.00,3844.6643,N,00908.0722,W,1,00,0.0,149.330826,M,0.0,M,,*72
$GPGLL,3844.6643,N,00908.0722,W,200114.00,A,*36
$GPGSA,A,3,,,,,,,,,,,,,0.0,0.0,0.0*32
$GPRMC,200115.00,A,3844.6639,N,00908.0722,W,1.195335,172.292688,130617,,*21
$GPGGA,200115.00,3844.6639,N,00908.0722,W,1,00,0.0,149.245377,M,0.0,M,,*72
$GPGLL,3844.6639,N,00908.0722,W,200115.00,A,*3A
$GPGSA,A,3,,,,,,,,,,,,,0.0,0.0,0.0*32
$GPRMC,200116.00,A,3844.6633,N,00908.0720,W,1.230037,169.215619,130617,,*2A
$GPGGA,200116.00,3844.6633,N,00908.0720,W,1,00,0.0,149.240753,M,0.0,M,,*7E
$GPGLL,3844.6633,N,00908.0720,W,200116.00,A,*31
$GPGSA,A,3,,,,,,,,,,,,,0.0,0.0,0.0*32
$GPRMC,200117.00,A,3844.6633,N,00908.0722,W,1.083873,264.395713,130617,,*27
$GPGGA,200117.00,3844.6633,N,00908.0722,W,1,00,0.0,149.252594,M,0.0,M,,*77
$GPGLL,3844.6633,N,00908.0722,W,200117.00,A,*32
$GPGSA,A,3,,,,,,,,,,,,,0.0,0.0,0.0*32
$GPRMC,200118.00,A,3844.6629,N,00908.0735,W,1.455401,248.977321,130617,,*2E
$GPGGA,200118.00,3844.6629,N,00908.0735,W,1,00,0.0,149.212082,M,0.0,M,,*73
$GPGLL,3844.6629,N,00908.0735,W,200118.00,A,*30
$GPGSA,A,3,,,,,,,,,,,,,0.0,0.0,0.0*32
$GPRMC,200119.00,A,3844.6625,N,00908.0739,W,1.507717,217.100431,130617,,*29
$GPGGA,200119.00,3844.6625,N,00908.0739,W,1,00,0.0,149.221619,M,0.0,M,,*76
$GPGLL,3844.6625,N,00908.0739,W,200119.00,A,*31
$GPGSA,A,3,,,,,,,,,,,,,0.0,0.0,0.0*32
$GPRMC,200120.00,A,3844.6622,N,00908.0742,W,1.479964,217.000905,130617,,*21
$GPGGA,200120.00,3844.6622,N,00908.0742,W,1,00,0.0,149.251373,M,0.0,M,,*79
$GPGLL,3844.6622,N,00908.0742,W,200120.00,A,*30
$GPGSA,A,3,,,,,,,,,,,,,0.0,0.0,0.0*32
$GPRMC,200121.00,A,3844.6619,N,00908.0744,W,1.518163,206.321633,130617,,*2D
$GPGGA,200121.00,3844.6619,N,00908.0744,W,1,00,0.0,149.297745,M,0.0,M,,*7D
$GPGLL,3844.6619,N,00908.0744,W,200121.00,A,*3F
$GPGSA,A,3,,,,,,,,,,,,,0.0,0.0,0.0*32
$GPRMC,200122.00,A,3844.6615,N,00908.0748,W,1.582518,220.191240,130617,,*28
$GPGGA,200122.00,3844.6615,N,00908.0748,W,1,00,0.0,149.309250,M,0.0,M,,*79
$GPGLL,3844.6615,N,00908.0748,W,200122.00,A,*3C
$GPGSA,A,3,,,,,,,,,,,,,0.0,0.0,0.0*32
$GPRMC,200123.00,A,3844.6611,N,00908.0756,W,1.651948,236.996351,130617,,*2F
$GPGGA,200123.00,3844.6611,N,00908.0756,W,1,00,0.0,149.222794,M,0.0,M,,*76
$GPGLL,3844.6611,N,00908.0756,W,200123.00,A,*36
$GPGSA,A,3,,,,,,,,,,,,,0.0,0.0,0.0*32
$GPRMC,200124.00,A,3844.6608,N,00908.0781,W,1.968381,262.423590,130617,,*29
$GPGGA,200124.00,3844.6608,N,00908.0781,W,1,00,0.0,148.661667,M,0.0,M,,*7C
$GPGLL,3844.6608,N,00908.0781,W,200124.00,A,*33
$GPGSA,A,3,,,,,,,,,,,,,0.0,0.0,0.0*32
$GPRMC,200125.00,A,3844.6604,N,00908.0798,W,1.951031,252.785165,130617,,*2C
$GPGGA,200125.00,3844.6604,N,00908.0798,W,1,00,0.0,148.434021,M,0.0,M,,*7F
$GPGLL,3844.6604,N,00908.0798,W,200125.00,A,*36
$GPGSA,A,3,,,,,,,,,,,,,0.0,0.0,0.0*32
$GPRMC,200126.00,A,3844.6611,N,00908.0826,W,1.642415,285.730154,130617,,*28
$GPGGA,200126.00,3844.6611,N,00908.0826,W,1,00,0.0,147.319199,M,0.0,M,,*77
$GPGLL,3844.6611,N,00908.0826,W,200126.00,A,*3B
$GPGSA,A,3,,,,,,,,,,,,,0.0,0.0,0.0*32
$GPRMC,200127.00,A,3844.6599,N,00908.0833,W,1.620321,205.686316,130617,,*2A
$GPGGA,200127.00,3844.6599,N,00908.0833,W,1,00,0.0,147.472717,M,0.0,M,,*7B
$GPGLL,3844.6599,N,00908.0833,W,200127.00,A,*3D
$GPGSA,A,3,,,,,,,,,,,,,0.0,0.0,0.0*32
$GPRMC,200128.00,A,3844.6576,N,00908.0833,W,1.667011,179.335683,130617,,*2B
$GPGGA,200128.00,3844.6576,N,00908.0833,W,1,00,0.0,148.020706,M,0.0,M,,*79
$GPGLL,3844.6576,N,00908.0833,W,200128.00,A,*33
$GPGSA,A,3,,,,,,,,,,,,,0.0,0.0,0.0*32
$GPRMC,200129.00,A,3844.6580,N,00908.0843,W,1.979986,295.533419,130617,,*23
$GPGGA,200129.00,3844.6580,N,00908.0843,W,1,00,0.0,148.210831,M,0.0,M,,*7C
$GPGLL,3844.6580,N,00908.0843,W,200129.00,A,*3C
$GPGSA,A,3,,,,,,,,,,,,,0.0,0.0,0.0*32
$GPRMC,200130.00,A,3844.6566,N,00908.0848,W,2.084545,196.828636,130617,,*2B
$GPGGA,200130.00,3844.6566,N,00908.0848,W,1,00,0.0,147.872940,M,0.0,M,,*71
$GPGLL,3844.6566,N,00908.0848,W,200130.00,A,*37
$GPGSA,A,3,,,,,,,,,,,,,0.0,0.0,0.0*32
$GPRMC,200131.00,A,3844.6566,N,00908.0853,W,2.046844,267.102654,130617,,*2A
$GPGGA,200131.00,3844.6566,N,00908.0853,W,1,00,0.0,147.828125,M,0.0,M,,*7E
$GPGLL,3844.6566,N,00908.0853,W,200131.00,A,*3C
$GPGSA,A,3,,,,,,,,,,,,,0.0,0.0,0.0*32
$GPRMC,200132.00,A,3844.6565,N,00908.0858,W,2.037586,252.523784,130617,,*29
$GPGGA,200132.00,3844.6565,N,00908.0858,W,1,00,0.0,147.698044,M,0.0,M,,*76
$GPGLL,3844.6565,N,00908.0858,W,200132.00,A,*37
$GPGSA,A,3,,,,,,,,,,,,,0.0,0.0,0.0*32
$GPRMC,200133.00,A,3844.6552,N,00908.0876,W,2.335837,226.971124,130617,,*22
$GPGGA,200133.00,3844.6552,N,00908.0876,W,1,00,0.0,146.201965,M,0.0,M,,*70
$GPGLL,3844.6552,N,00908.0876,W,200133.00,A,*3E
$GPGSA,A,3,,,,,,,,,,,,,0.0,0.0,0.0*32
$GPRMC,200134.00,A,3844.6538,N,00908.0886,W,2.285475,208.589198,130617,,*26
$GPGGA,200134.00,3844.6538,N,00908.0886,W,1,00,0.0,145.086258,M,0.0,M,,*7F
$GPGLL,3844.6538,N,00908.0886,W,200134.00,A,*3A
$GPGSA,A,3,,,,,,,,,,,,,0.0,0.0,0.0*32
$GPRMC,200135.00,A,3844.6536,N,00908.0890,W,1.782871,229.372396,130617,,*2A
$GPGGA,200135.00,3844.6536,N,00908.0890,W,1,00,0.0,144.943588,M,0.0,M,,*7C
$GPGLL,3844.6536,N,00908.0890,W,200135.00,A,*32
$GPGSA,A,3,,,,,,,,,,,,,0.0,0.0,0.0*32
$GPRMC,200136.00,A,3844.6529,N,00908.0894,W,2.377398,207.399716,130617,,*27
$GPGGA,200136.00,3844.6529,N,00908.0894,W,1,00,0.0,144.706100,M,0.0,M,,*7E
$GPGLL,3844.6529,N,00908.0894,W,200136.00,A,*3B
$GPGSA,A,3,,,,,,,,,,,,,0.0,0.0,0.0*32
$GPRMC,200137.00,A,3844.6520,N,00908.0902,W,2.333685,214.678632,130617,,*27
$GPGGA,200137.00,3844.6520,N,00908.0902,W,1,00,0.0,144.077972,M,0.0,M,,*74
$GPGLL,3844.6520,N,00908.0902,W,200137.00,A,*3D
$GPGSA,A,3,,,,,,,,,,,,,0.0,0.0,0.0*32
$GPRMC,200138.00,A,3844.6516,N,00908.0905,W,1.809211,211.181311,130617,,*22
$GPGGA,200138.00,3844.6516,N,00908.0905,W,1,00,0.0,144.091644,M,0.0,M,,*7B
$GPGLL,3844.6516,N,00908.0905,W,200138.00,A,*30
$GPGSA,A,3,,,,,,,,,,,,,0.0,0.0,0.0*32
$GPRMC,200139.00,A,3844.6509,N,00908.0911,W,2.221863,209.894822,130617,,*2B
$GPGGA,200139.00,3844.6509,N,00908.0911,W,1,00,0.0,143.729691,M,0.0,M,,*7A
$GPGLL,3844.6509,N,00908.0911,W,200139.00,A,*3A
$GPGSA,A,3,,,,,,,,,,,,,0.0,0.0,0.0*32
$GPRMC,200140.00,A,3844.6502,N,00908.0913,W,2.517579,198.957472,130617,,*24
$GPGGA,200140.00,3844.6502,N,00908.0913,W,1,00,0.0,143.507538,M,0.0,M,,*73
$GPGLL,3844.6502,N,00908.0913,W,200140.00,A,*3D
$GPGSA,A,3,,,,,,,,,,,,,0.0,0.0,0.0*32
$GPRMC,200141.00,A,3844.6496,N,00908.0916,W,1.799691,196.846545,130617,,*24
$GPGGA,200141.00,3844.6496,N,00908.0916,W,1,00,0.0,143.159195,M,0.0,M,,*77
$GPGLL,3844.6496,N,00908.0916,W,200141.00,A,*35
$GPGSA,A,3,,,,,,,,,,,,,0.0,0.0,0.0*32
$GPRMC,200142.00,A,3844.6493,N,00908.0915,W,1.125105,173.367832,130617,,*24
$GPGGA,200142.00,3844.6493,N,00908.0915,W,1,00,0.0,143.111237,M,0.0,M,,*75
$GPGLL,3844.6493,N,00908.0915,W,200142.00,A,*30
$GPGSA,A,3,,,,,,,,,,,,,0.0,0.0,0.0*32
$GPRMC,200143.00,A,3844.6489,N,00908.0917,W,1.546485,195.227504,130617,,*25
$GPGGA,200143.00,3844.6489,N,00908.0917,W,1,00,0.0,143.003433,M,0.0,M,,*7D
$GPGLL,3844.6489,N,00908.0917,W,200143.00,A,*38
$GPGSA,A,3,,,,,,,,,,,,,0.0,0.0,0.0*32
$GPRMC,200144.00,A,3844.6485,N,00908.0919,W,1.397734,200.695299,130617,,*22
$GPGGA,200144.00,3844.6485,N,00908.0919,W,1,00,0.0,143.021515,M,0.0,M,,*7D
$GPGLL,3844.6485,N,00908.0919,W,200144.00,A,*3D
$GPGSA,A,3,,,,,,,,,,,,,0.0,0.0,0.0*32
$GPRMC,200145.00,A,3844.6482,N,00908.0924,W,1.697191,227.749100,130617,,*20
$GPGGA,200145.00,3844.6482,N,00908.0924,W,1,00,0.0,142.925293,M,0.0,M,,*70
$GPGLL,3844.6482,N,00908.0924,W,200145.00,A,*35
$GPGSA,A,3,,,,,,,,,,,,,0.0,0.0,0.0*32
$GPRMC,200146.00,A,3844.6480,N,00908.0926,W,1.556343,228.701837,130617,,*2E
$GPGGA,200146.00,3844.6480,N,00908.0926,W,1,00,0.0,142.846741,M,0.0,M,,*7D
$GPGLL,3844.6480,N,00908.0926,W,200146.00,A,*36
$GPGSA,A,3,,,,,,,,,,,,,0.0,0.0,0.0*32
$GPRMC,200147.00,A,3844.6476,N,00908.0924,W,1.283513,156.118452,130617,,*23
$GPGGA,200147.00,3844.6476,N,00908.0924,W,1,00,0.0,142.579971,M,0.0,M,,*7B
$GPGLL,3844.6476,N,00908.0924,W,200147.00,A,*3C
$GPGSA,A,3,,,,,,,,,,,,,0.0,0.0,0.0*32
$GPRMC,200148.00,A,3844.6473,N,00908.0924,W,1.309257,171.349607,130617,,*2C
$GPGGA,200148.00,3844.6473,N,00908.0924,W,1,00,0.0,142.547485,M,0.0,M,,*7A
$GPGLL,3844.6473,N,00908.0924,W,200148.00,A,*36
$GPGSA,A,3,,,,,,,,,,,,,0.0,0.0,0.0*32
$GPRMC,200149.00,A,3844.6468,N,00908.0926,W,1.322847,201.694307,130617,,*23
$GPGGA,200149.00,3844.6468,N,00908.0926,W,1,00,0.0,142.468506,M,0.0,M,,*75
$GPGLL,3844.6468,N,00908.0926,W,200149.00,A,*3F
$GPGSA,A,3,,,,,,,,,,,,,0.0,0.0,0.0*32
$GPRMC,200150.00,A,3844.6467,N,00908.0930,W,1.189114,237.375645,130617,,*23
$GPGGA,200150.00,3844.6467,N,00908.0930,W,1,00,0.0,142.423965,M,0.0,M,,*73
$GPGLL,3844.6467,N,00908.0930,W,200150.00,A,*3F
$GPGSA,A,3,,,,,,,,,,,,,0.0,0.0,0.0*32
$GPRMC,200151.00,A,3844.6463,N,00908.0930,W,1.426936,179.280765,130617,,*2F
$GPGGA,200151.00,3844.6463,N,00908.0930,W,1,00,0.0,142.645874,M,0.0,M,,*75
$GPGLL,3844.6463,N,00908.0930,W,200151.00,A,*3A
$GPGSA,A,3,,,,,,,,,,,,,0.0,0.0,0.0*32
$GPRMC,200152.00,A,3844.6461,N,00908.0935,W,1.798323,238.914326,130617,,*20
$GPGGA,200152.00,3844.6461,N,00908.0935,W,1,00,0.0,142.748062,M,0.0,M,,*72
$GPGLL,3844.6461,N,00908.0935,W,200152.00,A,*3E
$GPGSA,A,3,,,,,,,,,,,,,0.0,0.0,0.0*32
$GPRMC,200153.00,A,3844.6456,N,00908.0939,W,1.813626,215.168849,130617,,*2B
$GPGGA,200153.00,3844.6456,N,00908.0939,W,1,00,0.0,142.812164,M,0.0,M,,*7C
$GPGLL,3844.6456,N,00908.0939,W,200153.00,A,*37
$GPGSA,A,3,,,,,,,,,,,,,0.0,0.0,0.0*32
$GPRMC,200154.00,A,3844.6451,N,00908.0941,W,1.684163,193.577826,130617,,*2C
$GPGGA,200154.00,3844.6451,N,00908.0941,W,1,00,0.0,143.196594,M,0.0,M,,*7C
$GPGLL,3844.6451,N,00908.0941,W,200154.00,A,*38
$GPGSA,A,3,,,,,,,,,,,,,0.0,0.0,0.0*32
$GPRMC,200155.00,A,3844.6448,N,00908.0943,W,1.521797,207.249649,130617,,*25
$GPGGA,200155.00,3844.6448,N,00908.0943,W,1,00,0.0,143.506317,M,0.0,M,,*77
$GPGLL,3844.6448,N,00908.0943,W,200155.00,A,*33
$GPGSA,A,3,,,,,,,,,,,,,0.0,0.0,0.0*32
$GPRMC,200156.00,A,3844.6442,N,00908.0947,W,1.554971,209.179126,130617,,*2C
$GPGGA,200156.00,3844.6442,N,00908.0947,W,1,00,0.0,143.415970,M,0.0,M,,*72
$GPGLL,3844.6442,N,00908.0947,W,200156.00,A,*3E
$GPGSA,A,3,,,,,,,,,,,,,0.0,0.0,0.0*32
$GPRMC,200157.00,A,3844.6439,N,00908.0951,W,1.550396,220.460437,130617,,*22
$GPGGA,200157.00,3844.6439,N,00908.0951,W,1,00,0.0,143.482956,M,0.0,M,,*72
$GPGLL,3844.6439,N,00908.0951,W,200157.00,A,*34
$GPGSA,A,3,,,,,,,,,,,,,0.0,0.0,0.0*32
$GPRMC,200158.00,A,3844.6433,N,00908.0955,W,1.606720,210.734522,130617,,*2E
$GPGGA,200158.00,3844.6433,N,00908.0955,W,1,00,0.0,143.513275,M,0.0,M,,*70
$GPGLL,3844.6433,N,00908.0955,W,200158.00,A,*35
$GPGSA,A,3,,,,,,,,,,,,,0.0,0.0,0.0*32
$GPRMC,200159.00,A,3844.6430,N,00908.0959,W,1.482181,227.608631,130617,,*28
$GPGGA,200159.00,3844.6430,N,00908.0959,W,1,00,0.0,143.348694,M,0.0,M,,*7D
$GPGLL,3844.6430,N,00908.0959,W,200159.00,A,*3B
$GPGSA,A,3,,,,,,,,,,,,,0.0,0.0,0.0*32
$GPRMC,200200.00,A,3844.6425,N,00908.0962,W,1.522391,198.116908,130617,,*29
$GPGGA,200200.00,3844.6425,N,00908.0962,W,1,00,0.0,143.424667,M,0.0,M,,*7F
$GPGLL,3844.6425,N,00908.0962,W,200200.00,A,*38
$GPGSA,A,3,,,,,,,,,,,,,0.0,0.0,0.0*32
$GPRMC,200201.00,A,3844.6420,N,00908.0965,W,1.554561,210.416340,130617,,*22
$GPGGA,200201.00,3844.6420,N,00908.0965,W,1,00,0.0,143.410812,M,0.0,M,,*77
$GPGLL,3844.6420,N,00908.0965,W,200201.00,A,*3B
$GPGSA,A,3,,,,,,,,,,,,,0.0,0.0,0.0*32
$GPRMC,200202.00,A,3844.6415,N,00908.0968,W,1.567984,203.916893,130617,,*27
$GPGGA,200202.00,3844.6415,N,00908.0968,W,1,00,0.0,143.364471,M,0.0,M,,*72
$GPGLL,3844.6415,N,00908.0968,W,200202.00,A,*33
$GPGSA,A,3,,,,,,,,,,,,,0.0,0.0,0.0*32
$GPRMC,200203.00,A,3844.6413,N,00908.0971,W,1.422614,223.040149,130617,,*28
$GPGGA,200203.00,3844.6413,N,00908.0971,W,1,00,0.0,143.423325,M,0.0,M,,*7F
$GPGLL,3844.6413,N,00908.0971,W,200203.00,A,*3C
$GPGSA,A,3,,,,,,,,,,,,,0.0,0.0,0.0*32
$GPRMC,200204.00,A,3844.6408,N,00908.0972,W,1.341105,194.277693,130617,,*2A
$GPGGA,200204.00,3844.6408,N,00908.0972,W,1,00,0.0,143.495743,M,0.0,M,,*78
$GPGLL,3844.6408,N,00908.0972,W,200204.00,A,*32
$GPGSA,A,3,,,,,,,,,,,,,0.0,0.0,0.0*32
$GPRMC,200205.00,A,3844.6403,N,00908.0975,W,1.369575,198.958728,130617,,*25
$GPGGA,200205.00,3844.6403,N,00908.0975,W,1,00,0.0,143.516266,M,0.0,M,,*7D
$GPGLL,3844.6403,N,00908.0975,W,200205.00,A,*3F
$GPGSA,A,3,,,,,,,,,,,,,0.0,0.0,0.0*32
$GPRMC,200206.00,A,3844.6393,N,00908.0979,W,1.566534,198.309102,130617,,*28
$GPGGA,200206.00,3844.6393,N,00908.0979,W,1,00,0.0,143.476913,M,0.0,M,,*72
$GPGLL,3844.6393,N,00908.0979,W,200206.00,A,*3E
$GPGSA,A,3,,,,,,,,,,,,,0.0,0.0,0.0*32
$GPRMC,200207.00,A,3844.6386,N,00908.0981,W,1.608105,194.750953,130617,,*2F
$GPGGA,200207.00,3844.6386,N,00908.0981,W,1,00,0.0,143.305878,M,0.0,M,,*7F
$GPGLL,3844.6386,N,00908.0981,W,200207.00,A,*3C
$GPGSA,A,3,,,,,,,,,,,,,0.0,0.0,0.0*32
$GPRMC,200208.00,A,3844.6386,N,00908.0981,W,1.364888,136.888685,130617,,*25
$GPGGA,200208.00,3844.6386,N,00908.0981,W,1,00,0.0,143.140030,M,0.0,M,,*77
$GPGLL,3844.6386,N,00908.0981,W,200208.00,A,*33
$GPGSA,A,3,,,,,,,,,,,,,0.0,0.0,0.0*32
$GPRMC,200209.00,A,3844.6382,N,00908.0979,W,1.136622,161.172511,130617,,*2C
$GPGGA,200209.00,3844.6382,N,00908.0979,W,1,00,0.0,143.178589,M,0.0,M,,*79
$GPGLL,3844.6382,N,00908.0979,W,200209.00,A,*31
$GPGSA,A,3,,,,,,,,,,,,,0.0,0.0,0.0*32
$GPRMC,200210.00,A,3844.6374,N,00908.0982,W,1.334605,192.615358,130617,,*2D
$GPGGA,200210.00,3844.6374,N,00908.0982,W,1,00,0.0,142.852631,M,0.0,M,,*7C
$GPGLL,3844.6374,N,00908.0982,W,200210.00,A,*34
$GPGSA,A,3,,,,,,,,,,,,,0.0,0.0,0.0*32
$GPRMC,200211.00,A,3844.6380,N,00908.0982,W,1.018911,359.670365,130617,,*28
$GPGGA,200211.00,3844.6380,N,00908.0982,W,1,00,0.0,142.952835,M,0.0,M,,*7D
$GPGLL,3844.6380,N,00908.0982,W,200211.00,A,*3E
$GPGSA,A,3,,,,,,,,,,,,,0.0,0.0,0.0*32
$GPRMC,200212.00,A,3844.6374,N,00908.0986,W,1.189664,211.524521,130617,,*29
$GPGGA,200212.00,3844.6374,N,00908.0986,W,1,00,0.0,142.896790,M,0.0,M,,*78
$GPGLL,3844.6374,N,00908.0986,W,200212.00,A,*32
$GPGSA,A,3,,,,,,,,,,,,,0.0,0.0,0.0*32
$GPRMC,200213.00,A,3844.6373,N,00908.0989,W,1.398189,233.899610,130617,,*2C
$GPGGA,200213.00,3844.6373,N,00908.0989,W,1,00,0.0,143.084320,M,0.0,M,,*74
$GPGLL,3844.6373,N,00908.0989,W,200213.00,A,*3B
$GPGSA,A,3,,,,,,,,,,,,,0.0,0.0,0.0*32
$GPRMC,200214.00,A,3844.6366,N,00908.0993,W,1.462362,203.310433,130617,,*2B
$GPGGA,200214.00,3844.6366,N,00908.0993,W,1,00,0.0,142.911362,M,0.0,M,,*7E
$GPGLL,3844.6366,N,00908.0993,W,200214.00,A,*33
$GPGSA,A,3,,,,,,,,,,,,,0.0,0.0,0.0*32
$GPRMC,200215.00,A,3844.6362,N,00908.0995,W,1.726711,198.920717,130617,,*26
$GPGGA,200215.00,3844.6362,N,00908.0995,W,1,00,0.0,143.045090,M,0.0,M,,*7A
$GPGLL,3844.6362,N,00908.0995,W,200215.00,A,*30
$GPGSA,A,3,,,,,,,,,,,,,0.0,0.0,0.0*32
$GPRMC,200216.00,A,3844.6355,N,00908.1005,W,1.636632,230.719603,130617,,*21
$GPGGA,200216.00,3844.6355,N,00908.1005,W,1,00,0.0,143.374130,M,0.0,M,,*76
$GPGLL,3844.6355,N,00908.1005,W,200216.00,A,*36
$GPGSA,A,3,,,,,,,,,,,,,0.0,0.0,0.0*32
$GPRMC,200217.00,A,3844.6347,N,00908.1016,W,1.630224,228.761367,130617,,*25
$GPGGA,200217.00,3844.6347,N,00908.1016,W,1,00,0.0,143.964523,M,0.0,M,,*7B
$GPGLL,3844.6347,N,00908.1016,W,200217.00,A,*36
$GPGSA,A,3,,,,,,,,,,,,,0.0,0.0,0.0*32
$GPRMC,200218.00,A,3844.6340,N,00908.1034,W,1.118561,240.983500,130617,,*2D
$GPGGA,200218.00,3844.6340,N,00908.1034,W,1,00,0.0,144.807785,M,0.0,M,,*7E
$GPGLL,3844.6340,N,00908.1034,W,200218.00,A,*3E
$GPGSA,A,3,,,,,,,,,,,,,0.0,0.0,0.0*32
$GPRMC,200219.00,A,3844.6318,N,00908.1023,W,1.420827,157.822233,130617,,*2E
$GPGGA,200219.00,3844.6318,N,00908.1023,W,1,00,0.0,143.582123,M,0.0,M,,*79
$GPGLL,3844.6318,N,00908.1023,W,200219.00,A,*34
$GPGSA,A,3,,,,,,,,,,,,,0.0,0.0,0.0*32
$GPRMC,200220.00,A,3844.6313,N,00908.1026,W,1.744555,205.880461,130617,,*2E
$GPGGA,200220.00,3844.6313,N,00908.1026,W,1,00,0.0,143.351166,M,0.0,M,,*74
$GPGLL,3844.6313,N,00908.1026,W,200220.00,A,*30
$GPGSA,A,3,,,,,,,,,,,,,0.0,0.0,0.0*32
$GPRMC,200221.00,A,3844.6305,N,00908.1031,W,1.965534,210.563385,130617,,*2D
$GPGGA,200221.00,3844.6305,N,00908.1031,W,1,00,0.0,143.154205,M,0.0,M,,*75
$GPGLL,3844.6305,N,00908.1031,W,200221.00,A,*30
$GPGSA,A,3,,,,,,,,,,,,,0.0,0.0,0.0*32
$GPRMC,200222.00,A,3844.6297,N,00908.1029,W,2.098262,169.204155,130617,,*25
$GPGGA,200222.00,3844.6297,N,00908.1029,W,1,00,0.0,142.681290,M,0.0,M,,*77
$GPGLL,3844.6297,N,00908.1029,W,200222.00,A,*30
$GPGSA,A,3,,,,,,,,,,,,,0.0,0.0,0.0*32
$GPRMC,200223.00,A,3844.6289,N,00908.1031,W,2.044330,187.529574,130617,,*2A
$GPGGA,200223.00,3844.6289,N,00908.1031,W,1,00,0.0,142.370499,M,0.0,M,,*74
$GPGLL,3844.6289,N,00908.1031,W,200223.00,A,*37
$GPGSA,A,3,,,,,,,,,,,,,0.0,0.0,0.0*32
$GPRMC,200224.00,A,3844.6285,N,00908.1037,W,2.194687,230.324858,130617,,*25
$GPGGA,200224.00,3844.6285,N,00908.1037,W,1,00,0.0,142.200729,M,0.0,M,,*77
$GPGLL,3844.6285,N,00908.1037,W,200224.00,A,*3A
$GPGSA,A,3,,,,,,,,,,,,,0.0,0.0,0.0*32
$GPRMC,200225.00,A,3844.6281,N,00908.1045,W,2.037376,240.413868,130617,,*21
$GPGGA,200225.00,3844.6281,N,00908.1045,W,1,00,0.0,142.248428,M,0.0,M,,*79
$GPGLL,3844.6281,N,00908.1045,W,200225.00,A,*3A
$GPGSA,A,3,,,,,,,,,,,,,0.0,0.0,0.0*32
$GPRMC,200226.00,A,3844.6280,N,00908.1050,W,1.757489,249.743766,130617,,*2C
$GPGGA,200226.00,3844.6280,N,00908.1050,W,1,00,0.0,142.095108,M,0.0,M,,*7A
$GPGLL,3844.6280,N,00908.1050,W,200226.00,A,*3C
$GPGSA,A,3,,,,,,,,,,,,,0.0,0.0,0.0*32
$GPRMC,200227.00,A,3844.6277,N,00908.1051,W,1.574865,183.134944,130617,,*24
$GPGGA,200227.00,3844.6277,N,00908.1051,W,1,00,0.0,142.284500,M,0.0,M,,*7C
$GPGLL,3844.6277,N,00908.1051,W,200227.00,A,*34
$GPGSA,A,3,,,,,,,,,,,,,0.0,0.0,0.0*32
$GPRMC,200228.00,A,3844.6272,N,00908.1052,W,1.540386,191.281543,130617,,*29
$GPGGA,200228.00,3844.6272,N,00908.1052,W,1,00,0.0,142.033112,M,0.0,M,,*7C
$GPGLL,3844.6272,N,00908.1052,W,200228.00,A,*3D
$GPGSA,A,3,,,,,,,,,,,,,0.0,0.0,0.0*32
$GPRMC,200229.00,A,3844.6263,N,00908.1054,W,1.889716,191.800095,130617,,*26
$GPGGA,200229.00,3844.6263,N,00908.1054,W,1,00,0.0,141.984940,M,0.0,M,,*72
$GPGLL,3844.6263,N,00908.1054,W,200229.00,A,*3A
$GPGSA,A,3,,,,,,,,,,,,,0.0,0.0,0.0*32
$GPRMC,200230.00,A,3844.6258,N,00908.1057,W,1.966446,199.123352,130617,,*2B
$GPGGA,200230.00,3844.6258,N,00908.1057,W,1,00,0.0,141.965271,M,0.0,M,,*77
$GPGLL,3844.6258,N,00908.1057,W,200230.00,A,*39
$GPGSA,A,3,,,,,,,,,,,,,0.0,0.0,0.0*32
$GPRMC,200231.00,A,3844.6252,N,00908.1062,W,2.126484,217.805747,130617,,*2F
$GPGGA,200231.00,3844.6252,N,00908.1062,W,1,00,0.0,142.016037,M,0.0,M,,*74
$GPGLL,3844.6252,N,00908.1062,W,200231.00,A,*34
$GPGSA,A,3,,,,,,,,,,,,,0.0,0.0,0.0*32
$GPRMC,200232.00,A,3844.6246,N,00908.1058,W,1.501877,157.159373,130617,,*26
$GPGGA,200232.00,3844.6246,N,00908.1058,W,1,00,0.0,141.403793,M,0.0,M,,*71
$GPGLL,3844.6246,N,00908.1058,W,200232.00,A,*3B
$GPGSA,A,3,,,,,,,,,,,,,0.0,0.0,0.0*32
$GPRMC,200233.00,A,3844.6242,N,00908.1060,W,1.569104,199.422006,130617,,*21
$GPGGA,200233.00,3844.6242,N,00908.1060,W,1,00,0.0,141.677948,M,0.0,M,,*76
$GPGLL,3844.6242,N,00908.1060,W,200233.00,A,*35
$GPGSA,A,3,,,,,,,,,,,,,0.0,0.0,0.0*32
$GPRMC,200234.00,A,3844.6241,N,00908.1063,W,1.720209,247.478299,130617,,*2C
$GPGGA,200234.00,3844.6241,N,00908.1063,W,1,00,0.0,141.791840,M,0.0,M,,*71
$GPGLL,3844.6241,N,00908.1063,W,200234.00,A,*32
$GPGSA,A,3,,,,,,,,,,,,,0.0,0.0,0.0*32
$GPRMC,200235.00,A,3844.6236,N,00908.1067,W,1.733325,207.710488,130617,,*2B
$GPGGA,200235.00,3844.6236,N,00908.1067,W,1,00,0.0,141.905228,M,0.0,M,,*73
$GPGLL,3844.6236,N,00908.1067,W,200235.00,A,*37
$GPGSA,A,3,,,,,,,,,,,,,0.0,0.0,0.0*32
$GPRMC,200236.00,A,3844.6231,N,00908.1073,W,1.686995,225.119020,130617,,*2D
$GPGGA,200236.00,3844.6231,N,00908.1073,W,1,00,0.0,141.672363,M,0.0,M,,*73
$GPGLL,3844.6231,N,00908.1073,W,200236.00,A,*36
$GPGSA,A,3,,,,,,,,,,,,,0.0,0.0,0.0*32
$GPRMC,200237.00,A,3844.6230,N,00908.1079,W,1.871830,252.927913,130617,,*23
$GPGGA,200237.00,3844.6230,N,00908.1079,W,1,00,0.0,142.127930,M,0.0,M,,*71
$GPGLL,3844.6230,N,00908.1079,W,200237.00,A,*3C
$GPGSA,A,3,,,,,,,,,,,,,0.0,0.0,0.0*32
$GPRMC,200238.00,A,3844.6239,N,00908.1097,W,1.853039,301.765406,130617,,*22
$GPGGA,200238.00,3844.6239,N,00908.1097,W,1,00,0.0,141.820007,M,0.0,M,,*77
$GPGLL,3844.6239,N,00908.1097,W,200238.00,A,*3A
$GPGSA,A,3,,,,,,,,,,,,,0.0,0.0,0.0*32
$GPRMC,200239.00,A,3844.6234,N,00908.1103,W,1.847598,224.886226,130617,,*29
$GPGGA,200239.00,3844.6234,N,00908.1103,W,1,00,0.0,141.603714,M,0.0,M,,*7D
$GPGLL,3844.6234,N,00908.1103,W,200239.00,A,*3A
$GPGSA,A,3,,,,,,,,,,,,,0.0,0.0,0.0*32
$GPRMC,200240.00,A,3844.6234,N,00908.1109,W,1.767081,263.202052,130617,,*29
$GPGGA,200240.00,3844.6234,N,00908.1109,W,1,00,0.0,141.400620,M,0.0,M,,*7E
$GPGLL,3844.6234,N,00908.1109,W,200240.00,A,*3E
$GPGSA,A,3,,,,,,,,,,,,,0.0,0.0,0.0*32
$GPRMC,200241.00,A,3844.6220,N,00908.1107,W,1.661173,173.121443,130617,,*2C
$GPGGA,200241.00,3844.6220,N,00908.1107,W,1,00,0.0,140.708450,M,0.0,M,,*7B
$GPGLL,3844.6220,N,00908.1107,W,200241.00,A,*34
$GPGSA,A,3,,,,,,,,,,,,,0.0,0.0,0.0*32
$GPRMC,200242.00,A,3844.6213,N,00908.1113,W,1.740937,213.327297,130617,,*2E
$GPGGA,200242.00,3844.6213,N,00908.1113,W,1,00,0.0,140.057709,M,0.0,M,,*7F
$GPGLL,3844.6213,N,00908.1113,W,200242.00,A,*32
$GPGSA,A,3,,,,,,,,,,,,,0.0,0.0,0.0*32
$GPRMC,200243.00,A,3844.6210,N,00908.1118,W,1.712639,234.513695,130617,,*23
$GPGGA,200243.00,3844.6210,N,00908.1118,W,1,00,0.0,139.907043,M,0.0,M,,*7D
$GPGLL,3844.6210,N,00908.1118,W,200243.00,A,*3B
$GPGSA,A,3,,,,,,,,,,,,,0.0,0.0,0.0*32
$GPRMC,200244.00,A,3844.6209,N,00908.1127,W,1.807578,264.434982,130617,,*25
$GPGGA,200244.00,3844.6209,N,00908.1127,W,1,00,0.0,139.641296,M,0.0,M,,*79
$GPGLL,3844.6209,N,00908.1127,W,200244.00,A,*38
$GPGSA,A,3,,,,,,,,,,,,,0.0,0.0,0.0*32
$GPRMC,200245.00,A,3844.6194,N,00908.1130,W,2.001425,187.322965,130617,,*26
$GPGGA,200245.00,3844.6194,N,00908.1130,W,1,00,0.0,139.031067,M,0.0,M,,*74
$GPGLL,3844.6194,N,00908.1130,W,200245.00,A,*38
$GPGSA,A,3,,,,,,,,,,,,,0.0,0.0,0.0*32
$GPRMC,200246.00,A,3844.6192,N,00908.1137,W,1.989623,250.581033,130617,,*26
$GPGGA,200246.00,3844.6192,N,00908.1137,W,1,00,0.0,138.852402,M,0.0,M,,*7D
$GPGLL,3844.6192,N,00908.1137,W,200246.00,A,*3A
$GPGSA,A,3,,,,,,,,,,,,,0.0,0.0,0.0*32
$GPRMC,200247.00,A,3844.6193,N,00908.1143,W,2.030697,274.673435,130617,,*28
$GPGGA,200247.00,3844.6193,N,00908.1143,W,1,00,0.0,138.924347,M,0.0,M,,*78
$GPGLL,3844.6193,N,00908.1143,W,200247.00,A,*39
$GPGSA,A,3,,,,,,,,,,,,,0.0,0.0,0.0*32
$GPRMC,200248.00,A,3844.6188,N,00908.1149,W,1.581472,224.613573,130617,,*22
$GPGGA,200248.00,3844.6188,N,00908.1149,W,1,00,0.0,138.583755,M,0.0,M,,*71
$GPGLL,3844.6188,N,00908.1149,W,200248.00,A,*36
$GPGSA,A,3,,,,,,,,,,,,,0.0,0.0,0.0*32
$GPRMC,200249.00,A,3844.6189,N,00908.1159,W,1.946864,277.332327,130617,,*28
$GPGGA,200249.00,3844.6189,N,00908.1159,W,1,00,0.0,138.457169,M,0.0,M,,*71
$GPGLL,3844.6189,N,00908.1159,W,200249.00,A,*37
$GPGSA,A,3,,,,,,,,,,,,,0.0,0.0,0.0*32
$GPRMC,200250.00,A,3844.6187,N,00908.1163,W,1.855379,243.212695,130617,,*2B
$GPGGA,200250.00,3844.6187,N,00908.1163,W,1,00,0.0,138.391068,M,0.0,M,,*73
$GPGLL,3844.6187,N,00908.1163,W,200250.00,A,*38
$GPGSA,A,3,,,,,,,,,,,,,0.0,0.0,0.0*32
$GPRMC,200251.00,A,3844.6184,N,00908.1166,W,1.788913,212.952226,130617,,*22
$GPGGA,200251.00,3844.6184,N,00908.1166,W,1,00,0.0,138.301239,M,0.0,M,,*7B
$GPGLL,3844.6184,N,00908.1166,W,200251.00,A,*3F
$GPGSA,A,3,,,,,,,,,,,,,0.0,0.0,0.0*32
$GPRMC,200252.00,A,3844.6185,N,00908.1171,W,1.699901,283.023646,130617,,*21
$GPGGA,200252.00,3844.6185,N,00908.1171,W,1,00,0.0,138.172913,M,0.0,M,,*7A
$GPGLL,3844.6185,N,00908.1171,W,200252.00,A,*3B
$GPGSA,A,3,,,,,,,,,,,,,0.0,0.0,0.0*32
$GPRMC,200253.00,A,3844.6186,N,00908.1176,W,1.642060,289.074198,130617,,*20
$GPGGA,200253.00,3844.6186,N,00908.1176,W,1,00,0.0,138.206772,M,0.0,M,,*76
$GPGLL,3844.6186,N,00908.1176,W,200253.00,A,*3E
$GPGSA,A,3,,,,,,,,,,,,,0.0,0.0,0.0*32
$GPRMC,200254.00,A,3844.6188,N,00908.1187,W,1.685781,280.058408,130617,,*2F
$GPGGA,200254.00,3844.6188,N,00908.1187,W,1,00,0.0,137.993210,M,0.0,M,,*78
$GPGLL,3844.6188,N,00908.1187,W,200254.00,A,*39
$GPGSA,A,3,,,,,,,,,,,,,0.0,0.0,0.0*32
$GPRMC,200255.00,A,3844.6178,N,00908.1188,W,1.512682,182.281466,130617,,*2E
$GPGGA,200255.00,3844.6178,N,00908.1188,W,1,00,0.0,137.478485,M,0.0,M,,*7B
$GPGLL,3844.6178,N,00908.1188,W,200255.00,A,*38
$GPGSA,A,3,,,,,,,,,,,,,0.0,0.0,0.0*32
$GPRMC,200256.00,A,3844.6177,N,00908.1202,W,1.382930,269.555867,130617,,*2F
$GPGGA,200256.00,3844.6177,N,00908.1202,W,1,00,0.0,136.877945,M,0.0,M,,*75
$GPGLL,3844.6177,N,00908.1202,W,200256.00,A,*35
$GPGSA,A,3,,,,,,,,,,,,,0.0,0.0,0.0*32
$GPRMC,200257.00,A,3844.6172,N,00908.1200,W,1.466814,162.688488,130617,,*25
$GPGGA,200257.00,3844.6172,N,00908.1200,W,1,00,0.0,136.909729,M,0.0,M,,*7F
$GPGLL,3844.6172,N,00908.1200,W,200257.00,A,*33
$GPGSA,A,3,,,,,,,,,,,,,0.0,0.0,0.0*32
$GPRMC,200258.00,A,3844.6169,N,00908.1198,W,1.036760,150.839161,130617,,*28
$GPGGA,200258.00,3844.6169,N,00908.1198,W,1,00,0.0,136.798187,M,0.0,M,,*7C
$GPGLL,3844.6169,N,00908.1198,W,200258.00,A,*34
$GPGSA,A,3,,,,,,,,,,,,,0.0,0.0,0.0*32
$GPRMC,200259.00,A,3844.6167,N,00908.1200,W,0.837933,221.031830,130617,,*2D
$GPGGA,200259.00,3844.6167,N,00908.1200,W,1,00,0.0,137.051895,M,0.0,M,,*78
$GPGLL,3844.6167,N,00908.1200,W,200259.00,A,*39
$GPGSA,A,3,,,,,,,,,,,,,0.0,0.0,0.0*32
$GPRMC,200300.00,A,3844.6159,N,00908.1208,W,1.137881,216.974988,130617,,*2B
$GPGGA,200300.00,3844.6159,N,00908.1208,W,1,00,0.0,136.581223,M,0.0,M,,*7E
$GPGLL,3844.6159,N,00908.1208,W,200300.00,A,*31
$GPGSA,A,3,,,,,,,,,,,,,0.0,0.0,0.0*32
$GPRMC,200301.00,A,3844.6155,N,00908.1207,W,1.269976,164.731523,130617,,*2C
$GPGGA,200301.00,3844.6155,N,00908.1207,W,1,00,0.0,136.801971,M,0.0,M,,*75
$GPGLL,3844.6155,N,00908.1207,W,200301.00,A,*33
$GPGSA,A,3,,,,,,,,,,,,,0.0,0.0,0.0*32
$GPRMC,200302.00,A,3844.6149,N,00908.1208,W,1.496168,188.475449,130617,,*20
$GPGGA,200302.00,3844.6149,N,00908.1208,W,1,00,0.0,136.594025,M,0.0,M,,*7D
$GPGLL,3844.6149,N,00908.1208,W,200302.00,A,*32
$GPGSA,A,3,,,,,,,,,,,,,0.0,0.0,0.0*32
$GPRMC,200303.00,A,3844.6145,N,00908.1208,W,1.422978,178.069451,130617,,*24
$GPGGA,200303.00,3844.6145,N,00908.1208,W,1,00,0.0,136.425095,M,0.0,M,,*70
$GPGLL,3844.6145,N,00908.1208,W,200303.00,A,*3F
$GPGSA,A,3,,,,,,,,,,,,,0.0,0.0,0.0*32
$GPRMC,200304.00,A,3844.6141,N,00908.1208,W,1.398496,183.354714,130617,,*27
$GPGGA,200304.00,3844.6141,N,00908.1208,W,1,00,0.0,136.273148,M,0.0,M,,*77
$GPGLL,3844.6141,N,00908.1208,W,200304.00,A,*3C
$GPGSA,A,3,,,,,,,,,,,,,0.0,0.0,0.0*32
$GPRMC,200305.00,A,3844.6137,N,00908.1214,W,1.290265,228.916498,130617,,*20
$GPGGA,200305.00,3844.6137,N,00908.1214,W,1,00,0.0,136.591507,M,0.0,M,,*7E
$GPGLL,3844.6137,N,00908.1214,W,200305.00,A,*31
$GPGSA,A,3,,,,,,,,,,,,,0.0,0.0,0.0*32
$GPRMC,200306.00,A,3844.6130,N,00908.1239,W,1.367123,250.972317,130617,,*2E
$GPGGA,200306.00,3844.6130,N,00908.1239,W,1,00,0.0,138.302124,M,0.0,M,,*72
$GPGLL,3844.6130,N,00908.1239,W,200306.00,A,*3A
$GPGSA,A,3,,,,,,,,,,,,,0.0,0.0,0.0*32
$GPRMC,200307.00,A,3844.6124,N,00908.1245,W,1.385244,218.025823,130617,,*24
$GPGGA,200307.00,3844.6124,N,00908.1245,W,1,00,0.0,138.627731,M,0.0,M,,*7D
$GPGLL,3844.6124,N,00908.1245,W,200307.00,A,*35
$GPGSA,A,3,,,,,,,,,,,,,0.0,0.0,0.0*32
$GPRMC,200308.00,A,3844.6118,N,00908.1254,W,1.515894,231.317697,130617,,*24
$GPGGA,200308.00,3844.6118,N,00908.1254,W,1,00,0.0,139.135025,M,0.0,M,,*7A
$GPGLL,3844.6118,N,00908.1254,W,200308.00,A,*35
$GPGSA,A,3,,,,,,,,,,,,,0.0,0.0,0.0*32
$GPRMC,200309.00,A,3844.6117,N,00908.1258,W,1.177711,249.029005,130617,,*28
$GPGGA,200309.00,3844.6117,N,00908.1258,W,1,00,0.0,139.179657,M,0.0,M,,*73
$GPGLL,3844.6117,N,00908.1258,W,200309.00,A,*37
$GPGSA,A,3,,,,,,,,,,,,,0.0,0.0,0.0*32
$GPRMC,200310.00,A,3844.6114,N,00908.1265,W,1.099736,237.944275,130617,,*27
$GPGGA,200310.00,3844.6114,N,00908.1265,W,1,00,0.0,139.378967,M,0.0,M,,*79
$GPGLL,3844.6114,N,00908.1265,W,200310.00,A,*32
$GPGSA,A,3,,,,,,,,,,,,,0.0,0.0,0.0*32
$GPRMC,200311.00,A,3844.6111,N,00908.1270,W,0.965998,235.082341,130617,,*21
$GPGGA,200311.00,3844.6111,N,00908.1270,W,1,00,0.0,139.642365,M,0.0,M,,*7D
$GPGLL,3844.6111,N,00908.1270,W,200311.00,A,*32
$GPGSA,A,3,,,,,,,,,,,,,0.0,0.0,0.0*32
$GPRMC,200312.00,A,3844.6106,N,00908.1269,W,0.885939,171.218193,130617,,*27
$GPGGA,200312.00,3844.6106,N,00908.1269,W,1,00,0.0,139.531555,M,0.0,M,,*72
$GPGLL,3844.6106,N,00908.1269,W,200312.00,A,*3F
$GPGSA,A,3,,,,,,,,,,,,,0.0,0.0,0.0*32
$GPRMC,200313.00,A,3844.6087,N,00908.1261,W,1.498139,163.631660,130617,,*28
$GPGGA,200313.00,3844.6087,N,00908.1261,W,1,00,0.0,138.818558,M,0.0,M,,*79
$GPGLL,3844.6087,N,00908.1261,W,200313.00,A,*3E
$GPGSA,A,3,,,,,,,,,,,,,0.0,0.0,0.0*32
$GPRMC,200314.00,A,3844.6081,N,00908.1263,W,1.577380,189.926333,130617,,*25
$GPGGA,200314.00,3844.6081,N,00908.1263,W,1,00,0.0,138.725327,M,0.0,M,,*75
$GPGLL,3844.6081,N,00908.1263,W,200314.00,A,*3D
$GPGSA,A,3,,,,,,,,,,,,,0.0,0.0,0.0*32
$GPRMC,200315.00,A,3844.6076,N,00908.1259,W,1.670578,150.979491,130617,,*21
$GPGGA,200315.00,3844.6076,N,00908.1259,W,1,00,0.0,138.368744,M,0.0,M,,*79
$GPGLL,3844.6076,N,00908.1259,W,200315.00,A,*3D
$GPGSA,A,3,,,,,,,,,,,,,0.0,0.0,0.0*32
$GPRMC,200316.00,A,3844.6071,N,00908.1259,W,1.646150,181.408608,130617,,*2B
$GPGGA,200316.00,3844.6071,N,00908.1259,W,1,00,0.0,138.175598,M,0.0,M,,*70
$GPGLL,3844.6071,N,00908.1259,W,200316.00,A,*39
$GPGSA,A,3,,,,,,,,,,,,,0.0,0.0,0.0*32
$GPRMC,200317.00,A,3844.6068,N,00908.1260,W,1.578555,187.574843,130617,,*2A
$GPGGA,200317.00,3844.6068,N,00908.1260,W,1,00,0.0,138.008728,M,0.0,M,,*71
$GPGLL,3844.6068,N,00908.1260,W,200317.00,A,*3A
$GPGSA,A,3,,,,,,,,,,,,,0.0,0.0,0.0*32
$GPRMC,200318.00,A,3844.6066,N,00908.1256,W,1.301105,119.881792,130617,,*24
$GPGGA,200318.00,3844.6066,N,00908.1256,W,1,00,0.0,137.877625,M,0.0,M,,*76
$GPGLL,3844.6066,N,00908.1256,W,200318.00,A,*3E
$GPGSA,A,3,,,,,,,,,,,,,0.0,0.0,0.0*32
$GPRMC,200319.00,A,3844.6062,N,00908.1255,W,1.350824,165.289684,130617,,*23
$GPGGA,200319.00,3844.6062,N,00908.1255,W,1,00,0.0,137.733017,M,0.0,M,,*78
$GPGLL,3844.6062,N,00908.1255,W,200319.00,A,*38
$GPGSA,A,3,,,,,,,,,,,,,0.0,0.0,0.0*32
$GPRMC,200320.00,A,3844.6057,N,00908.1254,W,1.407357,176.100455,130617,,*2A
$GPGGA,200320.00,3844.6057,N,00908.1254,W,1,00,0.0,137.592972,M,0.0,M,,*76
$GPGLL,3844.6057,N,00908.1254,W,200320.00,A,*35
$GPGSA,A,3,,,,,,,,,,,,,0.0,0.0,0.0*32
$GPRMC,200321.00,A,3844.6055,N,00908.1258,W,1.370743,238.591969,130617,,*24
$GPGGA,200321.00,3844.6055,N,00908.1258,W,1,00,0.0,137.438034,M,0.0,M,,*73
$GPGLL,3844.6055,N,00908.1258,W,200321.00,A,*3A
$GPGSA,A,3,,,,,,,,,,,,,0.0,0.0,0.0*32
$GPRMC,200322.00,A,3844.6048,N,00908.1259,W,1.562751,186.778423,130617,,*2C
$GPGGA,200322.00,3844.6048,N,00908.1259,W,1,00,0.0,137.281876,M,0.0,M,,*77
$GPGLL,3844.6048,N,00908.1259,W,200322.00,A,*34
$GPGSA,A,3,,,,,,,,,,,,,0.0,0.0,0.0*32
$GPRMC,200323.00,A,3844.6044,N,00908.1259,W,1.524433,182.352452,130617,,*2A
$GPGGA,200323.00,3844.6044,N,00908.1259,W,1,00,0.0,137.121567,M,0.0,M,,*7E
$GPGLL,3844.6044,N,00908.1259,W,200323.00,A,*39
$GPGSA,A,3,,,,,,,,,,,,,0.0,0.0,0.0*32
$GPRMC,200324.00,A,3844.6042,N,00908.1258,W,1.379416,160.759039,130617,,*29
$GPGGA,200324.00,3844.6042,N,00908.1258,W,1,00,0.0,136.978165,M,0.0,M,,*7D
$GPGLL,3844.6042,N,00908.1258,W,200324.00,A,*39
$GPGSA,A,3,,,,,,,,,,,,,0.0,0.0,0.0*32
$GPRMC,200325.00,A,3844.6034,N,00908.1253,W,1.438414,154.595413,130617,,*2B
$GPGGA,200325.00,3844.6034,N,00908.1253,W,1,00,0.0,136.858749,M,0.0,M,,*7D
$GPGLL,3844.6034,N,00908.1253,W,200325.00,A,*32
$GPGSA,A,3,,,,,,,,,,,,,0.0,0.0,0.0*32
$GPRMC,200326.00,A,3844.6031,N,00908.1246,W,1.434542,114.222842,130617,,*20
$GPGGA,200326.00,3844.6031,N,00908.1246,W,1,00,0.0,136.720398,M,0.0,M,,*77
$GPGLL,3844.6031,N,00908.1246,W,200326.00,A,*30
$GPGSA,A,3,,,,,,,,,,,,,0.0,0.0,0.0*32
$GPRMC,200327.00,A,3844.6022,N,00908.1243,W,1.639670,167.368383,130617,,*26
$GPGGA,200327.00,3844.6022,N,00908.1243,W,1,00,0.0,136.558121,M,0.0,M,,*7C
$GPGLL,3844.6022,N,00908.1243,W,200327.00,A,*36
$GPGSA,A,3,,,,,,,,,,,,,0.0,0.0,0.0*32
$GPRMC,200328.00,A,3844.6003,N,00908.1243,W,1.999521,180.494369,130617,,*21
$GPGGA,200328.00,3844.6003,N,00908.1243,W,1,00,0.0,136.464294,M,0.0,M,,*73
$GPGLL,3844.6003,N,00908.1243,W,200328.00,A,*3A
$GPGSA,A,3,,,,,,,,,,,,,0.0,0.0,0.0*32
$GPRMC,200329.00,A,3844.5990,N,00908.1242,W,2.078628,177.362042,130617,,*22
$GPGGA,200329.00,3844.5990,N,00908.1242,W,1,00,0.0,136.375137,M,0.0,M,,*7E
$GPGLL,3844.5990,N,00908.1242,W,200329.00,A,*3A
$GPGSA,A,3,,,,,,,,,,,,,0.0,0.0,0.0*32
$GPRMC,200330.00,A,3844.5975,N,00908.1244,W,2.271057,185.584702,130617,,*22
$GPGGA,200330.00,3844.5975,N,00908.1244,W,1,00,0.0,136.234772,M,0.0,M,,*78
$GPGLL,3844.5975,N,00908.1244,W,200330.00,A,*3F
$GPGSA,A,3,,,,,,,,,,,,,0.0,0.0,0.0*32
$GPRMC,200331.00,A,3844.5970,N,00908.1245,W,2.217184,188.010923,130617,,*20
$GPGGA,200331.00,3844.5970,N,00908.1245,W,1,00,0.0,136.032455,M,0.0,M,,*7F
$GPGLL,3844.5970,N,00908.1245,W,200331.00,A,*3A
$GPGSA,A,3,,,,,,,,,,,,,0.0,0.0,0.0*32
$GPRMC,200332.00,A,3844.5955,N,00908.1250,W,1.936593,192.883444,130617,,*2C
$GPGGA,200332.00,3844.5955,N,00908.1250,W,1,00,0.0,136.090942,M,0.0,M,,*7C
$GPGLL,3844.5955,N,00908.1250,W,200332.00,A,*3A
$GPGSA,A,3,,,,,,,,,,,,,0.0,0.0,0.0*32
$GPRMC,200333.00,A,3844.5939,N,00908.1239,W,2.249255,152.803971,130617,,*2A
$GPGGA,200333.00,3844.5939,N,00908.1239,W,1,00,0.0,135.824081,M,0.0,M,,*7A
$GPGLL,3844.5939,N,00908.1239,W,200333.00,A,*3E
$GPGSA,A,3,,,,,,,,,,,,,0.0,0.0,0.0*32
$GPRMC,200334.00,A,3844.5924,N,00908.1242,W,2.502490,188.881469,130617,,*23
$GPGGA,200334.00,3844.5924,N,00908.1242,W,1,00,0.0,135.767288,M,0.0,M,,*7E
$GPGLL,3844.5924,N,00908.1242,W,200334.00,A,*39
$GPGSA,A,3,,,,,,,,,,,,,0.0,0.0,0.0*32
$GPRMC,200335.00,A,3844.5911,N,00908.1239,W,2.684353,169.740649,130617,,*20
$GPGGA,200335.00,3844.5911,N,00908.1239,W,1,00,0.0,135.659592,M,0.0,M,,*75
$GPGLL,3844.5911,N,00908.1239,W,200335.00,A,*32
$GPGSA,A,3,,,,,,,,,,,,,0.0,0.0,0.0*32
$GPRMC,200336.00,A,3844.5896,N,00908.1233,W,3.021738,163.783105,130617,,*2C
$GPGGA,200336.00,3844.5896,N,00908.1233,W,1,00,0.0,135.502411,M,0.0,M,,*75
$GPGLL,3844.5896,N,00908.1233,W,200336.00,A,*35
$GPGSA,A,3,,,,,,,,,,,,,0.0,0.0,0.0*32
$GPRMC,200337.00,A,3844.5892,N,00908.1232,W,2.536731,170.279065,130617,,*26
$GPGGA,200337.00,3844.5892,N,00908.1232,W,1,00,0.0,135.371765,M,0.0,M,,*73
$GPGLL,3844.5892,N,00908.1232,W,200337.00,A,*31
$GPGSA,A,3,,,,,,,,,,,,,0.0,0.0,0.0*32
$GPRMC,200338.00,A,3844.5883,N,00908.1223,W,2.582453,140.950089,130617,,*20
$GPGGA,200338.00,3844.5883,N,00908.1223,W,1,00,0.0,135.180130,M,0.0,M,,*76
$GPGLL,3844.5883,N,00908.1223,W,200338.00,A,*3E
$GPGSA,A,3,,,,,,,,,,,,,0.0,0.0,0.0*32
$GPRMC,200339.00,A,3844.5872,N,00908.1221,W,2.903959,173.049115,130617,,*2A
$GPGGA,200339.00,3844.5872,N,00908.1221,W,1,00,0.0,134.965454,M,0.0,M,,*7E
$GPGLL,3844.5872,N,00908.1221,W,200339.00,A,*33
$GPGSA,A,3,,,,,,,,,,,,,0.0,0.0,0.0*32
$GPRMC,200340.00,A,3844.5865,N,00908.1222,W,2.264357,187.816158,130617,,*2F
$GPGGA,200340.00,3844.5865,N,00908.1222,W,1,00,0.0,134.780762,M,0.0,M,,*76
$GPGLL,3844.5865,N,00908.1222,W,200340.00,A,*38
$GPGSA,A,3,,,,,,,,,,,,,0.0,0.0,0.0*32
$GPRMC,200341.00,A,3844.5859,N,00908.1220,W,1.950605,163.468611,130617,,*2B
$GPGGA,200341.00,3844.5859,N,00908.1220,W,1,00,0.0,134.580688,M,0.0,M,,*7D
$GPGLL,3844.5859,N,00908.1220,W,200341.00,A,*34
$GPGSA,A,3,,,,,,,,,,,,,0.0,0.0,0.0*32
$GPRMC,200342.00,A,3844.5844,N,00908.1218,W,2.771024,173.774982,130617,,*2E
$GPGGA,200342.00,3844.5844,N,00908.1218,W,1,00,0.0,134.292725,M,0.0,M,,*7B
$GPGLL,3844.5844,N,00908.1218,W,200342.00,A,*30
$GPGSA,A,3,,,,,,,,,,,,,0.0,0.0,0.0*32
$GPRMC,200343.00,A,3844.5832,N,00908.1224,W,4.047216,201.048475,130617,,*2D
$GPGGA,200343.00,3844.5832,N,00908.1224,W,1,00,0.0,134.120636,M,0.0,M,,*7D
$GPGLL,3844.5832,N,00908.1224,W,200343.00,A,*3F
$GPGSA,A,3,,,,,,,,,,,,,0.0,0.0,0.0*32
$GPRMC,200344.00,A,3844.5821,N,00908.1226,W,3.231757,187.861128,130617,,*2D
$GPGGA,200344.00,3844.5821,N,00908.1226,W,1,00,0.0,133.887924,M,0.0,M,,*75
$GPGLL,3844.5821,N,00908.1226,W,200344.00,A,*38
$GPGSA,A,3,,,,,,,,,,,,,0.0,0.0,0.0*32
$GPRMC,200345.00,A,3844.5806,N,00908.1230,W,3.806675,192.865389,130617,,*28
$GPGGA,200345.00,3844.5806,N,00908.1230,W,1,00,0.0,133.603241,M,0.0,M,,*7C
$GPGLL,3844.5806,N,00908.1230,W,200345.00,A,*3B
$GPGSA,A,3,,,,,,,,,,,,,0.0,0.0,0.0*32
$GPRMC,200346.00,A,3844.5800,N,00908.1232,W,3.436180,192.687395,130617,,*22
$GPGGA,200346.00,3844.5800,N,00908.1232,W,1,00,0.0,133.361237,M,0.0,M,,*7B
$GPGLL,3844.5800,N,00908.1232,W,200346.00,A,*3C
$GPGSA,A,3,,,,,,,,,,,,,0.0,0.0,0.0*32
$GPRMC,200347.00,A,3844.5788,N,00908.1228,W,3.124131,162.780599,130617,,*28
$GPGGA,200347.00,3844.5788,N,00908.1228,W,1,00,0.0,133.092102,M,0.0,M,,*74
$GPGLL,3844.5788,N,00908.1228,W,200347.00,A,*39
$GPGSA,A,3,,,,,,,,,,,,,0.0,0.0,0.0*32
$GPRMC,200348.00,A,3844.5784,N,00908.1226,W,3.547108,157.302101,130617,,*23
$GPGGA,200348.00,3844.5784,N,00908.1226,W,1,00,0.0,132.908844,M,0.0,M,,*79
$GPGLL,3844.5784,N,00908.1226,W,200348.00,A,*34
$GPGSA,A,3,,,,,,,,,,,,,0.0,0.0,0.0*32
$GPRMC,200349.00,A,3844.5779,N,00908.1226,W,1.874549,184.234733,130617,,*23
$GPGGA,200349.00,3844.5779,N,00908.1226,W,1,00,0.0,132.628281,M,0.0,M,,*74
$GPGLL,3844.5779,N,00908.1226,W,200349.00,A,*37
$GPGSA,A,3,,,,,,,,,,,,,0.0,0.0,0.0*32
$GPRMC,200350.00,A,3844.5777,N,00908.1225,W,1.301614,145.717044,130617,,*2A
$GPGGA,200350.00,3844.5777,N,00908.1225,W,1,00,0.0,132.356430,M,0.0,M,,*71
$GPGLL,3844.5777,N,00908.1225,W,200350.00,A,*32
$GPGSA,A,3,,,,,,,,,,,,,0.0,0.0,0.0*32
$GPRMC,200351.00,A,3844.5766,N,00908.1226,W,4.041070,182.744615,130617,,*21
$GPGGA,200351.00,3844.5766,N,00908.1226,W,1,00,0.0,132.029800,M,0.0,M,,*77
$GPGLL,3844.5766,N,00908.1226,W,200351.00,A,*30
$GPGSA,A,3,,,,,,,,,,,,,0.0,0.0,0.0*32
$GPRMC,200352.00,A,3844.5750,N,00908.1231,W,3.193523,193.994677,130617,,*2C
$GPGGA,200352.00,3844.5750,N,00908.1231,W,1,00,0.0,131.656967,M,0.0,M,,*7A
$GPGLL,3844.5750,N,00908.1231,W,200352.00,A,*30
$GPGSA,A,3,,,,,,,,,,,,,0.0,0.0,0.0*32
$GPRMC,200353.00,A,3844.5744,N,00908.1227,W,1.845691,157.843109,130617,,*28
$GPGGA,200353.00,3844.5744,N,00908.1227,W,1,00,0.0,131.292816,M,0.0,M,,*72
$GPGLL,3844.5744,N,00908.1227,W,200353.00,A,*33
$GPGSA,A,3,,,,,,,,,,,,,0.0,0.0,0.0*32
$GPRMC,200354.00,A,3844.5743,N,00908.1229,W,2.005536,247.420417,130617,,*26
$GPGGA,200354.00,3844.5743,N,00908.1229,W,1,00,0.0,131.058884,M,0.0,M,,*73
$GPGLL,3844.5743,N,00908.1229,W,200354.00,A,*3D
$GPGSA,A,3,,,,,,,,,,,,,0.0,0.0,0.0*32
$GPRMC,200355.00,A,3844.5735,N,00908.1225,W,1.287979,156.352355,130617,,*26
$GPGGA,200355.00,3844.5735,N,00908.1225,W,1,00,0.0,130.745377,M,0.0,M,,*72
$GPGLL,3844.5735,N,00908.1225,W,200355.00,A,*31
$GPGSA,A,3,,,,,,,,,,,,,0.0,0.0,0.0*32
$GPRMC,200356.00,A,3844.5730,N,00908.1216,W,2.250649,125.942534,130617,,*2B
$GPGGA,200356.00,3844.5730,N,00908.1216,W,1,00,0.0,130.481232,M,0.0,M,,*7F
$GPGLL,3844.5730,N,00908.1216,W,200356.00,A,*37
$GPGSA,A,3,,,,,,,,,,,,,0.0,0.0,0.0*32
$GPRMC,200357.00,A,3844.5722,N,00908.1217,W,3.502196,188.287149,130617,,*27
$GPGGA,200357.00,3844.5722,N,00908.1217,W,1,00,0.0,130.288864,M,0.0,M,,*7A
$GPGLL,3844.5722,N,00908.1217,W,200357.00,A,*34
$GPGSA,A,3,,,,,,,,,,,,,0.0,0.0,0.0*32
$GPRMC,200358.00,A,3844.5702,N,00908.1211,W,3.665656,165.093634,130617,,*2C
$GPGGA,200358.00,3844.5702,N,00908.1211,W,1,00,0.0,129.863922,M,0.0,M,,*75
$GPGLL,3844.5702,N,00908.1211,W,200358.00,A,*3F
$GPGSA,A,3,,,,,,,,,,,,,0.0,0.0,0.0*32
$GPRMC,200359.00,A,3844.5693,N,00908.1208,W,2.642210,168.039820,130617,,*28
$GPGGA,200359.00,3844.5693,N,00908.1208,W,1,00,0.0,129.514923,M,0.0,M,,*79
$GPGLL,3844.5693,N,00908.1208,W,200359.00,A,*3F
$GPGSA,A,3,,,,,,,,,,,,,0.0,0.0,0.0*32
$GPRMC,200400.00,A,3844.5689,N,00908.1209,W,1.916492,188.150943,130617,,*2C
$GPGGA,200400.00,3844.5689,N,00908.1209,W,1,00,0.0,129.279495,M,0.0,M,,*74
$GPGLL,3844.5689,N,00908.1209,W,200400.00,A,*3E
$GPGSA,A,3,,,,,,,,,,,,,0.0,0.0,0.0*32
$GPRMC,200401.00,A,3844.5683,N,00908.1210,W,2.668631,186.377517,130617,,*25
$GPGGA,200401.00,3844.5683,N,00908.1210,W,1,00,0.0,128.965668,M,0.0,M,,*70
$GPGLL,3844.5683,N,00908.1210,W,200401.00,A,*3D
$GPGSA,A,3,,,,,,,,,,,,,0.0,0.0,0.0*32
$GPRMC,200402.00,A,3844.5675,N,00908.1211,W,2.640329,183.564876,130617,,*23
$GPGGA,200402.00,3844.5675,N,00908.1211,W,1,00,0.0,128.646835,M,0.0,M,,*73
$GPGLL,3844.5675,N,00908.1211,W,200402.00,A,*36
$GPGSA,A,3,,,,,,,,,,,,,0.0,0.0,0.0*32
$GPRMC,200403.00,A,3844.5653,N,00908.1261,W,2.346745,241.709364,130617,,*20
$GPGGA,200403.00,3844.5653,N,00908.1261,W,1,00,0.0,128.629822,M,0.0,M,,*7E
$GPGLL,3844.5653,N,00908.1261,W,200403.00,A,*34
$GPGSA,A,3,,,,,,,,,,,,,0.0,0.0,0.0*32
$GPRMC,200404.00,A,3844.5653,N,00908.1270,W,0.370241,264.609730,130617,,*22
$GPGGA,200404.00,3844.5653,N,00908.1270,W,1,00,0.0,128.194397,M,0.0,M,,*7D
$GPGLL,3844.5653,N,00908.1270,W,200404.00,A,*33
$GPGSA,A,3,,,,,,,,,,,,,0.0,0.0,0.0*32
$GPRMC,200405.00,A,3844.5646,N,00908.1277,W,3.791040,214.482588,130617,,*2C
$GPGGA,200405.00,3844.5646,N,00908.1277,W,1,00,0.0,128.122772,M,0.0,M,,*7D
$GPGLL,3844.5646,N,00908.1277,W,200405.00,A,*31
$GPGSA,A,3,,,,,,,,,,,,,0.0,0.0,0.0*32
