$GPGGA,200000.00,3844.6951,N,00908.0693,W,1,12,0.866,136.832,M,,M,0,*59
$GPGSA,A,3,1,3,8,11,14,17,22,27,28,32,72,87,1.425,0.866,1.132*04
$GPGSV,6,1,21,1,66,344,37,3,55,224,48,4,62,45,,8,45,142,26*4B
$GPGSV,6,2,21,11,76,44,28,14,29,71,21,17,14,315,37,22,85,213,42*75
$GPGSV,6,3,21,23,6,178,,27,10,138,27,28,34,283,35,32,20,51,35*7E
$GPGSV,6,4,21,65,10,201,32,70,12,30,,71,61,49,,72,56,185,43*7E
$GPGSV,6,5,21,77,5,274,,78,6,325,,85,14,117,,86,60,77,*47
$GPGSV,6,6,21,87,41,330,26*44
$GPRMC,200000.00,A,3844.6951,N,00908.0693,W,0.000,39.005,130617,,E,A*3B
$GPGGA,200001.00,3844.6951,N,00908.0693,W,1,12,0.866,136.832,M,,M,0,*58
$GPGSA,A,3,1,3,8,11,14,17,22,27,28,32,72,87,1.425,0.866,1.131*07
$GPGSV,6,1,21,1,66,344,35,3,55,224,47,4,62,45,,8,45,142,31*40
$GPGSV,6,2,21,11,76,44,26,14,29,71,22,17,14,315,35,22,85,213,44*7C
$GPGSV,6,3,21,23,6,178,19,27,10,138,27,28,34,283,35,32,20,51,33*70
$GPGSV,6,4,21,65,10,201,31,70,12,30,,71,61,49,,72,56,185,37*7E
$GPGSV,6,5,21,77,5,274,,78,6,325,,85,14,117,,86,60,77,*47
$GPGSV,6,6,21,87,41,330,27*45
$GPRMC,200001.00,A,3844.6951,N,00908.0693,W,0.000,39.005,130617,,E,A*3A
$GPGGA,200002.00,3844.6951,N,00908.0693,W,1,12,0.866,136.832,M,,M,0,*5B
$GPGSA,A,3,1,3,8,11,14,17,22,27,28,32,72,87,1.425,0.866,1.131*07
$GPGSV,6,1,21,1,66,344,39,3,55,224,44,4,62,45,,8,45,142,29*46
$GPGSV,6,2,21,11,76,44,28,14,29,71,22,17,14,315,35,22,85,213,40*76
$GPGSV,6,3,21,23,6,178,18,27,10,138,21,28,34,283,34,32,20,51,32*77
$GPGSV,6,4,21,65,10,201,30,70,12,30,,71,61,49,,72,57,185,36*7F
$GPGSV,6,5,21,77,5,274,,78,6,325,,85,14,117,,86,60,77,*47
$GPGSV,6,6,21,87,41,330,30*43
$GPRMC,200002.00,A,3844.6951,N,00908.0693,W,0.000,39.005,130617,,E,A*39
$GPGGA,200003.00,3844.6946,N,00908.0694,W,1,12,0.866,136.931,M,,M,0,*59
$GPGSA,A,3,1,3,8,11,14,17,22,27,28,32,72,87,1.424,0.866,1.131*06
$GPGSV,6,1,21,1,66,344,39,3,55,224,43,4,62,45,,8,45,142,30*49
$GPGSV,6,2,21,11,76,45,24,14,29,71,22,17,14,315,36,22,85,213,40*78
$GPGSV,6,3,21,23,6,178,18,27,10,138,24,28,34,283,35,32,20,51,32*73
$GPGSV,6,4,21,65,10,201,27,70,12,30,,71,61,49,,72,57,185,43*7B
$GPGSV,6,5,21,77,5,274,,78,6,325,,85,14,117,,86,60,77,*47
$GPGSV,6,6,21,87,41,330,36*45
$GPRMC,200003.00,A,3844.6946,N,00908.0694,W,1.260,39.005,130617,,E,A*3C
$GPGGA,200004.00,3844.6938,N,00908.0699,W,1,12,0.866,137.263,M,,M,0,*57
$GPGSA,A,3,1,3,8,11,14,17,22,27,28,32,72,87,1.424,0.866,1.131*06
$GPGSV,6,1,21,1,66,344,40,3,55,224,41,4,62,45,,8,45,142,31*44
$GPGSV,6,2,21,11,76,45,27,14,29,71,19,17,14,315,37,22,85,213,39*7C
$GPGSV,6,3,21,23,6,178,18,27,10,138,22,28,34,283,36,32,20,51,40*73
$GPGSV,6,4,21,65,10,201,30,70,12,30,,71,61,49,,72,57,185,42*7C
$GPGSV,6,5,21,77,5,274,,78,6,325,,85,14,117,,86,60,77,*47
$GPGSV,6,6,21,87,41,330,34*47
$GPRMC,200004.00,A,3844.6938,N,00908.0699,W,1.645,39.005,130617,,E,A*3C
$GPGGA,200005.00,3844.6930,N,00908.0699,W,1,12,0.866,137.867,M,,M,0,*50
$GPGSA,A,3,1,3,8,11,14,17,22,27,28,32,72,87,1.424,0.866,1.131*06
$GPGSV,6,1,21,1,66,344,43,3,55,224,41,4,62,45,,8,45,142,31*47
$GPGSV,6,2,21,11,76,45,25,14,29,71,19,17,14,315,40,22,85,213,39*7E
$GPGSV,6,3,21,23,6,178,12,27,10,138,21,28,34,283,37,32,20,51,35*79
$GPGSV,6,4,21,65,10,201,31,70,12,30,,71,61,49,,72,57,185,41*7E
$GPGSV,6,5,21,77,5,274,,78,6,325,,85,14,117,,86,60,77,*47
$GPGSV,6,6,21,87,41,330,37*44
$GPRMC,200005.00,A,3844.6930,N,00908.0699,W,2.169,146.929,130617,,E,A*01
$GPGGA,200006.00,3844.6921,N,00908.0698,W,1,12,0.866,137.778,M,,M,0,*53
$GPGSA,A,3,1,3,8,11,14,17,22,27,28,32,72,87,1.424,0.866,1.131*06
$GPGSV,6,1,21,1,67,344,42,3,55,224,45,4,62,45,,8,45,142,33*41
$GPGSV,6,2,21,11,76,45,25,14,29,71,20,17,14,315,39,22,85,213,35*76
$GPGSV,6,3,21,23,6,178,,27,10,138,21,28,34,283,34,32,20,51,31*7D
$GPGSV,6,4,21,65,10,201,31,70,12,30,,71,61,49,,72,57,185,41*7E
$GPGSV,6,5,21,77,5,274,,78,6,325,,85,14,117,,86,60,77,*47
$GPGSV,6,6,21,87,41,330,34*47
$GPRMC,200006.00,A,3844.6921,N,00908.0698,W,1.371,169.348,130617,,E,A*0B
$GPGGA,200007.00,3844.6916,N,00908.0694,W,1,12,0.866,138.225,M,,M,0,*58
$GPGSA,A,3,1,3,8,11,14,17,22,27,28,32,72,87,1.424,0.866,1.131*06
$GPGSV,6,1,21,1,67,344,41,3,55,224,45,4,62,45,,8,45,142,33*42
$GPGSV,6,2,21,11,76,45,24,14,29,71,21,17,14,315,35,22,85,213,41*79
$GPGSV,6,3,21,23,6,178,,27,10,138,23,28,34,283,40,32,20,51,27*7B
$GPGSV,6,4,21,65,10,201,31,70,12,30,,71,61,49,,72,57,185,37*7F
$GPGSV,6,5,21,77,5,274,,78,6,325,,85,14,117,,86,60,77,*47
$GPGSV,6,6,21,87,41,330,34*47
$GPRMC,200007.00,A,3844.6916,N,00908.0694,W,2.077,139.164,130617,,E,A*0D
$GPGGA,200008.00,3844.6910,N,00908.0688,W,1,12,0.866,138.679,M,,M,0,*51
$GPGSA,A,3,1,3,8,11,14,17,22,27,28,32,72,87,1.424,0.866,1.131*06
$GPGSV,6,1,21,1,67,344,41,3,55,224,44,4,62,45,,8,45,142,29*48
$GPGSV,6,2,21,11,76,45,23,14,29,71,19,17,14,315,41,22,85,213,42*75
$GPGSV,6,3,21,23,6,178,,27,10,138,17,28,34,283,40,32,20,51,24*7F
$GPGSV,6,4,21,65,10,201,30,70,12,30,,71,61,49,,72,57,185,37*7E
$GPGSV,6,5,21,77,5,274,,78,6,325,,85,14,117,,86,60,77,*47
$GPGSV,6,6,21,87,41,330,35*46
$GPRMC,200008.00,A,3844.6910,N,00908.0688,W,1.400,147.689,130617,,E,A*03
$GPGGA,200009.00,3844.6905,N,00908.0686,W,1,12,0.866,138.655,M,,M,0,*54
$GPGSA,A,3,1,3,8,11,14,17,22,27,28,32,72,87,1.424,0.866,1.131*06
$GPGSV,6,1,21,1,67,344,38,3,55,224,43,4,62,45,,8,45,142,31*48
$GPGSV,6,2,21,11,76,45,22,14,29,71,21,17,14,315,37,22,85,213,41*7D
$GPGSV,6,3,21,23,6,178,,27,10,138,18,28,34,283,40,32,20,51,25*71
$GPGSV,6,4,21,65,10,201,26,70,12,30,,71,61,49,,72,57,185,41*78
$GPGSV,6,5,21,77,5,274,,78,6,325,,85,14,117,,86,60,77,*47
$GPGSV,6,6,21,87,41,330,38*4B
$GPRMC,200009.00,A,3844.6905,N,00908.0686,W,0.672,157.203,130617,,E,A*09
$GPGGA,200010.00,3844.6901,N,00908.0686,W,1,12,0.866,138.424,M,,M,0,*5C
$GPGSA,A,3,1,3,8,11,14,17,22,27,28,32,72,87,1.424,0.866,1.131*06
$GPGSV,6,1,21,1,67,344,38,3,55,224,42,4,62,45,,8,45,142,32*4A
$GPGSV,6,2,21,11,76,45,19,14,29,71,19,17,14,315,35,22,85,213,39*73
$GPGSV,6,3,21,23,6,178,,27,10,138,19,28,34,283,36,32,20,51,23*77
$GPGSV,6,4,21,65,10,201,25,70,12,30,,71,61,49,,72,57,185,40*7A
$GPGSV,6,5,21,77,5,274,,78,6,325,,85,14,117,,86,60,77,*47
$GPGSV,6,6,21,87,41,330,38*4B
$GPRMC,200010.00,A,3844.6901,N,00908.0686,W,0.871,200.851,130617,,E,A*04
$GPGGA,200011.00,3844.6901,N,00908.0686,W,1,12,0.866,138.424,M,,M,0,*5D
$GPGSA,A,3,1,3,8,11,14,17,22,27,28,32,72,87,1.424,0.866,1.131*06
$GPGSV,6,1,21,1,67,344,36,3,55,224,38,4,62,45,,8,45,142,29*43
$GPGSV,6,2,21,11,76,45,24,14,29,71,19,17,14,315,35,22,85,214,37*74
$GPGSV,6,3,21,23,6,178,,27,10,138,25,28,34,283,35,32,20,51,24*7C
$GPGSV,6,4,21,65,10,201,24,70,12,30,,71,61,49,,72,57,185,39*75
$GPGSV,6,5,21,77,5,274,,78,6,325,,85,14,117,,86,60,77,*47
$GPGSV,6,6,21,87,41,330,35*46
$GPRMC,200011.00,A,3844.6901,N,00908.0686,W,0.000,200.851,130617,,E,A*0B
$GPGGA,200012.00,3844.6901,N,00908.0685,W,1,11,0.950,138.075,M,,M,0,*5A
$GPGSA,A,3,1,3,8,11,17,22,27,28,32,72,87,,1.477,0.950,1.131*01
$GPGSV,6,1,21,1,67,345,34,3,55,224,38,4,62,45,,8,45,142,34*4C
$GPGSV,6,2,21,11,76,45,22,14,29,71,12,17,14,315,39,22,85,214,34*76
$GPGSV,6,3,21,23,6,178,,27,10,138,23,28,34,283,38,32,20,51,22*71
$GPGSV,6,4,21,65,10,201,21,70,12,30,,71,61,49,,72,57,185,42*7C
$GPGSV,6,5,21,77,5,274,,78,6,325,,85,14,117,,86,60,77,*47
$GPGSV,6,6,21,87,41,330,36*45
$GPRMC,200012.00,A,3844.6901,N,00908.0685,W,0.000,200.851,130617,,E,A*0B
$GPGGA,200013.00,3844.6902,N,00908.0689,W,1,12,0.866,138.950,M,,M,0,*5D
$GPGSA,A,3,1,3,8,11,14,17,22,27,28,32,72,87,1.424,0.866,1.130*07
$GPGSV,6,1,21,1,67,345,39,3,55,224,42,4,62,45,,8,45,142,37*4F
$GPGSV,6,2,21,11,76,45,28,14,29,71,18,17,14,315,42,22,85,214,41*78
$GPGSV,6,3,21,23,6,178,,27,10,138,22,28,34,283,45,32,20,51,18*73
$GPGSV,6,4,21,65,10,201,28,70,12,30,,71,61,49,,72,57,185,38*78
$GPGSV,6,5,21,77,5,274,,78,6,325,,85,14,117,,86,60,77,*47
$GPGSV,6,6,21,87,41,330,41*45
$GPRMC,200013.00,A,3844.6902,N,00908.0689,W,1.708,200.851,130617,,E,A*0B
$GPGGA,200014.00,3844.6902,N,00908.0696,W,1,12,0.866,139.141,M,,M,0,*5D
$GPGSA,A,3,1,3,8,11,14,17,22,27,28,32,72,87,1.424,0.866,1.130*07
$GPGSV,6,1,21,1,67,345,44,3,55,224,42,4,62,45,,8,45,142,36*44
$GPGSV,6,2,21,11,76,45,25,14,29,71,18,17,14,315,42,22,85,214,39*7A
$GPGSV,6,3,21,23,6,178,,27,10,138,25,28,34,283,45,32,20,51,22*7D
$GPGSV,6,4,21,65,10,201,31,70,12,30,,71,61,49,,72,57,185,40*7F
$GPGSV,6,5,21,77,5,274,,78,6,325,,85,14,117,,86,60,77,*47
$GPGSV,6,6,21,87,41,330,43*47
$GPRMC,200014.00,A,3844.6902,N,00908.0696,W,1.417,200.851,130617,,E,A*0F
$GPGGA,200015.00,3844.6898,N,00908.0698,W,1,12,0.866,139.433,M,,M,0,*50
$GPGSA,A,3,1,3,8,11,14,17,22,27,28,32,72,87,1.424,0.866,1.130*07
$GPGSV,6,1,21,1,67,345,40,3,55,224,44,4,62,45,,8,45,142,44*43
$GPGSV,6,2,21,11,76,45,27,14,29,71,14,17,14,315,38,22,85,214,42*75
$GPGSV,6,3,21,23,6,178,,27,10,138,20,28,34,283,46,32,20,51,24*7D
$GPGSV,6,4,21,65,10,201,33,70,12,30,,71,61,49,,72,57,185,40*7D
$GPGSV,6,5,21,77,5,274,,78,6,325,,85,14,117,,86,60,77,*47
$GPGSV,6,6,21,87,41,330,39*4A
$GPRMC,200015.00,A,3844.6898,N,00908.0698,W,1.756,200.851,130617,,E,A*04
$GPGGA,200016.00,3844.6896,N,00908.0702,W,1,12,0.866,139.721,M,,M,0,*5F
$GPGSA,A,3,1,3,8,11,14,17,22,27,28,32,72,87,1.424,0.866,1.130*07
$GPGSV,6,1,21,1,67,345,40,3,55,224,45,4,62,45,,8,45,142,39*48
$GPGSV,6,2,21,11,75,45,27,14,29,71,18,17,14,315,35,22,85,214,42*77
$GPGSV,6,3,21,23,6,178,,27,10,138,23,28,34,283,44,32,20,51,21*79
$GPGSV,6,4,21,65,10,201,29,70,12,30,,71,61,49,,72,57,185,37*76
$GPGSV,6,5,21,77,5,274,,78,6,325,,85,14,117,,86,60,77,*47
$GPGSV,6,6,21,87,41,330,37*44
$GPRMC,200016.00,A,3844.6896,N,00908.0702,W,0.000,200.851,130617,,E,A*0E
$GPGGA,200017.00,3844.6895,N,00908.0705,W,1,12,0.866,139.682,M,,M,0,*52
$GPGSA,A,3,1,3,8,11,14,17,22,27,28,32,72,87,1.424,0.866,1.130*07
$GPGSV,6,1,21,1,67,345,42,3,55,225,40,4,62,45,,8,45,142,42*42
$GPGSV,6,2,21,11,75,45,30,14,29,71,20,17,14,315,35,22,85,214,39*76
$GPGSV,6,3,21,23,6,178,,27,10,138,20,28,34,283,45,32,20,51,19*70
$GPGSV,6,4,21,65,10,201,26,70,12,30,,71,61,49,,72,57,185,40*79
$GPGSV,6,5,21,77,5,274,,78,6,325,,85,14,117,,86,60,77,*47
$GPGSV,6,6,21,87,41,330,43*47
$GPRMC,200017.00,A,3844.6895,N,00908.0705,W,1.258,200.851,130617,,E,A*05
$GPGGA,200018.00,3844.6893,N,00908.0711,W,1,12,0.866,139.314,M,,M,0,*54
$GPGSA,A,3,1,3,8,11,14,17,22,27,28,32,72,87,1.423,0.866,1.130*00
$GPGSV,6,1,21,1,67,345,41,3,55,225,40,4,62,45,,8,45,142,40*43
$GPGSV,6,2,21,11,75,45,33,14,29,71,20,17,14,315,39,22,85,214,36*76
$GPGSV,6,3,21,23,6,178,,27,10,139,22,28,34,283,43,32,20,51,25*7A
$GPGSV,6,4,21,65,10,201,27,70,12,30,,71,61,49,,72,57,185,37*78
$GPGSV,6,5,21,77,5,274,,78,6,325,,85,14,117,,86,60,77,*47
$GPGSV,6,6,21,87,41,330,42*46
$GPRMC,200018.00,A,3844.6893,N,00908.0711,W,2.179,236.273,130617,,E,A*05
$GPGGA,200019.00,3844.6886,N,00908.0721,W,1,12,0.866,140.630,M,,M,0,*5F
$GPGSA,A,3,1,3,8,11,14,17,22,27,28,32,72,87,1.423,0.866,1.130*00
$GPGSV,6,1,21,1,67,345,39,3,55,225,45,4,62,45,,8,45,142,40*49
$GPGSV,6,2,21,11,75,45,30,14,29,71,24,17,14,315,39,22,85,214,37*70
$GPGSV,6,3,21,23,6,178,,27,10,139,24,28,34,283,42,32,20,51,22*7A
$GPGSV,6,4,21,65,10,201,28,70,12,30,,71,61,49,,72,57,185,37*77
$GPGSV,6,5,21,77,5,274,,78,6,325,,85,14,117,,86,60,77,*47
$GPGSV,6,6,21,87,41,330,40*44
$GPRMC,200019.00,A,3844.6886,N,00908.0721,W,3.985,224.195,130617,,E,A*01
$GPGGA,200020.00,3844.6877,N,00908.0730,W,1,12,0.866,141.000,M,,M,0,*5F
$GPGSA,A,3,1,3,8,11,14,17,22,27,28,32,72,87,1.423,0.866,1.130*00
$GPGSV,6,1,21,1,67,345,40,3,55,225,45,4,62,45,,8,45,142,43*44
$GPGSV,6,2,21,11,75,45,32,14,29,71,19,17,14,315,36,22,85,214,39*7D
$GPGSV,6,3,21,23,6,178,,27,10,139,21,28,34,283,40,32,20,51,25*7A
$GPGSV,6,4,21,65,10,201,28,70,12,30,,71,61,49,,72,57,185,40*77
$GPGSV,6,5,21,77,5,274,,78,6,325,,85,14,117,,86,60,77,*47
$GPGSV,6,6,21,87,41,330,39*4A
$GPRMC,200020.00,A,3844.6877,N,00908.0730,W,2.756,244.641,130617,,E,A*0C
$GPGGA,200021.00,3844.6872,N,00908.0738,W,1,12,0.866,141.039,M,,M,0,*59
$GPGSA,A,3,1,3,8,11,14,17,22,27,28,32,72,87,1.423,0.866,1.130*00
$GPGSV,6,1,21,1,67,345,37,3,55,225,45,4,62,45,,8,45,142,44*43
$GPGSV,6,2,21,11,75,45,31,14,29,71,18,17,14,315,35,22,85,214,39*7C
$GPGSV,6,3,21,23,6,178,,27,10,139,20,28,34,283,39,32,20,51,22*72
$GPGSV,6,4,21,65,10,201,25,70,12,30,,71,61,49,,72,57,185,41*7B
$GPGSV,6,5,21,77,5,274,,78,6,325,,85,14,117,,86,60,77,*47
$GPGSV,6,6,21,87,41,330,37*44
$GPRMC,200021.00,A,3844.6872,N,00908.0738,W,3.078,244.329,130617,,E,A*01
$GPGGA,200022.00,3844.6868,N,00908.0747,W,1,12,0.866,141.137,M,,M,0,*56
$GPGSA,A,3,1,3,8,11,14,17,22,27,28,32,72,87,1.423,0.866,1.130*00
$GPGSV,6,1,21,1,67,345,39,3,55,225,45,4,62,45,,8,45,142,42*4B
$GPGSV,6,2,21,11,75,45,31,14,29,71,22,17,14,315,35,22,85,214,37*7B
$GPGSV,6,3,21,23,6,178,,27,10,139,22,28,34,283,39,32,20,51,22*70
$GPGSV,6,4,21,65,10,201,22,70,12,30,,71,61,49,,72,57,185,38*72
$GPGSV,6,5,21,77,5,274,,78,6,325,,85,14,117,,86,60,77,*47
$GPGSV,6,6,21,87,41,330,36*45
$GPRMC,200022.00,A,3844.6868,N,00908.0747,W,2.464,247.253,130617,,E,A*06
$GPGGA,200023.00,3844.6862,N,00908.0752,W,1,13,0.761,141.349,M,,M,0,*5B
$GPGSA,A,3,1,3,8,11,14,17,22,27,28,32,65,72,1.240,0.761,0.979*03
$GPGSV,6,1,21,1,67,345,37,3,55,225,44,4,62,45,,8,44,142,45*42
$GPGSV,6,2,21,11,75,45,31,14,29,71,20,17,14,315,33,22,85,214,38*70
$GPGSV,6,3,21,23,6,178,,27,10,139,20,28,34,283,39,32,20,51,27*77
$GPGSV,6,4,21,65,10,201,29,70,12,30,,71,61,49,,72,57,185,40*76
$GPGSV,6,5,21,77,5,274,,78,6,325,,85,14,117,,86,60,77,*47
$GPGSV,6,6,21,87,41,330,33*40
$GPRMC,200023.00,A,3844.6862,N,00908.0752,W,2.492,230.484,130617,,E,A*0C
$GPGGA,200024.00,3844.6857,N,00908.0758,W,1,13,0.761,141.450,M,,M,0,*5F
$GPGSA,A,3,1,3,8,11,14,17,22,27,28,32,65,72,1.240,0.761,0.979*03
$GPGSV,6,1,21,1,67,345,37,3,55,225,42,4,62,45,,8,44,142,44*45
$GPGSV,6,2,21,11,75,45,32,14,29,71,20,17,14,315,32,22,85,214,38*72
$GPGSV,6,3,21,23,6,178,,27,10,139,23,28,34,283,40,32,20,51,25*78
$GPGSV,6,4,21,65,10,201,25,70,12,30,,71,61,49,,72,57,185,41*7B
$GPGSV,6,5,21,77,5,274,,78,6,325,,85,14,117,,86,60,77,*47
$GPGSV,6,6,21,87,41,330,35*46
$GPRMC,200024.00,A,3844.6857,N,00908.0758,W,2.399,233.895,130617,,E,A*04
$GPGGA,200025.00,3844.6852,N,00908.0767,W,1,13,0.761,141.790,M,,M,0,*58
$GPGSA,A,3,1,3,8,11,14,17,22,27,28,32,65,72,1.240,0.761,0.979*03
$GPGSV,6,1,21,1,67,345,39,3,55,225,44,4,62,45,,8,44,142,42*4B
$GPGSV,6,2,21,11,75,45,33,14,29,71,23,17,14,315,32,22,85,214,39*71
$GPGSV,6,3,21,23,6,178,,27,10,139,23,28,34,283,44,32,20,51,23*7A
$GPGSV,6,4,21,65,10,201,26,70,12,30,,71,61,49,,72,57,185,38*76
$GPGSV,6,5,21,77,5,274,,78,6,325,,85,14,117,,86,60,77,*47
$GPGSV,6,6,21,87,41,330,35*46
$GPRMC,200025.00,A,3844.6852,N,00908.0767,W,2.071,239.180,130617,,E,A*0E
$GPGGA,200026.00,3844.6844,N,00908.0774,W,1,13,0.761,142.248,M,,M,0,*5D
$GPGSA,A,3,1,3,8,11,14,17,22,27,28,32,65,72,1.240,0.761,0.980*05
$GPGSV,6,1,21,1,67,345,39,3,55,225,45,4,62,45,,8,44,142,43*4B
$GPGSV,6,2,21,11,75,45,30,14,29,71,22,17,14,315,35,22,85,214,37*7A
$GPGSV,6,3,21,23,6,178,,27,10,139,23,28,34,283,44,32,20,51,24*7D
$GPGSV,6,4,21,65,10,201,25,70,12,30,,71,61,49,,72,57,185,41*7B
$GPGSV,6,5,21,77,5,274,,78,6,325,,85,14,117,,86,60,77,*47
$GPGSV,6,6,21,87,41,330,35*46
$GPRMC,200026.00,A,3844.6844,N,00908.0774,W,2.947,225.350,130617,,E,A*06
$GPGGA,200027.00,3844.6834,N,00908.0777,W,1,13,0.761,142.981,M,,M,0,*56
$GPGSA,A,3,1,3,8,11,14,17,22,27,28,32,65,72,1.240,0.761,0.980*05
$GPGSV,6,1,21,1,67,345,39,3,55,225,43,4,62,45,,8,44,142,45*4B
$GPGSV,6,2,21,11,75,45,34,14,29,71,22,17,14,315,34,22,85,214,37*7F
$GPGSV,6,3,21,23,6,178,,27,10,139,23,28,34,283,43,32,20,51,24*7A
$GPGSV,6,4,21,65,10,201,26,70,12,30,,71,61,49,36,72,57,185,39*72
$GPGSV,6,5,21,77,5,274,,78,6,325,,85,14,117,,86,60,77,*47
$GPGSV,6,6,21,87,41,330,36*45
$GPRMC,200027.00,A,3844.6834,N,00908.0777,W,2.381,205.255,130617,,E,A*05
$GPGGA,200028.00,3844.6825,N,00908.0776,W,1,14,0.747,142.868,M,,M,0,*5D
$GPGSA,A,3,1,3,8,11,14,17,22,27,28,32,65,71,1.210,0.747,0.952*08
$GPGSV,6,1,21,1,67,345,37,3,55,225,40,4,62,45,,8,44,142,44*47
$GPGSV,6,2,21,11,75,45,34,14,29,71,26,17,14,315,32,22,85,214,38*72
$GPGSV,6,3,21,23,6,178,,27,10,139,26,28,34,283,41,32,20,51,28*71
$GPGSV,6,4,21,65,10,201,27,70,12,30,,71,61,49,35,72,57,185,36*7F
$GPGSV,6,5,21,77,5,274,,78,6,325,,85,14,117,,86,60,77,*47
$GPGSV,6,6,21,87,41,330,38*4B
$GPRMC,200028.00,A,3844.6825,N,00908.0776,W,0.000,205.255,130617,,E,A*03
$GPGGA,200029.00,3844.6817,N,00908.0773,W,1,13,0.835,142.479,M,,M,0,*59
$GPGSA,A,3,1,3,8,11,14,17,22,27,28,32,71,72,1.362,0.835,1.076*0E
$GPGSV,6,1,21,1,67,345,35,3,55,225,40,4,62,45,,8,44,142,45*44
$GPGSV,6,2,21,11,75,45,34,14,29,71,25,17,14,315,33,22,85,214,37*7F
$GPGSV,6,3,21,23,6,178,,27,10,139,25,28,34,283,39,32,20,51,26*73
$GPGSV,6,4,21,65,10,201,23,70,12,30,,71,61,48,36,72,57,185,37*78
$GPGSV,6,5,21,77,5,274,,78,6,325,,85,14,117,,86,60,77,*47
$GPGSV,6,6,21,87,41,330,39*4A
$GPRMC,200029.00,A,3844.6817,N,00908.0773,W,2.102,167.281,130617,,E,A*09
$GPGGA,200030.00,3844.6805,N,00908.0768,W,1,14,0.747,142.549,M,,M,0,*57
$GPGSA,A,3,1,3,8,11,14,17,22,27,28,32,65,71,1.210,0.747,0.952*08
$GPGSV,6,1,21,1,67,345,34,3,55,225,39,4,62,45,,8,44,142,45*4B
$GPGSV,6,2,21,11,75,45,34,14,29,71,24,17,14,315,33,22,85,214,37*7E
$GPGSV,6,3,21,23,6,178,,27,10,139,25,28,34,283,36,32,20,51,29*73
$GPGSV,6,4,21,65,10,201,29,70,12,30,,71,61,48,33,72,57,185,33*73
$GPGSV,6,5,21,77,5,274,,78,6,325,,85,14,117,,86,60,77,*47
$GPGSV,6,6,21,87,41,330,38*4B
$GPRMC,200030.00,A,3844.6805,N,00908.0768,W,1.676,167.281,130617,,E,A*0F
$GPGGA,200031.00,3844.6796,N,00908.0761,W,1,14,0.747,141.358,M,,M,0,*5F
$GPGSA,A,3,1,3,8,11,14,17,22,27,28,32,65,71,1.210,0.747,0.952*08
$GPGSV,6,1,21,1,67,345,35,3,55,225,42,4,62,45,,8,44,142,47*44
$GPGSV,6,2,21,11,75,45,34,14,29,71,21,17,14,315,34,22,85,214,38*73
$GPGSV,6,3,21,23,6,178,,27,10,139,19,28,34,283,34,32,20,51,26*71
$GPGSV,6,4,21,65,10,201,28,70,12,30,,71,61,48,35,72,57,185,40*70
$GPGSV,6,5,21,77,5,274,,78,6,325,,85,14,117,,86,60,77,31*45
$GPGSV,6,6,21,87,41,330,37*44
$GPRMC,200031.00,A,3844.6796,N,00908.0761,W,0.956,167.281,130617,,E,A*0E
$GPGGA,200032.00,3844.6787,N,00908.0759,W,1,14,0.747,140.075,M,,M,0,*5A
$GPGSA,A,3,1,3,8,11,14,17,22,27,28,32,65,71,1.210,0.747,0.952*08
$GPGSV,6,1,21,1,67,345,35,3,55,225,40,4,62,45,,8,44,142,47*46
$GPGSV,6,2,21,11,75,45,35,14,29,71,22,17,14,315,33,22,85,214,40*79
$GPGSV,6,3,21,23,6,178,,27,10,139,22,28,34,283,31,32,20,51,24*7E
$GPGSV,6,4,21,65,10,201,27,70,12,30,,71,61,48,37,72,57,185,39*73
$GPGSV,6,5,21,77,5,274,,78,6,325,,85,14,117,,86,60,77,37*43
$GPGSV,6,6,21,87,41,330,39*4A
$GPRMC,200032.00,A,3844.6787,N,00908.0759,W,2.100,215.788,130617,,E,A*05
$GPGGA,200033.00,3844.6779,N,00908.0760,W,1,14,0.819,139.460,M,,M,0,*5A
$GPGSA,A,3,1,3,8,11,14,17,22,27,28,32,71,72,1.326,0.819,1.043*06
$GPGSV,6,1,21,1,67,345,33,3,55,225,44,4,62,45,,8,44,142,45*46
$GPGSV,6,2,21,11,75,46,35,14,29,71,24,17,14,315,31,22,85,214,36*7F
$GPGSV,6,3,21,23,6,178,,27,10,139,23,28,34,283,31,32,20,51,23*78
$GPGSV,6,4,21,65,10,201,24,70,12,30,,71,61,48,37,72,57,185,38*71
$GPGSV,6,5,21,77,5,274,,78,6,325,,85,14,117,,86,60,77,36*42
$GPGSV,6,6,21,87,41,330,37*44
$GPRMC,200033.00,A,3844.6779,N,00908.0760,W,1.695,215.380,130617,,E,A*0B
$GPGGA,200034.00,3844.6772,N,00908.0758,W,1,14,0.819,138.866,M,,M,0,*56
$GPGSA,A,3,1,3,8,11,14,17,22,27,28,32,71,72,1.326,0.819,1.043*06
$GPGSV,6,1,21,1,67,345,34,3,55,225,42,4,62,45,,8,44,142,47*45
$GPGSV,6,2,21,11,75,46,34,14,29,71,22,17,14,315,32,22,85,214,35*78
$GPGSV,6,3,21,23,6,178,,27,10,139,23,28,34,283,32,32,20,51,26*7E
$GPGSV,6,4,21,65,10,201,19,70,12,30,,71,61,48,40,72,57,185,39*7E
$GPGSV,6,5,21,77,5,274,,78,6,325,,85,14,117,,86,60,77,35*41
$GPGSV,6,6,21,87,41,330,36*45
$GPRMC,200034.00,A,3844.6772,N,00908.0758,W,0.000,215.380,130617,,E,A*07
$GPGGA,200035.00,3844.6763,N,00908.0754,W,1,14,0.819,138.482,M,,M,0,*5D
$GPGSA,A,3,1,3,8,11,14,17,22,27,28,32,71,72,1.326,0.819,1.042*07
$GPGSV,6,1,21,1,67,345,36,3,55,225,37,4,62,45,,8,44,142,48*4A
$GPGSV,6,2,21,11,75,46,31,14,29,71,25,17,14,315,32,22,85,214,35*7A
$GPGSV,6,3,21,23,6,178,,27,10,139,23,28,34,283,29,32,20,51,22*70
$GPGSV,6,4,21,65,10,202,21,70,12,30,,71,61,48,37,72,57,185,38*77
$GPGSV,6,5,21,77,5,274,,78,6,325,,85,14,117,,86,60,77,40*43
$GPGSV,6,6,21,87,41,330,33*40
$GPRMC,200035.00,A,3844.6763,N,00908.0754,W,1.941,215.380,130617,,E,A*07
$GPGGA,200036.00,3844.6753,N,00908.0752,W,1,14,0.819,138.139,M,,M,0,*5E
$GPGSA,A,3,1,3,8,11,14,17,22,27,28,32,71,72,1.326,0.819,1.042*07
$GPGSV,6,1,21,1,67,345,38,3,55,225,38,4,62,45,,8,44,142,45*46
$GPGSV,6,2,21,11,75,46,37,14,29,71,22,17,14,315,34,22,85,214,39*71
$GPGSV,6,3,21,23,6,178,,27,10,139,20,28,34,283,29,32,20,51,23*72
$GPGSV,6,4,21,65,10,202,20,70,12,30,,71,61,48,38,72,57,185,37*76
$GPGSV,6,5,21,77,5,274,,78,6,325,,85,14,117,,86,60,77,38*4C
$GPGSV,6,6,21,87,41,330,32*41
$GPRMC,200036.00,A,3844.6753,N,00908.0752,W,0.000,215.380,130617,,E,A*0C
$GPGGA,200037.00,3844.6745,N,00908.0755,W,1,14,0.819,137.682,M,,M,0,*57
$GPGSA,A,3,1,3,8,11,14,17,22,27,28,32,71,72,1.326,0.819,1.042*07
$GPGSV,6,1,21,1,67,345,36,3,55,225,40,4,62,45,,8,44,142,45*47
$GPGSV,6,2,21,11,75,46,36,14,29,71,24,17,14,315,33,22,85,214,38*70
$GPGSV,6,3,21,23,6,178,,27,10,139,22,28,34,283,26,32,20,51,22*7E
$GPGSV,6,4,21,65,10,202,23,70,12,30,,71,61,48,38,72,57,185,38*7A
$GPGSV,6,5,21,77,5,274,,78,6,325,,85,14,117,,86,60,77,39*4D
$GPGSV,6,6,21,87,41,330,33*40
$GPRMC,200037.00,A,3844.6745,N,00908.0755,W,2.221,201.717,130617,,E,A*01
$GPGGA,200038.00,3844.6734,N,00908.0757,W,1,14,0.819,137.998,M,,M,0,*58
$GPGSA,A,3,1,3,8,11,14,17,22,27,28,32,71,72,1.326,0.819,1.042*07
$GPGSV,6,1,21,1,67,345,35,3,55,225,40,4,62,45,,8,44,142,43*42
$GPGSV,6,2,21,11,75,46,37,14,29,71,25,17,14,315,33,22,85,214,39*71
$GPGSV,6,3,21,23,6,178,,27,10,139,16,28,34,283,29,32,20,51,23*77
$GPGSV,6,4,21,65,10,202,21,70,11,30,,71,61,48,40,72,57,185,38*74
$GPGSV,6,5,21,77,5,274,,78,6,325,,85,14,117,,86,60,77,41*42
$GPGSV,6,6,21,87,42,330,30*40
$GPRMC,200038.00,A,3844.6734,N,00908.0757,W,0.000,201.717,130617,,E,A*09
$GPGGA,200039.00,3844.6726,N,00908.0753,W,1,14,0.819,138.303,M,,M,0,*59
$GPGSA,A,3,1,3,8,11,14,17,22,27,28,32,71,72,1.326,0.819,1.042*07
$GPGSV,6,1,21,1,67,345,36,3,55,225,36,4,62,45,,8,44,142,46*45
$GPGSV,6,2,21,11,75,46,37,14,29,71,26,17,14,315,32,22,85,214,38*72
$GPGSV,6,3,21,23,6,178,,27,10,139,21,28,34,283,31,32,20,51,22*7B
$GPGSV,6,4,21,65,10,202,21,70,11,30,,71,61,48,37,72,57,185,36*7A
$GPGSV,6,5,21,77,5,274,,78,6,325,,85,14,117,,86,60,77,41*42
$GPGSV,6,6,21,87,42,330,32*42
$GPRMC,200039.00,A,3844.6726,N,00908.0753,W,2.042,174.972,130617,,E,A*07
$GPGGA,200040.00,3844.6715,N,00908.0751,W,1,14,0.819,136.921,M,,M,0,*51
$GPGSA,A,3,1,3,8,11,14,17,22,27,28,32,71,72,1.326,0.819,1.042*07
$GPGSV,6,1,21,1,67,345,35,3,55,225,41,4,62,45,,8,44,142,47*47
$GPGSV,6,2,21,11,75,46,35,14,29,71,23,17,14,315,33,22,85,214,35*79
$GPGSV,6,3,21,23,6,178,,27,10,139,21,28,34,283,33,32,20,51,24*7F
$GPGSV,6,4,21,65,10,202,23,70,11,30,,71,61,48,41,72,57,185,36*79
$GPGSV,6,5,21,77,5,274,,78,6,325,,85,14,117,,86,60,77,42*41
$GPGSV,6,6,21,87,42,330,34*44
$GPRMC,200040.00,A,3844.6715,N,00908.0751,W,1.658,174.972,130617,,E,A*05
$GPGGA,200041.00,3844.6708,N,00908.0748,W,1,14,0.819,135.891,M,,M,0,*5D
$GPGSA,A,3,1,3,8,11,14,17,22,27,28,32,71,72,1.326,0.819,1.042*07
$GPGSV,6,1,21,1,67,345,35,3,55,225,39,4,62,45,,8,44,142,45*4A
$GPGSV,6,2,21,11,75,46,36,14,29,71,28,17,14,315,35,22,85,214,35*77
$GPGSV,6,3,21,23,6,178,,27,10,139,25,28,34,283,33,32,20,51,21*7E
$GPGSV,6,4,21,65,10,202,23,70,11,30,,71,61,48,39,72,57,185,38*78
$GPGSV,6,5,21,77,5,274,,78,6,325,,85,14,117,,86,60,77,39*4D
$GPGSV,6,6,21,87,42,330,33*43
$GPRMC,200041.00,A,3844.6708,N,00908.0748,W,1.368,174.972,130617,,E,A*06
$GPGGA,200042.00,3844.6704,N,00908.0747,W,1,14,0.819,136.333,M,,M,0,*5D
$GPGSA,A,3,1,3,8,11,14,17,22,27,28,32,71,72,1.326,0.819,1.042*07
$GPGSV,6,1,21,1,67,345,39,3,55,225,40,4,62,45,,8,44,142,45*48
$GPGSV,6,2,21,11,75,46,36,14,29,71,32,17,14,315,34,22,85,214,36*7E
$GPGSV,6,3,21,23,6,178,,27,10,139,25,28,34,283,34,32,20,51,20*78
$GPGSV,6,4,21,65,10,202,23,70,11,30,,71,61,48,40,72,57,185,36*78
$GPGSV,6,5,21,77,5,274,,78,6,325,,85,14,117,,86,60,77,38*4C
$GPGSV,6,6,21,87,42,330,31*41
$GPRMC,200042.00,A,3844.6704,N,00908.0747,W,1.984,167.136,130617,,E,A*04
$GPGGA,200043.00,3844.6702,N,00908.0738,W,1,14,0.819,135.883,M,,M,0,*51
$GPGSA,A,3,1,3,8,11,14,17,22,27,28,32,71,72,1.326,0.819,1.042*07
$GPGSV,6,1,21,1,67,345,37,3,55,225,41,4,62,45,,8,44,142,42*40
$GPGSV,6,2,21,11,75,46,38,14,29,71,42,17,14,315,35,22,85,214,37*77
$GPGSV,6,3,21,23,6,178,,27,10,139,21,28,34,283,32,32,20,51,20*7A
$GPGSV,6,4,21,65,10,202,21,70,11,30,,71,61,48,38,72,57,185,33*70
$GPGSV,6,5,21,77,5,274,,78,6,325,,85,14,117,,86,60,78,42*4E
$GPGSV,6,6,21,87,42,330,36*46
$GPRMC,200043.00,A,3844.6702,N,00908.0738,W,1.735,181.261,130617,,E,A*06
$GPGGA,200044.00,3844.6701,N,00908.0724,W,1,14,0.819,135.584,M,,M,0,*52
$GPGSA,A,3,1,3,8,11,14,17,22,27,28,32,71,72,1.326,0.819,1.042*07
$GPGSV,6,1,21,1,67,345,37,3,55,225,39,4,62,45,,8,44,142,44*49
$GPGSV,6,2,21,11,75,46,35,14,29,71,43,17,14,315,34,22,85,214,35*78
$GPGSV,6,3,21,23,6,178,,27,10,139,23,28,34,283,33,32,20,51,24*7D
$GPGSV,6,4,21,65,10,202,23,70,11,30,,71,60,48,39,72,57,185,35*74
$GPGSV,6,5,21,77,5,274,,78,6,325,,85,14,117,,86,60,78,41*4D
$GPGSV,6,6,21,87,42,330,34*44
$GPRMC,200044.00,A,3844.6701,N,00908.0724,W,2.483,156.593,130617,,E,A*02
$GPGGA,200045.00,3844.6697,N,00908.0714,W,1,14,0.819,135.583,M,,M,0,*59
$GPGSA,A,3,1,3,8,11,14,17,22,27,28,32,71,72,1.326,0.819,1.042*07
$GPGSV,6,1,21,1,67,345,37,3,55,225,43,4,62,45,,8,44,142,44*44
$GPGSV,6,2,21,11,75,46,33,14,29,71,40,17,14,315,34,22,85,214,38*70
$GPGSV,6,3,21,23,6,178,,27,10,139,22,28,34,283,36,32,20,51,24*79
$GPGSV,6,4,21,65,10,202,23,70,11,30,,71,60,48,37,72,57,185,35*7A
$GPGSV,6,5,21,77,5,274,,78,6,325,,85,14,117,,86,60,78,37*4C
$GPGSV,6,6,21,87,42,330,36*46
$GPRMC,200045.00,A,3844.6697,N,00908.0714,W,1.896,179.542,130617,,E,A*04
$GPGGA,200046.00,3844.6693,N,00908.0708,W,1,14,0.819,135.876,M,,M,0,*54
$GPGSA,A,3,1,3,8,11,14,17,22,27,28,32,71,72,1.326,0.819,1.042*07
$GPGSV,6,1,21,1,67,345,37,3,55,225,40,4,62,45,,8,44,142,44*47
$GPGSV,6,2,21,11,75,46,36,14,29,71,42,17,14,315,35,22,85,214,35*7B
$GPGSV,6,3,21,23,6,178,,27,10,139,24,28,34,283,39,32,20,51,26*72
$GPGSV,6,4,21,65,10,202,22,70,11,30,,71,60,48,35,72,57,185,39*75
$GPGSV,6,5,21,77,5,274,,78,6,325,,85,14,117,,86,60,78,38*43
$GPGSV,6,6,21,87,42,330,39*49
$GPRMC,200046.00,A,3844.6693,N,00908.0708,W,1.792,201.724,130617,,E,A*0B
$GPGGA,200047.00,3844.6691,N,00908.0705,W,1,14,0.819,135.817,M,,M,0,*5D
$GPGSA,A,3,1,3,8,11,14,17,22,27,28,32,71,72,1.326,0.819,1.042*07
$GPGSV,6,1,21,1,67,345,40,3,55,225,41,4,62,45,,8,44,142,45*47
$GPGSV,6,2,21,11,75,46,36,14,29,71,44,17,14,315,33,22,85,214,36*78
$GPGSV,6,3,21,23,6,178,,27,10,139,28,28,34,283,36,32,20,51,24*73
$GPGSV,6,4,21,65,10,202,24,70,11,30,,71,60,48,37,72,57,185,35*7D
$GPGSV,6,5,21,77,5,274,,78,6,325,,85,14,117,,86,60,78,38*43
$GPGSV,6,6,21,87,42,330,38*48
$GPRMC,200047.00,A,3844.6691,N,00908.0705,W,1.724,214.459,130617,,E,A*05
$GPGGA,200048.00,3844.6687,N,00908.0700,W,1,14,0.819,135.213,M,,M,0,*5E
$GPGSA,A,3,1,3,8,11,14,17,22,27,28,32,71,72,1.326,0.819,1.042*07
$GPGSV,6,1,21,1,67,345,39,3,55,225,39,4,62,45,,8,44,142,44*47
$GPGSV,6,2,21,11,75,46,34,14,29,71,43,17,14,315,34,22,85,214,35*79
$GPGSV,6,3,21,23,6,178,,27,10,139,27,28,34,283,36,32,20,51,24*7C
$GPGSV,6,4,21,65,10,202,24,70,11,30,,71,60,48,37,72,57,185,42*7D
$GPGSV,6,5,21,77,5,274,,78,6,325,,85,14,117,,86,60,78,40*4C
$GPGSV,6,6,21,87,42,330,36*46
$GPRMC,200048.00,A,3844.6687,N,00908.0700,W,0.784,149.943,130617,,E,A*0E
$GPGGA,200049.00,3844.6682,N,00908.0694,W,1,14,0.819,134.495,M,,M,0,*5F
$GPGSA,A,3,1,3,8,11,14,17,22,27,28,32,71,72,1.326,0.819,1.042*07
$GPGSV,6,1,21,1,67,345,39,3,55,225,38,4,62,45,,8,44,142,45*47
$GPGSV,6,2,21,11,75,46,37,14,29,71,43,17,14,315,34,22,85,214,36*79
$GPGSV,6,3,21,23,6,178,,27,10,139,29,28,34,283,36,32,20,50,26*71
$GPGSV,6,4,21,65,10,202,23,70,11,30,,71,60,48,36,72,57,185,40*79
$GPGSV,6,5,21,77,5,274,,78,6,325,,85,14,117,,86,60,78,39*42
$GPGSV,6,6,21,87,42,330,34*44
$GPRMC,200049.00,A,3844.6682,N,00908.0694,W,1.358,159.432,130617,,E,A*08
$GPGGA,200050.00,3844.6676,N,00908.0687,W,1,15,0.736,134.504,M,,M,0,*54
$GPGSA,A,3,1,3,8,11,14,17,22,27,28,32,65,71,1.187,0.736,0.931*06
$GPGSV,6,1,21,1,67,345,41,3,55,225,42,4,62,45,,8,44,142,45*45
$GPGSV,6,2,21,11,75,46,36,14,29,71,43,17,14,315,34,22,85,214,41*78
$GPGSV,6,3,21,23,6,178,,27,10,139,25,28,34,283,37,32,20,50,27*7D
$GPGSV,6,4,21,65,10,202,25,70,11,30,,71,60,48,40,72,57,185,39*70
$GPGSV,6,5,21,77,5,274,,78,6,325,,85,14,117,,86,60,78,36*4D
$GPGSV,6,6,21,87,42,330,36*46
$GPRMC,200050.00,A,3844.6676,N,00908.0687,W,2.348,160.138,130617,,E,A*0E
$GPGGA,200051.00,3844.6670,N,00908.0680,W,1,15,0.736,134.543,M,,M,0,*57
$GPGSA,A,3,1,3,8,11,14,17,22,27,28,32,65,71,1.187,0.736,0.931*06
$GPGSV,6,1,21,1,67,345,40,3,55,225,38,4,62,45,,8,44,142,42*4E
$GPGSV,6,2,21,11,75,46,35,14,29,71,43,17,14,315,34,22,85,214,39*74
$GPGSV,6,3,21,23,6,178,,27,10,139,26,28,34,283,35,32,20,50,28*73
$GPGSV,6,4,21,65,10,202,26,70,11,30,,71,60,48,38,72,57,185,39*7C
$GPGSV,6,5,21,77,5,274,,78,6,325,,85,14,117,,86,60,78,40*4C
$GPGSV,6,6,21,87,42,330,37*47
$GPRMC,200051.00,A,3844.6670,N,00908.0680,W,1.849,165.965,130617,,E,A*02
$GPGGA,200052.00,3844.6666,N,00908.0675,W,1,15,0.736,134.611,M,,M,0,*5D
$GPGSA,A,3,1,3,8,11,14,17,22,27,28,32,65,71,1.187,0.736,0.931*06
$GPGSV,6,1,21,1,67,345,35,3,55,225,37,4,62,45,,8,44,142,40*41
$GPGSV,6,2,21,11,75,46,32,14,29,71,42,17,14,315,34,22,85,214,37*7C
$GPGSV,6,3,21,23,7,178,,27,10,139,24,28,34,283,35,32,20,50,28*70
$GPGSV,6,4,21,65,10,202,25,70,11,30,,71,60,48,40,72,57,185,38*71
$GPGSV,6,5,21,77,5,274,,78,6,325,,85,14,117,,86,60,78,35*4E
$GPGSV,6,6,21,87,42,330,34*44
$GPRMC,200052.00,A,3844.6666,N,00908.0675,W,1.479,165.607,130617,,E,A*08
$GPGGA,200053.00,3844.6662,N,00908.0667,W,1,15,0.736,134.610,M,,M,0,*5A
$GPGSA,A,3,1,3,8,11,14,17,22,27,28,32,65,71,1.187,0.736,0.931*06
$GPGSV,6,1,21,1,67,345,40,3,55,225,36,4,62,45,,8,44,142,37*42
$GPGSV,6,2,21,11,75,46,34,14,29,71,43,17,14,315,35,22,85,214,35*78
$GPGSV,6,3,21,23,7,178,,27,10,139,27,28,34,283,35,32,20,50,30*7A
$GPGSV,6,4,21,65,10,202,25,70,11,30,,71,60,48,39,72,57,185,38*7F
$GPGSV,6,5,21,77,5,274,,78,6,325,,85,14,117,,86,60,78,41*4D
$GPGSV,6,6,21,87,42,330,36*46
$GPRMC,200053.00,A,3844.6662,N,00908.0667,W,1.510,157.780,130617,,E,A*0F
$GPGGA,200054.00,3844.6657,N,00908.0662,W,1,14,0.819,134.838,M,,M,0,*59
$GPGSA,A,3,1,3,8,11,14,17,22,27,28,32,71,72,1.325,0.819,1.042*04
$GPGSV,6,1,21,1,67,345,42,3,55,225,39,4,62,45,,8,44,142,37*4F
$GPGSV,6,2,21,11,75,46,34,14,29,71,41,17,14,315,35,22,85,214,37*78
$GPGSV,6,3,21,23,7,178,,27,10,139,23,28,34,283,36,32,20,50,28*74
$GPGSV,6,4,21,65,10,202,21,70,11,30,,71,60,48,40,72,57,185,36*7B
$GPGSV,6,5,21,77,5,274,,78,6,325,,85,14,117,,86,60,78,39*42
$GPGSV,6,6,21,87,42,330,38*48
$GPRMC,200054.00,A,3844.6657,N,00908.0662,W,0.000,157.780,130617,,E,A*0E
$GPGGA,200055.00,3844.6653,N,00908.0658,W,1,14,0.819,134.141,M,,M,0,*52
$GPGSA,A,3,1,3,8,11,14,17,22,27,28,32,71,72,1.325,0.819,1.042*04
$GPGSV,6,1,21,1,67,345,39,3,55,225,40,4,62,45,,8,44,142,39*43
$GPGSV,6,2,21,11,75,46,35,14,29,70,40,17,14,315,36,22,85,214,39*74
$GPGSV,6,3,21,23,7,178,,27,10,139,25,28,34,283,35,32,20,50,29*70
$GPGSV,6,4,21,65,10,202,23,70,11,30,,71,60,48,40,72,57,185,33*7C
$GPGSV,6,5,21,77,5,274,,78,6,325,,85,14,117,,86,60,78,38*43
$GPGSV,6,6,21,87,42,330,35*45
$GPRMC,200055.00,A,3844.6653,N,00908.0658,W,0.000,157.780,130617,,E,A*02
$GPGGA,200056.00,3844.6653,N,00908.0658,W,1,14,0.819,134.141,M,,M,0,*51
$GPGSA,A,3,1,3,8,11,14,17,22,27,28,32,71,72,1.325,0.819,1.042*04
$GPGSV,6,1,21,1,67,345,37,3,55,225,42,4,62,45,,8,44,142,39*4F
$GPGSV,6,2,21,11,75,46,35,14,29,70,40,17,14,315,33,22,85,214,41*7E
$GPGSV,6,3,21,23,7,178,,27,10,139,26,28,34,283,34,32,20,50,28*73
$GPGSV,6,4,21,65,10,202,23,70,11,30,,71,60,48,44,72,57,185,39*72
$GPGSV,6,5,21,77,5,274,,78,6,325,,85,14,117,,86,60,78,42*4E
$GPGSV,6,6,21,87,42,330,37*47
$GPRMC,200056.00,A,3844.6653,N,00908.0658,W,0.000,157.780,130617,,E,A*01
$GPGGA,200057.00,3844.6653,N,00908.0658,W,1,14,0.819,134.141,M,,M,0,*50
$GPGSA,A,3,1,3,8,11,14,17,22,27,28,32,71,72,1.325,0.819,1.042*04
$GPGSV,6,1,21,1,67,345,38,3,55,225,39,4,62,45,,8,44,142,37*42
$GPGSV,6,2,21,11,75,46,35,14,29,70,38,17,14,315,32,22,85,214,39*7F
$GPGSV,6,3,21,23,7,178,,27,10,139,23,28,34,283,37,32,20,50,33*7F
$GPGSV,6,4,21,65,10,202,23,70,11,30,,71,60,48,41,72,57,185,36*78
$GPGSV,6,5,21,77,5,274,,78,6,325,,85,14,117,,86,60,78,40*4C
$GPGSV,6,6,21,87,42,330,37*47
$GPRMC,200057.00,A,3844.6653,N,00908.0658,W,0.000,157.780,130617,,E,A*00
$GPGGA,200058.00,3844.6653,N,00908.0658,W,1,14,0.819,134.141,M,,M,0,*5F
$GPGSA,A,3,1,3,8,11,14,17,22,27,28,32,71,72,1.325,0.819,1.042*04
$GPGSV,6,1,21,1,67,345,38,3,55,225,41,4,62,45,,8,44,142,34*4E
$GPGSV,6,2,21,11,75,46,38,14,29,70,36,17,14,315,34,22,85,214,40*74
$GPGSV,6,3,21,23,7,178,,27,10,139,22,28,34,283,36,32,20,50,36*7A
$GPGSV,6,4,21,65,10,202,21,70,11,30,,71,60,48,41,72,57,185,40*7B
$GPGSV,6,5,21,77,5,274,,78,6,325,,85,14,118,,86,60,78,39*4D
$GPGSV,6,6,21,87,42,330,38*48
$GPRMC,200058.00,A,3844.6653,N,00908.0658,W,0.000,157.780,130617,,E,A*0F
$GPGGA,200059.00,3844.6651,N,00908.0654,W,1,14,0.819,134.214,M,,M,0,*53
$GPGSA,A,3,1,3,8,11,14,17,22,27,28,32,71,72,1.325,0.819,1.042*04
$GPGSV,6,1,21,1,67,345,38,3,55,225,38,4,62,45,,8,44,142,37*43
$GPGSV,6,2,21,11,75,46,37,14,29,70,35,17,14,315,34,22,85,214,42*7A
$GPGSV,6,3,21,23,7,178,,27,10,139,24,28,34,283,34,32,20,50,37*7F
$GPGSV,6,4,21,65,10,202,22,70,11,30,,71,60,48,39,72,57,185,37*77
$GPGSV,6,5,21,77,5,274,,78,6,325,,85,14,118,,86,60,78,37*43
$GPGSV,6,6,21,87,42,330,36*46
$GPRMC,200059.00,A,3844.6651,N,00908.0654,W,1.817,157.780,130617,,E,A*0F
$GPGGA,200100.00,3844.6648,N,00908.0652,W,1,15,0.736,133.575,M,,M,0,*54
$GPGSA,A,3,1,3,8,11,14,17,22,27,28,32,65,71,1.187,0.736,0.931*06
$GPGSV,6,1,21,1,67,345,38,3,55,225,39,4,62,45,,8,44,142,41*43
$GPGSV,6,2,21,11,75,46,38,14,29,70,35,17,14,315,36,22,85,214,43*76
$GPGSV,6,3,21,23,7,178,,27,10,139,23,28,34,283,35,32,20,50,39*77
$GPGSV,6,4,21,65,10,202,26,70,11,30,,71,60,48,41,72,57,185,41*7D
$GPGSV,6,5,21,77,5,274,,78,6,325,,85,14,118,,86,60,78,41*42
$GPGSV,6,6,21,87,42,330,42*45
$GPRMC,200100.00,A,3844.6648,N,00908.0652,W,1.657,157.780,130617,,E,A*06
$GPGGA,200101.00,3844.6646,N,00908.0650,W,1,14,0.819,133.494,M,,M,0,*54
$GPGSA,A,3,1,3,8,11,14,17,22,27,28,32,71,72,1.325,0.819,1.041*07
$GPGSV,6,1,21,1,67,345,43,3,55,225,40,4,62,45,,8,44,142,38*4F
$GPGSV,6,2,21,11,75,46,38,14,29,70,29,17,14,315,36,22,85,214,43*7B
$GPGSV,6,3,21,23,7,178,,27,10,139,24,28,34,283,40,32,20,50,40*7C
$GPGSV,6,4,21,65,10,202,22,70,11,30,,71,60,48,41,72,57,185,37*78
$GPGSV,6,5,21,77,5,274,,78,6,325,,85,14,118,,86,60,78,44*47
$GPGSV,6,6,21,87,42,330,41*46
$GPRMC,200101.00,A,3844.6646,N,00908.0650,W,1.526,157.780,130617,,E,A*0E
$GPGGA,200102.00,3844.6643,N,00908.0646,W,1,14,0.819,133.493,M,,M,0,*52
$GPGSA,A,3,1,3,8,11,14,17,22,27,28,32,71,72,1.325,0.819,1.041*07
$GPGSV,6,1,21,1,67,345,40,3,55,225,37,4,62,45,,8,44,142,40*43
$GPGSV,6,2,21,11,75,46,34,14,29,70,33,17,14,315,38,22,85,214,42*73
$GPGSV,6,3,21,23,7,178,,27,10,139,27,28,34,283,38,32,20,50,39*7E
$GPGSV,6,4,21,65,10,202,22,70,11,30,,71,60,48,35,72,57,185,38*74
$GPGSV,6,5,21,77,5,274,,78,6,325,,85,14,118,,86,60,78,39*4D
$GPGSV,6,6,21,87,42,330,42*45
$GPRMC,200102.00,A,3844.6643,N,00908.0646,W,2.241,97.977,130617,,E,A*31
$GPGGA,200103.00,3844.6642,N,00908.0640,W,1,14,0.819,133.533,M,,M,0,*5F
$GPGSA,A,3,1,3,8,11,14,17,22,27,28,32,71,72,1.325,0.819,1.041*07
$GPGSV,6,1,21,1,67,346,40,3,55,225,37,4,62,45,,8,44,142,38*4F
$GPGSV,6,2,21,11,75,46,34,14,29,70,29,17,14,315,35,22,85,214,41*76
$GPGSV,6,3,21,23,7,178,,27,10,139,27,28,34,283,40,32,20,50,39*71
$GPGSV,6,4,21,65,10,202,22,70,11,30,,71,60,48,38,72,57,185,39*78
$GPGSV,6,5,21,77,5,274,,78,6,325,,85,14,118,,86,60,78,36*42
$GPGSV,6,6,21,87,42,330,41*46
$GPRMC,200103.00,A,3844.6642,N,00908.0640,W,1.595,147.584,130617,,E,A*06
$GPGGA,200104.00,3844.6638,N,00908.0636,W,1,14,0.819,133.623,M,,M,0,*56
$GPGSA,A,3,1,3,8,11,14,17,22,27,28,32,71,72,1.325,0.819,1.041*07
$GPGSV,6,1,21,1,67,346,41,3,55,225,38,4,62,45,,8,44,142,37*4E
$GPGSV,6,2,21,11,75,47,31,14,29,70,26,17,14,315,39,22,85,214,37*70
$GPGSV,6,3,21,23,7,178,,27,10,139,24,28,34,283,39,32,20,50,40*72
$GPGSV,6,4,21,65,10,202,22,70,11,30,,71,60,48,34,72,57,185,35*78
$GPGSV,6,5,21,77,5,274,,78,6,325,,85,14,118,,86,60,78,34*40
$GPGSV,6,6,21,87,42,330,39*49
$GPRMC,200104.00,A,3844.6638,N,00908.0636,W,2.351,153.069,130617,,E,A*03
$GPGGA,200105.00,3844.6635,N,00908.0634,W,1,14,0.819,133.765,M,,M,0,*5B
$GPGSA,A,3,1,3,8,11,14,17,22,27,28,32,71,72,1.325,0.819,1.041*07
$GPGSV,6,1,21,1,67,346,41,3,55,225,36,4,62,45,,8,44,142,45*45
$GPGSV,6,2,21,11,75,47,31,14,29,70,29,17,14,315,37,22,85,214,36*70
$GPGSV,6,3,21,23,7,178,,27,10,139,25,28,34,283,37,32,20,50,41*7C
$GPGSV,6,4,21,65,10,202,19,70,11,30,,71,60,48,32,72,57,185,37*74
$GPGSV,6,5,21,77,5,274,,78,6,325,,85,14,118,,86,60,78,31*45
$GPGSV,6,6,21,87,42,330,40*47
$GPRMC,200105.00,A,3844.6635,N,00908.0634,W,1.556,179.582,130617,,E,A*07
$GPGGA,200106.00,3844.6631,N,00908.0634,W,1,14,0.819,133.790,M,,M,0,*56
$GPGSA,A,3,1,3,8,11,14,17,22,27,28,32,71,72,1.325,0.819,1.041*07
$GPGSV,6,1,21,1,67,346,38,3,55,225,40,4,62,45,,8,44,142,41*4E
$GPGSV,6,2,21,11,75,47,31,14,29,70,28,17,14,315,37,22,86,214,34*70
$GPGSV,6,3,21,23,7,178,,27,10,139,24,28,34,283,36,32,20,50,44*79
$GPGSV,6,4,21,65,10,202,18,70,11,30,,71,60,48,32,72,57,185,37*75
$GPGSV,6,5,21,77,5,274,,78,6,325,,85,14,118,,86,60,78,29*4C
$GPGSV,6,6,21,87,42,330,42*45
$GPRMC,200106.00,A,3844.6631,N,00908.0634,W,1.620,180.266,130617,,E,A*09
$GPGGA,200107.00,3844.6624,N,00908.0633,W,1,14,0.819,133.224,M,,M,0,*5E
$GPGSA,A,3,1,3,8,11,14,17,22,27,28,32,71,72,1.325,0.819,1.041*07
$GPGSV,6,1,21,1,67,346,35,3,55,225,36,4,62,45,,8,44,142,44*47
$GPGSV,6,2,21,11,75,47,32,14,29,70,25,17,14,315,38,22,86,214,35*70
$GPGSV,6,3,21,23,7,178,,27,10,139,22,28,34,283,35,32,20,50,43*7B
$GPGSV,6,4,21,65,10,202,18,70,11,30,,71,60,48,30,72,57,185,32*72
$GPGSV,6,5,21,77,5,274,,78,6,325,,85,14,118,,86,60,78,35*41
$GPGSV,6,6,21,87,42,330,41*46
$GPRMC,200107.00,A,3844.6624,N,00908.0633,W,0.000,180.266,130617,,E,A*0E
$GPGGA,200108.00,3844.6619,N,00908.0631,W,1,14,0.819,133.420,M,,M,0,*5F
$GPGSA,A,3,1,3,8,11,14,17,22,27,28,32,71,72,1.325,0.819,1.041*07
$GPGSV,6,1,21,1,67,346,36,3,55,225,39,4,62,45,,8,44,142,45*4A
$GPGSV,6,2,21,11,75,47,31,14,29,70,29,17,14,315,38,22,86,214,37*7D
$GPGSV,6,3,21,23,7,178,,27,10,139,21,28,34,283,34,32,20,50,38*75
$GPGSV,6,4,21,65,10,202,15,70,11,30,,71,60,48,32,72,57,185,32*7D
$GPGSV,6,5,21,77,5,274,,78,6,325,,85,14,118,,86,60,78,28*4D
$GPGSV,6,6,21,87,42,330,36*46
$GPRMC,200108.00,A,3844.6619,N,00908.0631,W,1.640,180.266,130617,,E,A*0E
$GPGGA,200109.00,3844.6609,N,00908.0628,W,1,14,0.819,133.427,M,,M,0,*50
$GPGSA,A,3,1,3,8,11,14,17,22,27,28,32,71,72,1.325,0.819,1.041*07
$GPGSV,6,1,21,1,67,346,38,3,55,225,37,4,62,45,,8,44,142,44*4B
$GPGSV,6,2,21,11,75,47,31,14,29,70,28,17,14,315,35,22,86,214,39*7F
$GPGSV,6,3,21,23,7,178,,27,10,139,22,28,34,283,34,32,20,50,35*7B
$GPGSV,6,4,21,65,10,202,18,70,11,30,,71,60,48,30,72,57,185,26*77
$GPGSV,6,5,21,77,5,274,,78,6,325,,85,14,118,,86,60,78,35*41
$GPGSV,6,6,21,87,42,330,36*46
$GPRMC,200109.00,A,3844.6609,N,00908.0628,W,2.683,165.776,130617,,E,A*05
$GPGGA,200110.00,3844.6600,N,00908.0628,W,1,13,0.862,133.181,M,,M,0,*53
$GPGSA,A,3,1,3,8,11,14,17,22,27,28,32,71,86,1.359,0.862,1.050*0B
$GPGSV,6,1,21,1,67,346,37,3,55,225,39,4,62,45,,8,44,142,42*4C
$GPGSV,6,2,21,11,75,47,31,14,29,70,26,17,14,315,37,22,86,214,41*7C
$GPGSV,6,3,21,23,7,178,,27,10,139,19,28,34,283,34,32,20,50,29*7E
$GPGSV,6,4,21,65,10,202,17,70,11,30,,71,60,48,34,72,57,185,23*79
$GPGSV,6,5,21,77,5,274,,78,6,325,,85,14,118,,86,60,78,37*43
$GPGSV,6,6,21,87,42,330,37*47
$GPRMC,200110.00,A,3844.6600,N,00908.0628,W,2.149,188.461,130617,,E,A*03
$GPGGA,200111.00,3844.6591,N,00908.0627,W,1,14,0.819,133.007,M,,M,0,*52
$GPGSA,A,3,1,3,8,11,14,17,22,27,28,32,71,72,1.325,0.819,1.041*07
$GPGSV,6,1,21,1,67,346,36,3,55,225,36,4,62,45,,8,44,142,42*42
$GPGSV,6,2,21,11,75,47,32,14,29,70,29,17,14,315,37,22,86,214,39*7F
$GPGSV,6,3,21,23,7,178,,27,10,139,15,28,34,283,35,32,20,50,27*7D
$GPGSV,6,4,21,65,10,202,21,70,11,30,,71,60,48,37,72,57,185,28*74
$GPGSV,6,5,21,77,5,274,,78,6,325,,85,14,118,,86,60,78,35*41
$GPGSV,6,6,21,87,42,330,34*44
$GPRMC,200111.00,A,3844.6591,N,00908.0627,W,1.704,187.209,130617,,E,A*0D
$GPGGA,200112.00,3844.6583,N,00908.0622,W,1,14,0.819,132.862,M,,M,0,*5D
$GPGSA,A,3,1,3,8,11,14,17,22,27,28,32,71,72,1.325,0.819,1.041*07
$GPGSV,6,1,21,1,67,346,37,3,55,225,35,4,62,45,,8,44,142,41*43
$GPGSV,6,2,21,11,75,47,35,14,29,70,29,17,14,315,38,22,86,214,42*7B
$GPGSV,6,3,21,23,7,178,,27,10,139,19,28,34,283,35,32,20,50,25*73
$GPGSV,6,4,21,65,10,202,20,70,11,30,,71,60,48,38,72,57,185,26*74
$GPGSV,6,5,21,77,5,274,,78,6,325,,85,14,118,,86,60,78,36*42
$GPGSV,6,6,21,87,42,330,33*43
$GPRMC,200112.00,A,3844.6583,N,00908.0622,W,2.383,143.821,130617,,E,A*08
$GPGGA,200113.00,3844.6576,N,00908.0617,W,1,14,0.819,132.184,M,,M,0,*51
$GPGSA,A,3,1,3,8,11,14,17,22,27,28,32,71,72,1.325,0.819,1.041*07
$GPGSV,6,1,21,1,67,346,38,3,55,225,35,4,62,45,,8,44,142,39*43
$GPGSV,6,2,21,11,75,47,38,14,29,70,28,17,14,315,42,22,86,214,41*79
$GPGSV,6,3,21,23,7,178,,27,10,139,20,28,34,283,34,32,20,50,27*7A
$GPGSV,6,4,21,65,10,202,,70,11,30,,71,60,48,38,72,57,185,26*76
$GPGSV,6,5,21,77,5,274,,78,6,325,,85,14,118,,86,60,78,41*42
$GPGSV,6,6,21,87,42,330,35*45
$GPRMC,200113.00,A,3844.6576,N,00908.0617,W,1.599,168.252,130617,,E,A*0C
$GPGGA,200114.00,3844.6576,N,00908.0616,W,1,13,0.862,132.191,M,,M,0,*58
$GPGSA,A,3,1,3,8,11,14,17,22,27,28,32,71,86,1.358,0.862,1.050*0A
$GPGSV,6,1,21,1,67,346,39,3,55,225,35,4,62,45,,8,44,142,36*4D
$GPGSV,6,2,21,11,75,47,39,14,29,70,27,17,14,315,43,22,86,214,35*75
$GPGSV,6,3,21,23,7,178,,27,10,139,18,28,34,283,33,32,20,50,24*75
$GPGSV,6,4,21,65,10,202,,70,11,30,,71,60,48,39,72,57,185,22*73
$GPGSV,6,5,21,77,5,274,,78,6,325,,85,13,118,,86,60,78,35*46
$GPGSV,6,6,21,87,42,330,36*46
$GPRMC,200114.00,A,3844.6576,N,00908.0616,W,0.823,168.252,130617,,E,A*07
$GPGGA,200115.00,3844.6579,N,00908.0623,W,1,14,0.819,131.432,M,,M,0,*54
$GPGSA,A,3,1,3,8,11,14,17,22,27,28,32,71,72,1.325,0.819,1.041*07
$GPGSV,6,1,21,1,67,346,42,3,55,225,33,4,62,45,,8,44,142,35*44
$GPGSV,6,2,21,11,75,47,36,14,29,70,22,17,14,315,43,22,86,214,33*79
$GPGSV,6,3,21,23,7,178,,27,10,139,23,28,34,283,36,32,20,50,25*79
$GPGSV,6,4,21,65,10,202,,70,11,30,,71,60,48,33,72,57,185,26*7D
$GPGSV,6,5,21,77,5,274,,78,6,325,,85,13,118,,86,60,78,31*42
$GPGSV,6,6,21,87,42,330,41*46
$GPRMC,200115.00,A,3844.6579,N,00908.0623,W,1.521,168.252,130617,,E,A*01
$GPGGA,200116.00,3844.6582,N,00908.0632,W,1,13,0.861,130.642,M,,M,0,*5F
$GPGSA,A,3,1,3,8,11,14,17,22,27,28,32,71,86,1.358,0.861,1.050*09
$GPGSV,6,1,21,1,67,346,42,3,55,225,32,4,62,45,,8,44,142,28*49
$GPGSV,6,2,21,11,75,47,36,14,29,70,25,17,14,315,42,22,86,214,35*79
$GPGSV,6,3,21,23,7,178,,27,10,139,20,28,34,283,34,32,20,50,27*7A
$GPGSV,6,4,21,65,10,202,,70,11,30,,71,60,48,32,72,57,185,24*7E
$GPGSV,6,5,21,77,5,274,,78,6,325,,85,13,118,,86,60,78,29*4B
$GPGSV,6,6,21,87,42,330,41*46
$GPRMC,200116.00,A,3844.6582,N,00908.0632,W,2.380,274.054,130617,,E,A*02
$GPGGA,200117.00,3844.6584,N,00908.0646,W,1,13,0.861,129.685,M,,M,0,*58
$GPGSA,A,3,1,3,8,11,14,17,22,27,28,32,71,86,1.358,0.861,1.050*09
$GPGSV,6,1,21,1,67,346,38,3,55,225,33,4,62,45,,8,44,142,29*44
$GPGSV,6,2,21,11,75,47,37,14,29,70,29,17,14,315,40,22,86,214,35*76
$GPGSV,6,3,21,23,7,178,,27,10,139,26,28,34,283,39,32,20,50,30*77
$GPGSV,6,4,21,65,10,202,,70,11,30,,71,60,48,35,72,57,185,19*77
$GPGSV,6,5,21,77,5,274,,78,6,325,,85,13,118,,86,60,78,30*43
$GPGSV,6,6,21,87,42,330,42*45
$GPRMC,200117.00,A,3844.6584,N,00908.0646,W,1.656,301.630,130617,,E,A*0C
$GPGGA,200118.00,3844.6589,N,00908.0656,W,1,13,0.861,129.546,M,,M,0,*57
$GPGSA,A,3,1,3,8,11,14,17,22,27,28,32,71,86,1.358,0.861,1.050*09
$GPGSV,6,1,21,1,67,346,45,3,55,225,34,4,62,45,,8,44,142,32*43
$GPGSV,6,2,21,11,75,47,32,14,29,70,30,17,14,315,37,22,86,214,36*78
$GPGSV,6,3,21,23,7,178,,27,10,139,22,28,34,283,40,32,20,50,28*74
$GPGSV,6,4,21,65,10,202,,70,11,30,,71,60,48,37,72,57,185,22*7D
$GPGSV,6,5,21,77,5,274,,78,6,325,,85,13,118,,86,60,78,33*40
$GPGSV,6,6,21,87,42,330,38*48
$GPRMC,200118.00,A,3844.6589,N,00908.0656,W,1.924,301.809,130617,,E,A*01
$GPGGA,200119.00,3844.6589,N,00908.0670,W,1,13,0.861,129.322,M,,M,0,*56
$GPGSA,A,3,1,3,8,11,14,17,22,27,28,32,71,86,1.358,0.861,1.050*09
$GPGSV,6,1,21,1,67,346,43,3,55,225,35,4,62,45,,8,44,142,31*47
$GPGSV,6,2,21,11,75,47,33,14,29,70,38,17,14,315,35,22,86,214,41*73
$GPGSV,6,3,21,23,7,178,,27,10,139,18,28,34,283,43,32,20,50,29*7F
$GPGSV,6,4,21,65,10,202,,70,11,30,,71,60,48,37,72,57,185,24*7B
$GPGSV,6,5,21,77,5,274,,78,6,325,,85,13,118,,86,60,78,34*47
$GPGSV,6,6,21,87,42,330,42*45
$GPRMC,200119.00,A,3844.6589,N,00908.0670,W,3.359,213.401,130617,,E,A*00
$GPGGA,200120.00,3844.6584,N,00908.0679,W,1,13,0.963,129.023,M,,M,0,*59
$GPGSA,A,3,1,3,8,11,14,17,22,28,32,71,72,86,1.689,0.963,1.388*05
$GPGSV,6,1,21,1,67,346,42,3,55,225,34,4,62,45,,8,44,142,30*46
$GPGSV,6,2,21,11,75,47,34,14,29,70,37,17,14,315,35,22,86,214,39*74
$GPGSV,6,3,21,23,7,178,,27,10,139,19,28,34,283,40,32,20,50,24*70
$GPGSV,6,4,21,65,10,202,,70,11,30,,71,60,48,39,72,57,185,26*77
$GPGSV,6,5,21,77,5,274,,78,6,325,,85,13,118,,86,60,78,30*43
$GPGSV,6,6,21,87,42,330,40*47
$GPRMC,200120.00,A,3844.6584,N,00908.0679,W,2.960,226.854,130617,,E,A*05
$GPGGA,200121.00,3844.6582,N,00908.0690,W,1,12,1.048,129.446,M,,M,0,*5E
$GPGSA,A,3,1,3,8,11,14,17,22,28,32,71,86,87,1.744,1.048,1.394*03
$GPGSV,6,1,21,1,67,346,41,3,55,225,35,4,62,45,,8,44,142,29*4C
$GPGSV,6,2,21,11,75,47,35,14,29,70,36,17,15,315,35,22,86,214,40*7B
$GPGSV,6,3,21,23,7,178,,27,10,139,23,28,34,283,40,32,20,50,27*7A
$GPGSV,6,4,21,65,10,202,,70,11,30,,71,60,48,38,72,57,185,23*73
$GPGSV,6,5,21,77,5,274,,78,6,325,,85,13,118,,86,60,78,33*40
$GPGSV,6,6,21,87,42,330,42*45
$GPRMC,200121.00,A,3844.6582,N,00908.0690,W,2.479,266.032,130617,,E,A*0C
$GPGGA,200122.00,3844.6581,N,00908.0699,W,1,12,1.047,129.719,M,,M,0,*51
$GPGSA,A,3,1,3,8,11,14,17,22,28,32,71,86,87,1.744,1.047,1.394*0C
$GPGSV,6,1,21,1,67,346,41,3,55,225,36,4,62,45,,8,44,142,28*4E
$GPGSV,6,2,21,11,75,47,34,14,29,70,37,17,15,315,35,22,86,214,38*74
$GPGSV,6,3,21,23,7,178,,27,10,139,24,28,34,283,39,32,20,50,27*73
$GPGSV,6,4,21,65,10,202,,70,11,30,,71,60,48,35,72,57,185,24*79
$GPGSV,6,5,21,77,5,274,,78,6,325,,85,13,118,,86,60,78,28*4A
$GPGSV,6,6,21,87,42,330,40*47
$GPRMC,200122.00,A,3844.6581,N,00908.0699,W,2.772,236.327,130617,,E,A*0F
$GPGGA,200123.00,3844.6578,N,00908.0708,W,1,13,0.963,130.005,M,,M,0,*52
$GPGSA,A,3,1,3,8,11,14,17,22,28,32,71,72,86,1.689,0.963,1.388*05
$GPGSV,6,1,21,1,67,346,35,3,55,225,35,4,62,45,,8,44,142,26*40
$GPGSV,6,2,21,11,75,47,37,14,29,70,35,17,15,315,37,22,86,214,39*76
$GPGSV,6,3,21,23,7,178,,27,10,139,22,28,34,283,42,32,20,50,27*79
$GPGSV,6,4,21,65,10,202,,70,11,30,,71,60,48,32,72,57,185,25*7F
$GPGSV,6,5,21,77,5,274,,78,6,325,,85,13,118,,86,60,78,27*45
$GPGSV,6,6,21,87,42,330,36*46
$GPRMC,200123.00,A,3844.6578,N,00908.0708,W,2.151,262.673,130617,,E,A*03
$GPGGA,200124.00,3844.6574,N,00908.0718,W,1,13,0.963,129.802,M,,M,0,*5F
$GPGSA,A,3,1,3,8,11,14,17,22,28,32,71,72,86,1.689,0.963,1.388*05
$GPGSV,6,1,21,1,67,346,37,3,55,225,39,4,62,45,,8,44,142,28*40
$GPGSV,6,2,21,11,75,47,33,14,29,70,33,17,15,315,39,22,86,214,40*74
$GPGSV,6,3,21,23,7,178,,27,10,139,21,28,34,283,45,32,20,50,31*7A
$GPGSV,6,4,21,65,10,202,,70,11,30,,71,60,48,36,72,57,185,26*78
$GPGSV,6,5,21,77,5,274,,78,6,325,,85,13,118,,86,60,78,29*4B
$GPGSV,6,6,21,87,42,330,35*45
$GPRMC,200124.00,A,3844.6574,N,00908.0718,W,2.507,222.365,130617,,E,A*08
$GPGGA,200125.00,3844.6570,N,00908.0729,W,1,12,1.047,130.040,M,,M,0,*51
$GPGSA,A,3,1,3,8,11,14,17,22,28,32,71,86,87,1.743,1.047,1.394*0B
$GPGSV,6,1,21,1,67,346,35,3,55,225,40,4,62,45,,8,44,142,30*45
$GPGSV,6,2,21,11,75,47,35,14,29,70,35,17,15,315,38,22,86,214,38*7A
$GPGSV,6,3,21,23,7,178,,27,10,139,25,28,34,283,43,32,20,50,32*7B
$GPGSV,6,4,21,65,10,202,,70,11,30,,71,60,48,34,72,57,185,24*78
$GPGSV,6,5,21,77,5,274,,78,6,325,,85,13,118,,86,60,78,29*4B
$GPGSV,6,6,21,87,42,330,37*47
$GPRMC,200125.00,A,3844.6570,N,00908.0729,W,1.624,256.726,130617,,E,A*0E
$GPGGA,200126.00,3844.6564,N,00908.0736,W,1,12,1.047,130.164,M,,M,0,*5E
$GPGSA,A,3,1,3,8,11,14,17,22,28,32,71,86,87,1.743,1.047,1.394*0B
$GPGSV,6,1,21,1,67,346,36,3,55,225,42,4,62,45,,8,44,142,30*44
$GPGSV,6,2,21,11,75,47,32,14,29,70,33,17,15,315,36,22,86,214,42*78
$GPGSV,6,3,21,23,7,178,,27,10,139,25,28,34,283,41,32,20,50,29*73
$GPGSV,6,4,21,65,10,202,,70,11,30,,71,60,48,32,72,57,185,21*7B
$GPGSV,6,5,21,77,5,274,,78,6,325,,85,13,118,,86,60,78,31*42
$GPGSV,6,6,21,87,42,330,32*42
$GPRMC,200126.00,A,3844.6564,N,00908.0736,W,2.140,231.821,130617,,E,A*09
$GPGGA,200127.00,3844.6553,N,00908.0745,W,1,12,1.047,130.065,M,,M,0,*5F
$GPGSA,A,3,1,3,8,11,14,17,22,28,32,71,86,87,1.743,1.047,1.394*0B
$GPGSV,6,1,21,1,67,346,35,3,55,225,45,4,62,45,,8,44,142,29*48
$GPGSV,6,2,21,11,75,47,36,14,29,70,33,17,15,315,40,22,86,214,39*71
$GPGSV,6,3,21,23,7,178,,27,10,139,24,28,34,283,42,32,20,50,28*70
$GPGSV,6,4,21,65,10,202,,70,11,30,,71,60,48,29,72,57,185,22*72
$GPGSV,6,5,21,77,5,273,,78,6,325,,85,13,118,,86,60,78,33*47
$GPGSV,6,6,21,87,42,330,38*48
$GPRMC,200127.00,A,3844.6553,N,00908.0745,W,1.799,248.553,130617,,E,A*0F
$GPGGA,200128.00,3844.6546,N,00908.0754,W,1,13,0.963,129.647,M,,M,0,*55
$GPGSA,A,3,1,3,8,11,14,17,22,28,32,71,72,86,1.689,0.963,1.388*05
$GPGSV,6,1,21,1,67,346,35,3,55,225,43,4,62,45,,8,44,142,28*4F
$GPGSV,6,2,21,11,75,47,34,14,29,70,30,17,15,315,39,22,86,214,41*71
$GPGSV,6,3,21,23,7,178,,27,10,139,24,28,34,282,39,32,20,50,31*75
$GPGSV,6,4,21,65,10,202,,70,11,30,,71,60,48,31,72,57,185,35*7D
$GPGSV,6,5,21,77,5,273,,78,6,325,,85,13,118,,86,60,78,31*45
$GPGSV,6,6,21,87,42,330,36*46
$GPRMC,200128.00,A,3844.6546,N,00908.0754,W,1.537,257.170,130617,,E,A*09
$GPGGA,200129.00,3844.6535,N,00908.0765,W,1,13,0.963,128.991,M,,M,0,*57
$GPGSA,A,3,1,3,8,11,14,17,22,28,32,71,72,86,1.689,0.963,1.388*05
$GPGSV,6,1,21,1,67,346,35,3,55,225,45,4,62,45,,8,44,142,29*48
$GPGSV,6,2,21,11,75,47,34,14,29,70,31,17,15,315,37,22,86,215,41*7F
$GPGSV,6,3,21,23,7,178,,27,10,139,23,28,34,282,43,32,20,50,28*77
$GPGSV,6,4,21,65,10,202,,70,11,30,,71,60,48,36,72,57,185,38*77
$GPGSV,6,5,21,77,5,273,,78,6,325,,85,13,118,,86,60,78,32*46
$GPGSV,6,6,21,87,42,330,37*47
$GPRMC,200129.00,A,3844.6535,N,00908.0765,W,1.936,248.305,130617,,E,A*0D
$GPGGA,200130.00,3844.6520,N,00908.0777,W,1,13,0.963,128.565,M,,M,0,*5F
$GPGSA,A,3,1,3,8,11,14,17,22,28,32,71,72,86,1.690,0.963,1.388*0D
$GPGSV,6,1,21,1,67,346,38,3,55,225,45,4,62,45,,8,44,142,28*44
$GPGSV,6,2,21,11,75,47,36,14,29,70,34,17,15,315,40,22,86,215,44*7D
$GPGSV,6,3,21,23,7,178,,27,10,139,22,28,34,282,41,32,20,50,32*7F
$GPGSV,6,4,21,65,10,202,,70,11,30,,71,60,48,37,72,57,185,36*78
$GPGSV,6,5,21,77,5,273,,78,6,325,,85,13,118,,86,60,78,29*4C
$GPGSV,6,6,21,87,42,330,41*46
$GPRMC,200130.00,A,3844.6520,N,00908.0777,W,2.485,232.541,130617,,E,A*0F
$GPGGA,200131.00,3844.6512,N,00908.0789,W,1,13,0.963,128.552,M,,M,0,*5A
$GPGSA,A,3,1,3,8,11,14,17,22,28,32,71,72,86,1.690,0.963,1.388*0D
$GPGSV,6,1,21,1,67,346,37,3,55,225,43,4,62,45,,8,44,143,28*4C
$GPGSV,6,2,21,11,75,47,33,14,29,70,33,17,15,315,40,22,86,215,43*78
$GPGSV,6,3,21,23,7,178,,27,10,139,21,28,34,282,43,32,20,50,31*7D
$GPGSV,6,4,21,65,10,202,,70,11,30,,71,60,48,34,72,57,185,39*74
$GPGSV,6,5,21,77,5,273,,78,6,325,,85,13,118,,86,60,78,31*45
$GPGSV,6,6,21,87,42,330,38*48
$GPRMC,200131.00,A,3844.6512,N,00908.0789,W,2.230,225.107,130617,,E,A*06
$GPGGA,200132.00,3844.6502,N,00908.0796,W,1,13,0.963,128.187,M,,M,0,*5A
$GPGSA,A,3,1,3,8,11,14,17,22,28,32,71,72,86,1.690,0.963,1.388*0D
$GPGSV,6,1,21,1,67,346,40,3,55,225,43,4,62,45,,8,44,143,30*45
$GPGSV,6,2,21,11,75,47,33,14,29,70,31,17,15,315,39,22,86,215,43*74
$GPGSV,6,3,21,23,7,178,,27,10,139,20,28,34,282,45,32,20,50,31*7A
$GPGSV,6,4,21,65,10,202,,70,11,30,,71,60,48,31,72,57,185,39*71
$GPGSV,6,5,21,77,5,273,,78,6,325,,85,13,118,,86,60,78,32*46
$GPGSV,6,6,21,87,42,330,43*44
$GPRMC,200132.00,A,3844.6502,N,00908.0796,W,1.655,234.571,130617,,E,A*0B
$GPGGA,200133.00,3844.6497,N,00908.0805,W,1,13,0.963,127.083,M,,M,0,*59
$GPGSA,A,3,1,3,8,11,14,17,22,28,32,71,72,86,1.690,0.963,1.388*0D
$GPGSV,6,1,21,1,67,346,42,3,55,225,43,4,62,45,,8,44,143,38*4F
$GPGSV,6,2,21,11,75,47,35,14,29,70,28,17,15,315,43,22,86,215,43*77
$GPGSV,6,3,21,23,7,178,,27,10,139,20,28,34,282,41,32,20,50,30*7F
$GPGSV,6,4,21,65,10,202,,70,11,30,,71,60,48,33,72,57,185,40*7D
$GPGSV,6,5,21,77,5,273,,78,6,325,,85,13,118,,86,60,78,35*41
$GPGSV,6,6,21,87,42,330,41*46
$GPRMC,200133.00,A,3844.6497,N,00908.0805,W,2.070,278.991,130617,,E,A*0A
$GPGGA,200134.00,3844.6499,N,00908.0818,W,1,13,0.963,128.461,M,,M,0,*5B
$GPGSA,A,3,1,3,8,11,14,17,22,28,32,71,72,86,1.690,0.963,1.388*0D
$GPGSV,6,1,21,1,67,346,41,3,55,225,42,4,62,45,,8,44,143,39*4C
$GPGSV,6,2,21,11,75,47,34,14,29,70,32,17,15,315,44,22,86,215,42*7B
$GPGSV,6,3,21,23,7,178,,27,10,139,19,28,34,282,38,32,20,50,28*72
$GPGSV,6,4,21,65,10,202,,70,11,30,,71,60,48,32,72,57,185,39*72
$GPGSV,6,5,21,77,5,273,,78,6,325,,85,13,118,,86,60,78,35*41
$GPGSV,6,6,21,87,42,330,43*44
$GPRMC,200134.00,A,3844.6499,N,00908.0818,W,2.168,240.735,130617,,E,A*0C
$GPGGA,200135.00,3844.6495,N,00908.0828,W,1,13,0.963,128.998,M,,M,0,*5E
$GPGSA,A,3,1,3,8,11,14,17,22,28,32,71,72,86,1.690,0.963,1.389*0C
$GPGSV,6,1,21,1,67,346,39,3,55,225,43,4,62,45,,8,44,143,40*4C
$GPGSV,6,2,21,11,75,48,35,14,29,70,31,17,15,315,45,22,86,215,42*77
$GPGSV,6,3,21,23,7,178,,27,10,139,21,28,34,282,39,32,20,50,27*77
$GPGSV,6,4,21,65,10,202,,70,11,30,,71,60,48,33,72,57,185,37*7D
$GPGSV,6,5,21,77,5,273,,78,6,325,,85,13,118,,86,60,78,33*47
$GPGSV,6,6,21,87,42,330,42*45
$GPRMC,200135.00,A,3844.6495,N,00908.0828,W,2.412,219.387,130617,,E,A*0B
$GPGGA,200136.00,3844.6488,N,00908.0835,W,1,13,0.963,128.031,M,,M,0,*57
$GPGSA,A,3,1,3,8,11,14,17,22,28,32,71,72,86,1.690,0.963,1.389*0C
$GPGSV,6,1,21,1,67,346,43,3,55,225,44,4,62,45,,8,44,143,40*46
$GPGSV,6,2,21,11,75,48,36,14,29,70,26,17,15,315,45,22,86,215,41*71
$GPGSV,6,3,21,23,7,178,,27,10,139,17,28,34,282,38,32,20,50,31*74
$GPGSV,6,4,21,65,10,202,,70,11,30,,71,60,48,31,72,57,185,39*71
$GPGSV,6,5,21,77,5,273,,78,6,325,,85,13,118,,86,60,78,32*46
$GPGSV,6,6,21,87,42,330,39*49
$GPRMC,200136.00,A,3844.6488,N,00908.0835,W,2.105,236.349,130617,,E,A*04
$GPGGA,200137.00,3844.6482,N,00908.0840,W,1,13,0.963,127.234,M,,M,0,*56
$GPGSA,A,3,1,3,8,11,14,17,22,28,32,71,72,86,1.690,0.963,1.389*0C
$GPGSV,6,1,21,1,67,346,41,3,55,225,42,4,62,45,,8,44,143,40*42
$GPGSV,6,2,21,11,75,48,36,14,29,70,28,17,15,315,44,22,86,215,39*71
$GPGSV,6,3,21,23,7,178,,27,10,139,17,28,34,282,38,32,20,50,30*75
$GPGSV,6,4,21,65,10,202,,70,11,30,,71,60,48,32,72,57,185,41*7D
$GPGSV,6,5,21,77,5,273,,78,6,325,,85,13,118,,86,60,79,37*42
$GPGSV,6,6,21,87,42,330,35*45
$GPRMC,200137.00,A,3844.6482,N,00908.0840,W,2.160,229.876,130617,,E,A*07
$GPGGA,200138.00,3844.6477,N,00908.0848,W,1,13,0.963,127.043,M,,M,0,*59
$GPGSA,A,3,1,3,8,11,14,17,22,28,32,71,72,86,1.690,0.963,1.389*0C
$GPGSV,6,1,21,1,67,346,43,3,55,225,41,4,62,45,,8,44,143,41*42
$GPGSV,6,2,21,11,75,48,34,14,29,70,24,17,15,315,42,22,86,215,40*77
$GPGSV,6,3,21,23,7,178,,27,10,139,19,28,34,282,39,32,20,50,29*72
$GPGSV,6,4,21,65,11,202,,70,11,30,,71,60,48,36,72,57,185,37*79
$GPGSV,6,5,21,77,5,273,,78,6,325,,85,13,118,,86,60,79,41*43
$GPGSV,6,6,21,87,42,330,40*47
$GPRMC,200138.00,A,3844.6477,N,00908.0848,W,2.435,217.193,130617,,E,A*00
$GPGGA,200139.00,3844.6473,N,00908.0857,W,1,13,0.963,127.065,M,,M,0,*56
$GPGSA,A,3,1,3,8,11,14,17,22,28,32,71,72,86,1.690,0.963,1.389*0C
$GPGSV,6,1,21,1,67,346,44,3,55,225,41,4,62,45,,8,44,143,43*47
$GPGSV,6,2,21,11,75,48,32,14,29,70,25,17,15,315,42,22,86,215,40*70
$GPGSV,6,3,21,23,7,178,,27,10,139,16,28,34,282,35,32,20,50,28*70
$GPGSV,6,4,21,65,11,202,,70,11,30,,71,60,48,39,72,57,185,35*74
$GPGSV,6,5,21,77,5,273,,78,6,325,,85,13,118,,86,60,79,42*40
$GPGSV,6,6,21,87,42,330,39*49
$GPRMC,200139.00,A,3844.6473,N,00908.0857,W,2.325,212.669,130617,,E,A*0A
$GPGGA,200140.00,3844.6467,N,00908.0862,W,1,13,0.963,126.492,M,,M,0,*56
$GPGSA,A,3,1,3,8,11,14,17,22,28,32,71,72,86,1.690,0.963,1.389*0C
$GPGSV,6,1,21,1,67,346,41,3,55,225,38,4,62,45,,8,44,143,40*4F
$GPGSV,6,2,21,11,75,48,36,14,29,70,20,17,15,315,41,22,86,215,42*70
$GPGSV,6,3,21,23,7,178,,27,10,139,20,28,34,282,32,32,20,50,31*7A
$GPGSV,6,4,21,65,11,202,,70,11,30,,71,60,48,42,72,57,185,36*7B
$GPGSV,6,5,21,77,5,273,,78,6,325,,85,13,118,,86,60,79,39*4C
$GPGSV,6,6,21,87,42,330,39*49
$GPRMC,200140.00,A,3844.6467,N,00908.0862,W,1.604,212.118,130617,,E,A*03
$GPGGA,200141.00,3844.6462,N,00908.0866,W,1,13,0.963,126.193,M,,M,0,*52
$GPGSA,A,3,1,3,8,11,14,17,22,28,32,71,72,86,1.690,0.963,1.389*0C
$GPGSV,6,1,21,1,67,346,40,3,55,225,40,4,62,45,,8,44,143,41*40
$GPGSV,6,2,21,11,75,48,37,14,29,70,18,17,15,315,38,22,86,215,39*78
$GPGSV,6,3,21,23,7,178,,27,10,139,13,28,34,282,33,32,20,50,33*79
$GPGSV,6,4,21,65,11,202,,70,11,30,,71,60,48,38,72,57,185,37*77
$GPGSV,6,5,21,77,5,273,,78,6,325,,85,13,118,,86,60,79,41*43
$GPGSV,6,6,21,87,42,330,38*48
$GPRMC,200141.00,A,3844.6462,N,00908.0866,W,1.799,216.015,130617,,E,A*0E
$GPGGA,200142.00,3844.6457,N,00908.0871,W,1,13,0.963,126.094,M,,M,0,*57
$GPGSA,A,3,1,3,8,11,14,17,22,28,32,71,72,86,1.690,0.963,1.389*0C
$GPGSV,6,1,21,1,67,346,37,3,55,225,40,4,62,45,,8,44,143,43*42
$GPGSV,6,2,21,11,75,48,37,14,29,70,23,17,15,315,35,22,86,215,40*73
$GPGSV,6,3,21,23,7,178,,27,10,139,17,28,34,282,36,32,20,50,31*7A
$GPGSV,6,4,21,65,11,202,,70,11,30,,71,60,48,40,72,58,185,41*76
$GPGSV,6,5,21,77,5,273,,78,6,325,,85,13,118,,86,60,79,37*42
$GPGSV,6,6,21,87,42,330,36*46
$GPRMC,200142.00,A,3844.6457,N,00908.0871,W,2.171,233.383,130617,,E,A*05
$GPGGA,200143.00,3844.6449,N,00908.0880,W,1,13,0.963,126.060,M,,M,0,*5C
$GPGSA,A,3,1,3,8,11,14,17,22,28,32,71,72,86,1.690,0.963,1.389*0C
$GPGSV,6,1,21,1,67,346,37,3,55,225,37,4,62,45,,8,44,143,41*40
$GPGSV,6,2,21,11,75,48,34,14,29,70,24,17,15,315,34,22,86,215,39*78
$GPGSV,6,3,21,23,7,178,,27,10,139,12,28,34,282,35,32,20,50,29*75
$GPGSV,6,4,21,65,11,202,,70,11,30,,71,60,48,35,72,58,185,44*71
$GPGSV,6,5,21,77,5,273,,78,6,325,,85,13,118,,86,60,79,44*46
$GPGSV,6,6,21,87,42,330,38*48
$GPRMC,200143.00,A,3844.6449,N,00908.0880,W,2.022,205.759,130617,,E,A*04
$GPGGA,200144.00,3844.6439,N,00908.0888,W,1,13,0.963,125.455,M,,M,0,*55
$GPGSA,A,3,1,3,8,11,14,17,22,28,32,71,72,86,1.690,0.963,1.389*0C
$GPGSV,6,1,21,1,67,346,39,3,55,225,35,4,62,45,,8,44,143,43*4E
$GPGSV,6,2,21,11,75,48,32,14,29,70,22,17,15,315,34,22,86,215,37*76
$GPGSV,6,3,21,23,7,178,,27,10,139,12,28,34,282,37,32,20,50,29*77
$GPGSV,6,4,21,65,11,202,,70,11,30,,71,60,48,36,72,58,185,42*74
$GPGSV,6,5,21,77,5,273,,78,6,325,,85,13,118,,86,60,79,44*46
$GPGSV,6,6,21,87,42,330,35*45
$GPRMC,200144.00,A,3844.6439,N,00908.0888,W,3.649,217.236,130617,,E,A*09
$GPGGA,200145.00,3844.6433,N,00908.0894,W,1,13,0.963,125.592,M,,M,0,*59
$GPGSA,A,3,1,3,8,11,14,17,22,28,32,71,72,86,1.690,0.963,1.389*0C
$GPGSV,6,1,21,1,67,346,43,3,55,225,35,4,62,45,,8,44,143,39*4E
$GPGSV,6,2,21,11,75,48,37,14,29,70,21,17,15,315,34,22,86,215,38*7F
$GPGSV,6,3,21,23,7,178,,27,10,139,12,28,34,282,38,32,20,50,27*76
$GPGSV,6,4,21,65,11,202,,70,11,30,,71,60,48,39,72,58,185,40*79
$GPGSV,6,5,21,77,5,273,,78,6,325,,85,13,118,,86,60,79,40*42
$GPGSV,6,6,21,87,42,330,39*49
$GPRMC,200145.00,A,3844.6433,N,00908.0894,W,0.000,217.236,130617,,E,A*07
$GPGGA,200146.00,3844.6430,N,00908.0896,W,1,13,0.963,125.978,M,,M,0,*53
$GPGSA,A,3,1,3,8,11,14,17,22,28,32,71,72,86,1.690,0.963,1.389*0C
$GPGSV,6,1,21,1,67,346,41,3,55,225,35,4,62,45,,8,44,143,44*46
$GPGSV,6,2,21,11,75,48,37,14,29,70,23,17,15,315,38,22,86,215,38*71
$GPGSV,6,3,21,23,7,178,,27,10,139,12,28,34,282,38,32,20,50,29*78
$GPGSV,6,4,21,65,11,202,,70,11,30,,71,60,48,40,72,58,185,39*79
$GPGSV,6,5,21,77,5,273,,78,6,325,,85,13,118,,86,60,79,41*43
$GPGSV,6,6,21,87,42,330,37*47
$GPRMC,200146.00,A,3844.6430,N,00908.0896,W,2.529,211.294,130617,,E,A*07
$GPGGA,200147.00,3844.6422,N,00908.0901,W,1,13,0.963,126.160,M,,M,0,*5C
$GPGSA,A,3,1,3,8,11,14,17,22,28,32,71,72,86,1.690,0.963,1.389*0C
$GPGSV,6,1,21,1,67,346,40,3,55,225,34,4,62,45,,8,44,143,43*41
$GPGSV,6,2,21,11,75,48,36,14,29,70,24,17,15,315,36,22,86,215,36*77
$GPGSV,6,3,21,23,7,178,,27,10,139,17,28,34,282,39,32,20,50,29*7C
