$GPRMC,080209.00,A,3844.6887,N,00908.0668,W,0.895640,0.000000,080617,,*2F
$GPGGA,080209.00,3844.6887,N,00908.0668,W,1,00,0.0,149.316132,M,0.0,M,,*76
$GPGLL,3844.6887,N,00908.0668,W,080209.00,A,*3A
$GPGSA,A,3,,,,,,,,,,,,,0.0,0.0,0.0*32
$GPRMC,080210.00,A,3844.6886,N,00908.0669,W,0.250764,200.959786,080617,,*2D
$GPGGA,080210.00,3844.6886,N,00908.0669,W,1,00,0.0,149.463776,M,0.0,M,,*7D
$GPGLL,3844.6886,N,00908.0669,W,080210.00,A,*32
$GPGSA,A,3,,,,,,,,,,,,,0.0,0.0,0.0*32
$GPRMC,080211.00,A,3844.6886,N,00908.0678,W,0.817577,271.553171,080617,,*2B
$GPGGA,080211.00,3844.6886,N,00908.0678,W,1,00,0.0,149.764252,M,0.0,M,,*7B
$GPGLL,3844.6886,N,00908.0678,W,080211.00,A,*33
$GPGSA,A,3,,,,,,,,,,,,,0.0,0.0,0.0*32
$GPRMC,080212.00,A,3844.6888,N,00908.0687,W,1.105538,284.058363,080617,,*23
$GPGGA,080212.00,3844.6888,N,00908.0687,W,1,00,0.0,150.073395,M,0.0,M,,*75
$GPGLL,3844.6888,N,00908.0687,W,080212.00,A,*3E
$GPGSA,A,3,,,,,,,,,,,,,0.0,0.0,0.0*32
$GPRMC,080213.00,A,3844.6884,N,00908.0690,W,0.564662,209.659898,080617,,*2B
$GPGGA,080213.00,3844.6884,N,00908.0690,W,1,00,0.0,150.529663,M,0.0,M,,*78
$GPGLL,3844.6884,N,00908.0690,W,080213.00,A,*35
$GPGSA,A,3,,,,,,,,,,,,,0.0,0.0,0.0*32
$GPRMC,080214.00,A,3844.6882,N,00908.0683,W,0.667356,108.456103,080617,,*2E
$GPGGA,080214.00,3844.6882,N,00908.0683,W,1,00,0.0,150.844299,M,0.0,M,,*7C
$GPGLL,3844.6882,N,00908.0683,W,080214.00,A,*36
$GPGSA,A,3,,,,,,,,,,,,,0.0,0.0,0.0*32
$GPRMC,080215.00,A,3844.6879,N,00908.0679,W,0.895153,131.620539,080617,,*2E
$GPGGA,080215.00,3844.6879,N,00908.0679,W,1,00,0.0,151.069763,M,0.0,M,,*7A
$GPGLL,3844.6879,N,00908.0679,W,080215.00,A,*36
$GPGSA,A,3,,,,,,,,,,,,,0.0,0.0,0.0*32
$GPRMC,080216.00,A,3844.6876,N,00908.0678,W,1.010756,156.821920,080617,,*2E
$GPGGA,080216.00,3844.6876,N,00908.0678,W,1,00,0.0,151.240005,M,0.0,M,,*79
$GPGLL,3844.6876,N,00908.0678,W,080216.00,A,*3B
$GPGSA,A,3,,,,,,,,,,,,,0.0,0.0,0.0*32
$GPRMC,080217.00,A,3844.6872,N,00908.0685,W,1.400900,233.680825,080617,,*20
$GPGGA,080217.00,3844.6872,N,00908.0685,W,1,00,0.0,151.919510,M,0.0,M,,*78
$GPGLL,3844.6872,N,00908.0685,W,080217.00,A,*3C
$GPGSA,A,3,,,,,,,,,,,,,0.0,0.0,0.0*32
$GPRMC,080218.00,A,3844.6860,N,00908.0687,W,1.993302,187.586002,080617,,*25
$GPGGA,080218.00,3844.6860,N,00908.0687,W,1,00,0.0,152.002747,M,0.0,M,,*76
$GPGLL,3844.6860,N,00908.0687,W,080218.00,A,*32
$GPGSA,A,3,,,,,,,,,,,,,0.0,0.0,0.0*32
$GPRMC,080219.00,A,3844.6852,N,00908.0689,W,2.003855,189.339894,080617,,*2A
$GPGGA,080219.00,3844.6852,N,00908.0689,W,1,00,0.0,152.093231,M,0.0,M,,*74
$GPGLL,3844.6852,N,00908.0689,W,080219.00,A,*3C
$GPGSA,A,3,,,,,,,,,,,,,0.0,0.0,0.0*32
$GPRMC,080220.00,A,3844.6843,N,00908.0695,W,2.218873,206.461223,080617,,*29
$GPGGA,080220.00,3844.6843,N,00908.0695,W,1,00,0.0,152.214996,M,0.0,M,,*78
$GPGLL,3844.6843,N,00908.0695,W,080220.00,A,*3B
$GPGSA,A,3,,,,,,,,,,,,,0.0,0.0,0.0*32
$GPRMC,080221.00,A,3844.6846,N,00908.0728,W,2.662651,277.196855,080617,,*2D
$GPGGA,080221.00,3844.6846,N,00908.0728,W,1,00,0.0,152.223495,M,0.0,M,,*71
$GPGLL,3844.6846,N,00908.0728,W,080221.00,A,*38
$GPGSA,A,3,,,,,,,,,,,,,0.0,0.0,0.0*32
$GPRMC,080222.00,A,3844.6841,N,00908.0733,W,2.736016,219.428755,080617,,*21
$GPGGA,080222.00,3844.6841,N,00908.0733,W,1,00,0.0,152.370361,M,0.0,M,,*74
$GPGLL,3844.6841,N,00908.0733,W,080222.00,A,*36
$GPGSA,A,3,,,,,,,,,,,,,0.0,0.0,0.0*32
$GPRMC,080223.00,A,3844.6839,N,00908.0737,W,2.693421,221.772050,080617,,*20
$GPGGA,080223.00,3844.6839,N,00908.0737,W,1,00,0.0,152.581787,M,0.0,M,,*7A
$GPGLL,3844.6839,N,00908.0737,W,080223.00,A,*3C
$GPGSA,A,3,,,,,,,,,,,,,0.0,0.0,0.0*32
$GPRMC,080224.00,A,3844.6838,N,00908.0725,W,1.401165,90.776709,080617,,*1D
$GPGGA,080224.00,3844.6838,N,00908.0725,W,1,00,0.0,152.764603,M,0.0,M,,*7B
$GPGLL,3844.6838,N,00908.0725,W,080224.00,A,*39
$GPGSA,A,3,,,,,,,,,,,,,0.0,0.0,0.0*32
$GPRMC,080225.00,A,3844.6841,N,00908.0731,W,1.130659,298.198781,080617,,*24
$GPGGA,080225.00,3844.6841,N,00908.0731,W,1,00,0.0,152.934677,M,0.0,M,,*79
$GPGLL,3844.6841,N,00908.0731,W,080225.00,A,*33
$GPGSA,A,3,,,,,,,,,,,,,0.0,0.0,0.0*32
$GPRMC,080226.00,A,3844.6835,N,00908.0743,W,1.092222,239.993311,080617,,*25
$GPGGA,080226.00,3844.6835,N,00908.0743,W,1,00,0.0,152.959213,M,0.0,M,,*71
$GPGLL,3844.6835,N,00908.0743,W,080226.00,A,*36
$GPGSA,A,3,,,,,,,,,,,,,0.0,0.0,0.0*32
$GPRMC,080227.00,A,3844.6830,N,00908.0744,W,0.872677,187.741958,080617,,*25
$GPGGA,080227.00,3844.6830,N,00908.0744,W,1,00,0.0,153.124741,M,0.0,M,,*73
$GPGLL,3844.6830,N,00908.0744,W,080227.00,A,*35
$GPGSA,A,3,,,,,,,,,,,,,0.0,0.0,0.0*32
$GPRMC,080228.00,A,3844.6826,N,00908.0743,W,0.814228,160.775366,080617,,*2D
$GPGGA,080228.00,3844.6826,N,00908.0743,W,1,00,0.0,153.324844,M,0.0,M,,*74
$GPGLL,3844.6826,N,00908.0743,W,080228.00,A,*3A
$GPGSA,A,3,,,,,,,,,,,,,0.0,0.0,0.0*32
$GPRMC,080229.00,A,3844.6820,N,00908.0735,W,0.569616,134.270619,080617,,*29
$GPGGA,080229.00,3844.6820,N,00908.0735,W,1,00,0.0,153.541672,M,0.0,M,,*7C
$GPGLL,3844.6820,N,00908.0735,W,080229.00,A,*3C
$GPGSA,A,3,,,,,,,,,,,,,0.0,0.0,0.0*32
$GPRMC,080230.00,A,3844.6817,N,00908.0735,W,0.510859,180.801137,080617,,*26
$GPGGA,080230.00,3844.6817,N,00908.0735,W,1,00,0.0,153.626907,M,0.0,M,,*7F
$GPGLL,3844.6817,N,00908.0735,W,080230.00,A,*30
$GPGSA,A,3,,,,,,,,,,,,,0.0,0.0,0.0*32
$GPRMC,080231.00,A,3844.6817,N,00908.0743,W,2.419976,266.468789,080617,,*2B
$GPGGA,080231.00,3844.6817,N,00908.0743,W,1,00,0.0,153.568726,M,0.0,M,,*7B
$GPGLL,3844.6817,N,00908.0743,W,080231.00,A,*30
$GPGSA,A,3,,,,,,,,,,,,,0.0,0.0,0.0*32
$GPRMC,080232.00,A,3844.6812,N,00908.0750,W,2.399774,228.721829,080617,,*2D
$GPGGA,080232.00,3844.6812,N,00908.0750,W,1,00,0.0,153.656769,M,0.0,M,,*7A
$GPGLL,3844.6812,N,00908.0750,W,080232.00,A,*34
$GPGSA,A,3,,,,,,,,,,,,,0.0,0.0,0.0*32
$GPRMC,080233.00,A,3844.6807,N,00908.0757,W,2.448087,228.403208,080617,,*25
$GPGGA,080233.00,3844.6807,N,00908.0757,W,1,00,0.0,153.759872,M,0.0,M,,*73
$GPGLL,3844.6807,N,00908.0757,W,080233.00,A,*36
$GPGSA,A,3,,,,,,,,,,,,,0.0,0.0,0.0*32
$GPRMC,080234.00,A,3844.6813,N,00908.0766,W,2.327163,307.716974,080617,,*2B
$GPGGA,080234.00,3844.6813,N,00908.0766,W,1,00,0.0,154.015564,M,0.0,M,,*71
$GPGLL,3844.6813,N,00908.0766,W,080234.00,A,*36
$GPGSA,A,3,,,,,,,,,,,,,0.0,0.0,0.0*32
$GPRMC,080235.00,A,3844.6810,N,00908.0770,W,2.209089,228.682441,080617,,*2D
$GPGGA,080235.00,3844.6810,N,00908.0770,W,1,00,0.0,154.281326,M,0.0,M,,*7B
$GPGLL,3844.6810,N,00908.0770,W,080235.00,A,*33
$GPGSA,A,3,,,,,,,,,,,,,0.0,0.0,0.0*32
$GPRMC,080236.00,A,3844.6808,N,00908.0778,W,1.199825,253.938633,080617,,*2D
$GPGGA,080236.00,3844.6808,N,00908.0778,W,1,00,0.0,154.647018,M,0.0,M,,*79
$GPGLL,3844.6808,N,00908.0778,W,080236.00,A,*31
$GPGSA,A,3,,,,,,,,,,,,,0.0,0.0,0.0*32
$GPRMC,080237.00,A,3844.6796,N,00908.0782,W,2.056269,191.552798,080617,,*2F
$GPGGA,080237.00,3844.6796,N,00908.0782,W,1,00,0.0,154.595444,M,0.0,M,,*74
$GPGLL,3844.6796,N,00908.0782,W,080237.00,A,*3D
$GPGSA,A,3,,,,,,,,,,,,,0.0,0.0,0.0*32
$GPRMC,080238.00,A,3844.6811,N,00908.0781,W,2.016416,0.777945,080617,,*2B
$GPGGA,080238.00,3844.6811,N,00908.0781,W,1,00,0.0,155.078964,M,0.0,M,,*70
$GPGLL,3844.6811,N,00908.0781,W,080238.00,A,*31
$GPGSA,A,3,,,,,,,,,,,,,0.0,0.0,0.0*32
$GPRMC,080239.00,A,3844.6804,N,00908.0772,W,1.891186,132.797238,080617,,*25
$GPGGA,080239.00,3844.6804,N,00908.0772,W,1,00,0.0,155.133026,M,0.0,M,,*78
$GPGLL,3844.6804,N,00908.0772,W,080239.00,A,*38
$GPGSA,A,3,,,,,,,,,,,,,0.0,0.0,0.0*32
$GPRMC,080240.00,A,3844.6797,N,00908.0760,W,2.044561,127.056689,080617,,*23
$GPGGA,080240.00,3844.6797,N,00908.0760,W,1,00,0.0,155.475845,M,0.0,M,,*7A
$GPGLL,3844.6797,N,00908.0760,W,080240.00,A,*30
$GPGSA,A,3,,,,,,,,,,,,,0.0,0.0,0.0*32
$GPRMC,080241.00,A,3844.6785,N,00908.0749,W,2.422986,141.900454,080617,,*23
$GPGGA,080241.00,3844.6785,N,00908.0749,W,1,00,0.0,155.856888,M,0.0,M,,*7F
$GPGLL,3844.6785,N,00908.0749,W,080241.00,A,*39
$GPGSA,A,3,,,,,,,,,,,,,0.0,0.0,0.0*32
$GPRMC,080242.00,A,3844.6777,N,00908.0743,W,2.458305,152.227524,080617,,*21
$GPGGA,080242.00,3844.6777,N,00908.0743,W,1,00,0.0,156.010223,M,0.0,M,,*79
$GPGLL,3844.6777,N,00908.0743,W,080242.00,A,*3D
$GPGSA,A,3,,,,,,,,,,,,,0.0,0.0,0.0*32
$GPRMC,080243.00,A,3844.6769,N,00908.0739,W,2.489071,160.898103,080617,,*20
$GPGGA,080243.00,3844.6769,N,00908.0739,W,1,00,0.0,156.100586,M,0.0,M,,*72
$GPGLL,3844.6769,N,00908.0739,W,080243.00,A,*3E
$GPGSA,A,3,,,,,,,,,,,,,0.0,0.0,0.0*32
$GPRMC,080244.00,A,3844.6764,N,00908.0733,W,2.543428,131.867829,080617,,*2A
$GPGGA,080244.00,3844.6764,N,00908.0733,W,1,00,0.0,156.088928,M,0.0,M,,*7B
$GPGLL,3844.6764,N,00908.0733,W,080244.00,A,*3E
$GPGSA,A,3,,,,,,,,,,,,,0.0,0.0,0.0*32
$GPRMC,080245.00,A,3844.6758,N,00908.0726,W,2.894974,140.587521,080617,,*23
$GPGGA,080245.00,3844.6758,N,00908.0726,W,1,00,0.0,156.221725,M,0.0,M,,*73
$GPGLL,3844.6758,N,00908.0726,W,080245.00,A,*34
$GPGSA,A,3,,,,,,,,,,,,,0.0,0.0,0.0*32
$GPRMC,080246.00,A,3844.6749,N,00908.0721,W,2.705720,158.123940,080617,,*27
$GPGGA,080246.00,3844.6749,N,00908.0721,W,1,00,0.0,156.328491,M,0.0,M,,*73
$GPGLL,3844.6749,N,00908.0721,W,080246.00,A,*30
$GPGSA,A,3,,,,,,,,,,,,,0.0,0.0,0.0*32
$GPRMC,080247.00,A,3844.6736,N,00908.0717,W,2.904451,164.488923,080617,,*2F
$GPGGA,080247.00,3844.6736,N,00908.0717,W,1,00,0.0,156.173965,M,0.0,M,,*75
$GPGLL,3844.6736,N,00908.0717,W,080247.00,A,*3C
$GPGSA,A,3,,,,,,,,,,,,,0.0,0.0,0.0*32
$GPRMC,080248.00,A,3844.6728,N,00908.0715,W,3.070217,170.068598,080617,,*21
$GPGGA,080248.00,3844.6728,N,00908.0715,W,1,00,0.0,156.136368,M,0.0,M,,*71
$GPGLL,3844.6728,N,00908.0715,W,080248.00,A,*3E
$GPGSA,A,3,,,,,,,,,,,,,0.0,0.0,0.0*32
$GPRMC,080249.00,A,3844.6721,N,00908.0712,W,2.791813,161.027231,080617,,*26
$GPGGA,080249.00,3844.6721,N,00908.0712,W,1,00,0.0,156.211685,M,0.0,M,,*7E
$GPGLL,3844.6721,N,00908.0712,W,080249.00,A,*31
$GPGSA,A,3,,,,,,,,,,,,,0.0,0.0,0.0*32
$GPRMC,080250.00,A,3844.6713,N,00908.0711,W,2.901310,177.498501,080617,,*20
$GPGGA,080250.00,3844.6713,N,00908.0711,W,1,00,0.0,156.220261,M,0.0,M,,*78
$GPGLL,3844.6713,N,00908.0711,W,080250.00,A,*3B
$GPGSA,A,3,,,,,,,,,,,,,0.0,0.0,0.0*32
$GPRMC,080251.00,A,3844.6705,N,00908.0709,W,2.903773,166.978407,080617,,*28
$GPGGA,080251.00,3844.6705,N,00908.0709,W,1,00,0.0,156.248184,M,0.0,M,,*71
$GPGLL,3844.6705,N,00908.0709,W,080251.00,A,*34
$GPGSA,A,3,,,,,,,,,,,,,0.0,0.0,0.0*32
$GPRMC,080252.00,A,3844.6699,N,00908.0702,W,2.783570,134.764574,080617,,*22
$GPGGA,080252.00,3844.6699,N,00908.0702,W,1,00,0.0,156.319244,M,0.0,M,,*77
$GPGLL,3844.6699,N,00908.0702,W,080252.00,A,*38
$GPGSA,A,3,,,,,,,,,,,,,0.0,0.0,0.0*32
$GPRMC,080253.00,A,3844.6691,N,00908.0702,W,2.558440,180.283090,080617,,*21
$GPGGA,080253.00,3844.6691,N,00908.0702,W,1,00,0.0,156.263092,M,0.0,M,,*7B
$GPGLL,3844.6691,N,00908.0702,W,080253.00,A,*31
$GPGSA,A,3,,,,,,,,,,,,,0.0,0.0,0.0*32
$GPRMC,080254.00,A,3844.6682,N,00908.0686,W,4.024187,124.646339,080617,,*2C
$GPGGA,080254.00,3844.6682,N,00908.0686,W,1,00,0.0,156.428146,M,0.0,M,,*72
$GPGLL,3844.6682,N,00908.0686,W,080254.00,A,*39
$GPGSA,A,3,,,,,,,,,,,,,0.0,0.0,0.0*32
$GPRMC,080255.00,A,3844.6677,N,00908.0675,W,3.619665,121.635140,080617,,*22
$GPGGA,080255.00,3844.6677,N,00908.0675,W,1,00,0.0,156.513733,M,0.0,M,,*78
$GPGLL,3844.6677,N,00908.0675,W,080255.00,A,*3E
$GPGSA,A,3,,,,,,,,,,,,,0.0,0.0,0.0*32
$GPRMC,080256.00,A,3844.6670,N,00908.0671,W,3.529572,158.006199,080617,,*2B
$GPGGA,080256.00,3844.6670,N,00908.0671,W,1,00,0.0,156.508102,M,0.0,M,,*76
$GPGLL,3844.6670,N,00908.0671,W,080256.00,A,*3E
$GPGSA,A,3,,,,,,,,,,,,,0.0,0.0,0.0*32
$GPRMC,080257.00,A,3844.6667,N,00908.0668,W,3.641921,139.255372,080617,,*27
$GPGGA,080257.00,3844.6667,N,00908.0668,W,1,00,0.0,156.598984,M,0.0,M,,*76
$GPGLL,3844.6667,N,00908.0668,W,080257.00,A,*31
$GPGSA,A,3,,,,,,,,,,,,,0.0,0.0,0.0*32
$GPRMC,080258.00,A,3844.6659,N,00908.0666,W,2.800312,167.705281,080617,,*2D
$GPGGA,080258.00,3844.6659,N,00908.0666,W,1,00,0.0,156.670700,M,0.0,M,,*7D
$GPGLL,3844.6659,N,00908.0666,W,080258.00,A,*3D
$GPGSA,A,3,,,,,,,,,,,,,0.0,0.0,0.0*32
$GPRMC,080259.00,A,3844.6652,N,00908.0671,W,2.416667,206.838941,080617,,*2F
$GPGGA,080259.00,3844.6652,N,00908.0671,W,1,00,0.0,156.610535,M,0.0,M,,*73
$GPGLL,3844.6652,N,00908.0671,W,080259.00,A,*31
$GPGSA,A,3,,,,,,,,,,,,,0.0,0.0,0.0*32
$GPRMC,080300.00,A,3844.6648,N,00908.0676,W,1.513880,229.848183,080617,,*22
$GPGGA,080300.00,3844.6648,N,00908.0676,W,1,00,0.0,156.487732,M,0.0,M,,*7B
$GPGLL,3844.6648,N,00908.0676,W,080300.00,A,*30
$GPGSA,A,3,,,,,,,,,,,,,0.0,0.0,0.0*32
$GPRMC,080301.00,A,3844.6647,N,00908.0667,W,2.034679,102.226781,080617,,*2B
$GPGGA,080301.00,3844.6647,N,00908.0667,W,1,00,0.0,156.121277,M,0.0,M,,*78
$GPGLL,3844.6647,N,00908.0667,W,080301.00,A,*3E
$GPGSA,A,3,,,,,,,,,,,,,0.0,0.0,0.0*32
$GPRMC,080302.00,A,3844.6649,N,00908.0653,W,1.310997,79.335049,080617,,*15
$GPGGA,080302.00,3844.6649,N,00908.0653,W,1,00,0.0,155.036636,M,0.0,M,,*77
$GPGLL,3844.6649,N,00908.0653,W,080302.00,A,*34
$GPGSA,A,3,,,,,,,,,,,,,0.0,0.0,0.0*32
$GPRMC,080303.00,A,3844.6650,N,00908.0636,W,1.456631,85.790003,080617,,*1F
$GPGGA,080303.00,3844.6650,N,00908.0636,W,1,00,0.0,153.970963,M,0.0,M,,*7F
$GPGLL,3844.6650,N,00908.0636,W,080303.00,A,*3E
$GPGSA,A,3,,,,,,,,,,,,,0.0,0.0,0.0*32
$GPRMC,080304.00,A,3844.6652,N,00908.0616,W,2.566483,80.881015,080617,,*1F
$GPGGA,080304.00,3844.6652,N,00908.0616,W,1,00,0.0,152.503174,M,0.0,M,,*7F
$GPGLL,3844.6652,N,00908.0616,W,080304.00,A,*39
$GPGSA,A,3,,,,,,,,,,,,,0.0,0.0,0.0*32
$GPRMC,080305.00,A,3844.6648,N,00908.0596,W,2.523068,105.286183,080617,,*21
$GPGGA,080305.00,3844.6648,N,00908.0596,W,1,00,0.0,151.240601,M,0.0,M,,*78
$GPGLL,3844.6648,N,00908.0596,W,080305.00,A,*38
$GPGSA,A,3,,,,,,,,,,,,,0.0,0.0,0.0*32
$GPRMC,080306.00,A,3844.6623,N,00908.0547,W,1.490146,123.653612,080617,,*23
$GPGGA,080306.00,3844.6623,N,00908.0547,W,1,00,0.0,143.099197,M,0.0,M,,*77
$GPGLL,3844.6623,N,00908.0547,W,080306.00,A,*3A
$GPGSA,A,3,,,,,,,,,,,,,0.0,0.0,0.0*32
$GPRMC,080307.00,A,3844.6622,N,00908.0541,W,2.126165,99.133416,080617,,*18
$GPGGA,080307.00,3844.6622,N,00908.0541,W,1,00,0.0,142.538376,M,0.0,M,,*73
$GPGLL,3844.6622,N,00908.0541,W,080307.00,A,*3C
$GPGSA,A,3,,,,,,,,,,,,,0.0,0.0,0.0*32
$GPRMC,080308.00,A,3844.6618,N,00908.0536,W,2.006765,133.171703,080617,,*2B
$GPGGA,080308.00,3844.6618,N,00908.0536,W,1,00,0.0,142.137848,M,0.0,M,,*78
$GPGLL,3844.6618,N,00908.0536,W,080308.00,A,*3A
$GPGSA,A,3,,,,,,,,,,,,,0.0,0.0,0.0*32
$GPRMC,080309.00,A,3844.6611,N,00908.0528,W,1.599240,138.353799,080617,,*24
$GPGGA,080309.00,3844.6611,N,00908.0528,W,1,00,0.0,141.317322,M,0.0,M,,*7B
$GPGLL,3844.6611,N,00908.0528,W,080309.00,A,*3D
$GPGSA,A,3,,,,,,,,,,,,,0.0,0.0,0.0*32
$GPRMC,080310.00,A,3844.6586,N,00908.0536,W,1.873074,194.888199,080617,,*2F
$GPGGA,080310.00,3844.6586,N,00908.0536,W,1,00,0.0,140.158783,M,0.0,M,,*76
$GPGLL,3844.6586,N,00908.0536,W,080310.00,A,*37
$GPGSA,A,3,,,,,,,,,,,,,0.0,0.0,0.0*32
$GPRMC,080311.00,A,3844.6570,N,00908.0538,W,1.784027,185.142852,080617,,*29
$GPGGA,080311.00,3844.6570,N,00908.0538,W,1,00,0.0,139.621094,M,0.0,M,,*76
$GPGLL,3844.6570,N,00908.0538,W,080311.00,A,*31
$GPGSA,A,3,,,,,,,,,,,,,0.0,0.0,0.0*32
$GPRMC,080312.00,A,3844.6563,N,00908.0542,W,3.126167,206.053625,080617,,*2B
$GPGGA,080312.00,3844.6563,N,00908.0542,W,1,00,0.0,138.673187,M,0.0,M,,*7F
$GPGLL,3844.6563,N,00908.0542,W,080312.00,A,*3D
$GPGSA,A,3,,,,,,,,,,,,,0.0,0.0,0.0*32
$GPRMC,080313.00,A,3844.6556,N,00908.0538,W,2.867159,154.808462,080617,,*22
$GPGGA,080313.00,3844.6556,N,00908.0538,W,1,00,0.0,138.535400,M,0.0,M,,*7E
$GPGLL,3844.6556,N,00908.0538,W,080313.00,A,*37
$GPGSA,A,3,,,,,,,,,,,,,0.0,0.0,0.0*32
$GPRMC,080314.00,A,3844.6553,N,00908.0537,W,2.045694,170.611700,080617,,*26
$GPGGA,080314.00,3844.6553,N,00908.0537,W,1,00,0.0,138.418198,M,0.0,M,,*79
$GPGLL,3844.6553,N,00908.0537,W,080314.00,A,*3A
$GPGSA,A,3,,,,,,,,,,,,,0.0,0.0,0.0*32
$GPRMC,080315.00,A,3844.6557,N,00908.0545,W,0.525251,305.402548,080617,,*24
$GPGGA,080315.00,3844.6557,N,00908.0545,W,1,00,0.0,138.440750,M,0.0,M,,*76
$GPGLL,3844.6557,N,00908.0545,W,080315.00,A,*3A
$GPGSA,A,3,,,,,,,,,,,,,0.0,0.0,0.0*32
$GPRMC,080316.00,A,3844.6556,N,00908.0541,W,0.579109,116.924251,080617,,*23
$GPGGA,080316.00,3844.6556,N,00908.0541,W,1,00,0.0,138.446350,M,0.0,M,,*72
$GPGLL,3844.6556,N,00908.0541,W,080316.00,A,*3C
$GPGSA,A,3,,,,,,,,,,,,,0.0,0.0,0.0*32
$GPRMC,080317.00,A,3844.6558,N,00908.0547,W,0.692510,299.802502,080617,,*20
$GPGGA,080317.00,3844.6558,N,00908.0547,W,1,00,0.0,138.528015,M,0.0,M,,*70
$GPGLL,3844.6558,N,00908.0547,W,080317.00,A,*35
$GPGSA,A,3,,,,,,,,,,,,,0.0,0.0,0.0*32
$GPRMC,080318.00,A,3844.6555,N,00908.0549,W,0.711133,217.011530,080617,,*2E
$GPGGA,080318.00,3844.6555,N,00908.0549,W,1,00,0.0,138.519348,M,0.0,M,,*75
$GPGLL,3844.6555,N,00908.0549,W,080318.00,A,*39
$GPGSA,A,3,,,,,,,,,,,,,0.0,0.0,0.0*32
$GPRMC,080319.00,A,3844.6551,N,00908.0547,W,1.839654,156.745291,080617,,*2B
$GPGGA,080319.00,3844.6551,N,00908.0547,W,1,00,0.0,138.480347,M,0.0,M,,*70
$GPGLL,3844.6551,N,00908.0547,W,080319.00,A,*32
$GPGSA,A,3,,,,,,,,,,,,,0.0,0.0,0.0*32
$GPRMC,080320.00,A,3844.6545,N,00908.0545,W,2.125895,168.127796,080617,,*2F
$GPGGA,080320.00,3844.6545,N,00908.0545,W,1,00,0.0,138.465363,M,0.0,M,,*70
$GPGLL,3844.6545,N,00908.0545,W,080320.00,A,*3F
$GPGSA,A,3,,,,,,,,,,,,,0.0,0.0,0.0*32
$GPRMC,080321.00,A,3844.6536,N,00908.0551,W,2.251615,206.037850,080617,,*27
$GPGGA,080321.00,3844.6536,N,00908.0551,W,1,00,0.0,138.540131,M,0.0,M,,*73
$GPGLL,3844.6536,N,00908.0551,W,080321.00,A,*3F
$GPGSA,A,3,,,,,,,,,,,,,0.0,0.0,0.0*32
$GPRMC,080322.00,A,3844.6535,N,00908.0550,W,1.945222,174.597621,080617,,*2A
$GPGGA,080322.00,3844.6535,N,00908.0550,W,1,00,0.0,138.553558,M,0.0,M,,*7B
$GPGLL,3844.6535,N,00908.0550,W,080322.00,A,*3E
$GPGSA,A,3,,,,,,,,,,,,,0.0,0.0,0.0*32
$GPRMC,080323.00,A,3844.6536,N,00908.0556,W,1.421341,280.090467,080617,,*2F
$GPGGA,080323.00,3844.6536,N,00908.0556,W,1,00,0.0,138.564224,M,0.0,M,,*77
$GPGLL,3844.6536,N,00908.0556,W,080323.00,A,*3A
$GPGSA,A,3,,,,,,,,,,,,,0.0,0.0,0.0*32
$GPRMC,080324.00,A,3844.6535,N,00908.0573,W,0.751319,266.628629,080617,,*21
$GPGGA,080324.00,3844.6535,N,00908.0573,W,1,00,0.0,138.636566,M,0.0,M,,*71
$GPGLL,3844.6535,N,00908.0573,W,080324.00,A,*39
$GPGSA,A,3,,,,,,,,,,,,,0.0,0.0,0.0*32
$GPRMC,080325.00,A,3844.6538,N,00908.0589,W,0.558315,279.907277,080617,,*2C
$GPGGA,080325.00,3844.6538,N,00908.0589,W,1,00,0.0,138.701675,M,0.0,M,,*7C
$GPGLL,3844.6538,N,00908.0589,W,080325.00,A,*30
$GPGSA,A,3,,,,,,,,,,,,,0.0,0.0,0.0*32
$GPRMC,080326.00,A,3844.6532,N,00908.0596,W,0.643333,227.341300,080617,,*24
$GPGGA,080326.00,3844.6532,N,00908.0596,W,1,00,0.0,138.767868,M,0.0,M,,*79
$GPGLL,3844.6532,N,00908.0596,W,080326.00,A,*37
$GPGSA,A,3,,,,,,,,,,,,,0.0,0.0,0.0*32
$GPRMC,080327.00,A,3844.6532,N,00908.0602,W,0.126656,262.183708,080617,,*28
$GPGGA,080327.00,3844.6532,N,00908.0602,W,1,00,0.0,138.769241,M,0.0,M,,*79
$GPGLL,3844.6532,N,00908.0602,W,080327.00,A,*38
$GPGSA,A,3,,,,,,,,,,,,,0.0,0.0,0.0*32
$GPRMC,080328.00,A,3844.6531,N,00908.0608,W,0.362499,258.231719,080617,,*2E
$GPGGA,080328.00,3844.6531,N,00908.0608,W,1,00,0.0,139.584900,M,0.0,M,,*71
$GPGLL,3844.6531,N,00908.0608,W,080328.00,A,*3E
$GPGSA,A,3,,,,,,,,,,,,,0.0,0.0,0.0*32
$GPRMC,080329.00,A,3844.6525,N,00908.0609,W,1.487212,187.832515,080617,,*25
$GPGGA,080329.00,3844.6525,N,00908.0609,W,1,00,0.0,139.922852,M,0.0,M,,*72
$GPGLL,3844.6525,N,00908.0609,W,080329.00,A,*3B
$GPGSA,A,3,,,,,,,,,,,,,0.0,0.0,0.0*32
$GPRMC,080330.00,A,3844.6487,N,00908.0647,W,1.197124,217.440727,080617,,*2C
$GPGGA,080330.00,3844.6487,N,00908.0647,W,1,00,0.0,141.874283,M,0.0,M,,*72
$GPGLL,3844.6487,N,00908.0647,W,080330.00,A,*30
$GPGSA,A,3,,,,,,,,,,,,,0.0,0.0,0.0*32
$GPRMC,080331.00,A,3844.6479,N,00908.0670,W,1.552748,245.489585,080617,,*21
$GPGGA,080331.00,3844.6479,N,00908.0670,W,1,00,0.0,142.522079,M,0.0,M,,*7C
$GPGLL,3844.6479,N,00908.0670,W,080331.00,A,*34
$GPGSA,A,3,,,,,,,,,,,,,0.0,0.0,0.0*32
$GPRMC,080332.00,A,3844.6476,N,00908.0692,W,1.035626,260.837060,080617,,*2C
$GPGGA,080332.00,3844.6476,N,00908.0692,W,1,00,0.0,142.583267,M,0.0,M,,*7A
$GPGLL,3844.6476,N,00908.0692,W,080332.00,A,*34
$GPGSA,A,3,,,,,,,,,,,,,0.0,0.0,0.0*32
$GPRMC,080333.00,A,3844.6470,N,00908.0699,W,1.514096,220.566684,080617,,*2A
$GPGGA,080333.00,3844.6470,N,00908.0699,W,1,00,0.0,142.360168,M,0.0,M,,*71
$GPGLL,3844.6470,N,00908.0699,W,080333.00,A,*38
$GPGSA,A,3,,,,,,,,,,,,,0.0,0.0,0.0*32
$GPRMC,080334.00,A,3844.6474,N,00908.0713,W,1.622049,286.829349,080617,,*20
$GPGGA,080334.00,3844.6474,N,00908.0713,W,1,00,0.0,142.638687,M,0.0,M,,*7F
$GPGLL,3844.6474,N,00908.0713,W,080334.00,A,*38
$GPGSA,A,3,,,,,,,,,,,,,0.0,0.0,0.0*32
$GPRMC,080335.00,A,3844.6459,N,00908.0706,W,0.789206,158.567097,080617,,*25
$GPGGA,080335.00,3844.6459,N,00908.0706,W,1,00,0.0,141.886078,M,0.0,M,,*7B
$GPGLL,3844.6459,N,00908.0706,W,080335.00,A,*32
$GPGSA,A,3,,,,,,,,,,,,,0.0,0.0,0.0*32
$GPRMC,080336.00,A,3844.6457,N,00908.0713,W,1.171203,252.430786,080617,,*24
$GPGGA,080336.00,3844.6457,N,00908.0713,W,1,00,0.0,141.760986,M,0.0,M,,*7D
$GPGLL,3844.6457,N,00908.0713,W,080336.00,A,*3B
$GPGSA,A,3,,,,,,,,,,,,,0.0,0.0,0.0*32
$GPRMC,080337.00,A,3844.6447,N,00908.0729,W,2.205622,230.358296,080617,,*20
$GPGGA,080337.00,3844.6447,N,00908.0729,W,1,00,0.0,141.053375,M,0.0,M,,*75
$GPGLL,3844.6447,N,00908.0729,W,080337.00,A,*32
$GPGSA,A,3,,,,,,,,,,,,,0.0,0.0,0.0*32
$GPRMC,080338.00,A,3844.6452,N,00908.0744,W,2.543183,292.825971,080617,,*22
$GPGGA,080338.00,3844.6452,N,00908.0744,W,1,00,0.0,141.434814,M,0.0,M,,*7C
$GPGLL,3844.6452,N,00908.0744,W,080338.00,A,*32
$GPGSA,A,3,,,,,,,,,,,,,0.0,0.0,0.0*32
$GPRMC,080339.00,A,3844.6452,N,00908.0753,W,0.546881,273.511631,080617,,*27
$GPGGA,080339.00,3844.6452,N,00908.0753,W,1,00,0.0,141.223206,M,0.0,M,,*72
$GPGLL,3844.6452,N,00908.0753,W,080339.00,A,*35
$GPGSA,A,3,,,,,,,,,,,,,0.0,0.0,0.0*32
$GPRMC,080340.00,A,3844.6449,N,00908.0761,W,1.215979,246.473935,080617,,*2C
$GPGGA,080340.00,3844.6449,N,00908.0761,W,1,00,0.0,139.913879,M,0.0,M,,*72
$GPGLL,3844.6449,N,00908.0761,W,080340.00,A,*30
$GPGSA,A,3,,,,,,,,,,,,,0.0,0.0,0.0*32
$GPRMC,080341.00,A,3844.6447,N,00908.0775,W,1.648253,255.705698,080617,,*21
$GPGGA,080341.00,3844.6447,N,00908.0775,W,1,00,0.0,138.969971,M,0.0,M,,*7D
$GPGLL,3844.6447,N,00908.0775,W,080341.00,A,*3A
$GPGSA,A,3,,,,,,,,,,,,,0.0,0.0,0.0*32
$GPRMC,080342.00,A,3844.6440,N,00908.0776,W,2.179319,185.954619,080617,,*22
$GPGGA,080342.00,3844.6440,N,00908.0776,W,1,00,0.0,138.999969,M,0.0,M,,*7C
$GPGLL,3844.6440,N,00908.0776,W,080342.00,A,*3D
$GPGSA,A,3,,,,,,,,,,,,,0.0,0.0,0.0*32
$GPRMC,080343.00,A,3844.6441,N,00908.0790,W,1.123260,274.548262,080617,,*2D
$GPGGA,080343.00,3844.6441,N,00908.0790,W,1,00,0.0,138.366043,M,0.0,M,,*7F
$GPGLL,3844.6441,N,00908.0790,W,080343.00,A,*35
$GPGSA,A,3,,,,,,,,,,,,,0.0,0.0,0.0*32
$GPRMC,080344.00,A,3844.6434,N,00908.0786,W,0.280278,155.926422,080617,,*2B
$GPGGA,080344.00,3844.6434,N,00908.0786,W,1,00,0.0,138.342606,M,0.0,M,,*7C
$GPGLL,3844.6434,N,00908.0786,W,080344.00,A,*37
$GPGSA,A,3,,,,,,,,,,,,,0.0,0.0,0.0*32
$GPRMC,080345.00,A,3844.6427,N,00908.0793,W,1.513274,219.518783,080617,,*2E
$GPGGA,080345.00,3844.6427,N,00908.0793,W,1,00,0.0,138.068481,M,0.0,M,,*7D
$GPGLL,3844.6427,N,00908.0793,W,080345.00,A,*30
$GPGSA,A,3,,,,,,,,,,,,,0.0,0.0,0.0*32
$GPRMC,080346.00,A,3844.6418,N,00908.0809,W,0.477710,234.119925,080617,,*20
$GPGGA,080346.00,3844.6418,N,00908.0809,W,1,00,0.0,137.887207,M,0.0,M,,*70
$GPGLL,3844.6418,N,00908.0809,W,080346.00,A,*33
$GPGSA,A,3,,,,,,,,,,,,,0.0,0.0,0.0*32
$GPRMC,080347.00,A,3844.6414,N,00908.0814,W,1.221148,223.507715,080617,,*2E
$GPGGA,080347.00,3844.6414,N,00908.0814,W,1,00,0.0,138.012848,M,0.0,M,,*7B
$GPGLL,3844.6414,N,00908.0814,W,080347.00,A,*32
$GPGSA,A,3,,,,,,,,,,,,,0.0,0.0,0.0*32
$GPRMC,080348.00,A,3844.6409,N,00908.0824,W,0.890287,237.882773,080617,,*2A
$GPGGA,080348.00,3844.6409,N,00908.0824,W,1,00,0.0,138.751984,M,0.0,M,,*7A
$GPGLL,3844.6409,N,00908.0824,W,080348.00,A,*32
$GPGSA,A,3,,,,,,,,,,,,,0.0,0.0,0.0*32
$GPRMC,080349.00,A,3844.6405,N,00908.0836,W,1.186160,248.995336,080617,,*2B
$GPGGA,080349.00,3844.6405,N,00908.0836,W,1,00,0.0,138.896103,M,0.0,M,,*77
$GPGLL,3844.6405,N,00908.0836,W,080349.00,A,*3C
$GPGSA,A,3,,,,,,,,,,,,,0.0,0.0,0.0*32
$GPRMC,080350.00,A,3844.6395,N,00908.0849,W,2.185422,225.593311,080617,,*22
$GPGGA,080350.00,3844.6395,N,00908.0849,W,1,00,0.0,138.748032,M,0.0,M,,*76
$GPGLL,3844.6395,N,00908.0849,W,080350.00,A,*32
$GPGSA,A,3,,,,,,,,,,,,,0.0,0.0,0.0*32
$GPRMC,080351.00,A,3844.6389,N,00908.0858,W,2.655668,228.429236,080617,,*21
$GPGGA,080351.00,3844.6389,N,00908.0858,W,1,00,0.0,139.150269,M,0.0,M,,*78
$GPGLL,3844.6389,N,00908.0858,W,080351.00,A,*3E
$GPGSA,A,3,,,,,,,,,,,,,0.0,0.0,0.0*32
$GPRMC,080352.00,A,3844.6389,N,00908.0885,W,1.687658,269.111025,080617,,*26
$GPGGA,080352.00,3844.6389,N,00908.0885,W,1,00,0.0,138.527817,M,0.0,M,,*7D
$GPGLL,3844.6389,N,00908.0885,W,080352.00,A,*3D
$GPGSA,A,3,,,,,,,,,,,,,0.0,0.0,0.0*32
$GPRMC,080353.00,A,3844.6381,N,00908.0900,W,1.862614,235.072806,080617,,*2A
$GPGGA,080353.00,3844.6381,N,00908.0900,W,1,00,0.0,138.707596,M,0.0,M,,*7C
$GPGLL,3844.6381,N,00908.0900,W,080353.00,A,*38
$GPGSA,A,3,,,,,,,,,,,,,0.0,0.0,0.0*32
$GPRMC,080354.00,A,3844.6371,N,00908.0906,W,1.439282,205.114032,080617,,*20
$GPGGA,080354.00,3844.6371,N,00908.0906,W,1,00,0.0,140.111221,M,0.0,M,,*77
$GPGLL,3844.6371,N,00908.0906,W,080354.00,A,*36
$GPGSA,A,3,,,,,,,,,,,,,0.0,0.0,0.0*32
$GPRMC,080355.00,A,3844.6368,N,00908.0916,W,1.494557,251.794444,080617,,*2A
$GPGGA,080355.00,3844.6368,N,00908.0916,W,1,00,0.0,141.399857,M,0.0,M,,*77
$GPGLL,3844.6368,N,00908.0916,W,080355.00,A,*3E
$GPGSA,A,3,,,,,,,,,,,,,0.0,0.0,0.0*32
$GPRMC,080356.00,A,3844.6363,N,00908.0922,W,1.979656,223.922652,080617,,*2A
$GPGGA,080356.00,3844.6363,N,00908.0922,W,1,00,0.0,141.506821,M,0.0,M,,*79
$GPGLL,3844.6363,N,00908.0922,W,080356.00,A,*31
$GPGSA,A,3,,,,,,,,,,,,,0.0,0.0,0.0*32
$GPRMC,080357.00,A,3844.6358,N,00908.0927,W,1.198917,219.600637,080617,,*2E
$GPGGA,080357.00,3844.6358,N,00908.0927,W,1,00,0.0,141.675583,M,0.0,M,,*77
$GPGLL,3844.6358,N,00908.0927,W,080357.00,A,*3D
$GPGSA,A,3,,,,,,,,,,,,,0.0,0.0,0.0*32
$GPRMC,080358.00,A,3844.6353,N,00908.0927,W,1.559768,180.487089,080617,,*28
$GPGGA,080358.00,3844.6353,N,00908.0927,W,1,00,0.0,141.771622,M,0.0,M,,*7E
$GPGLL,3844.6353,N,00908.0927,W,080358.00,A,*39
$GPGSA,A,3,,,,,,,,,,,,,0.0,0.0,0.0*32
$GPRMC,080359.00,A,3844.6347,N,00908.0927,W,2.083714,177.464295,080617,,*2C
$GPGGA,080359.00,3844.6347,N,00908.0927,W,1,00,0.0,141.846939,M,0.0,M,,*74
$GPGLL,3844.6347,N,00908.0927,W,080359.00,A,*3D
$GPGSA,A,3,,,,,,,,,,,,,0.0,0.0,0.0*32
$GPRMC,080400.00,A,3844.6338,N,00908.0929,W,0.952371,190.603322,080617,,*26
$GPGGA,080400.00,3844.6338,N,00908.0929,W,1,00,0.0,142.014755,M,0.0,M,,*71
$GPGLL,3844.6338,N,00908.0929,W,080400.00,A,*30
$GPGSA,A,3,,,,,,,,,,,,,0.0,0.0,0.0*32
$GPRMC,080401.00,A,3844.6335,N,00908.0927,W,1.326382,151.304250,080617,,*2B
$GPGGA,080401.00,3844.6335,N,00908.0927,W,1,00,0.0,142.011765,M,0.0,M,,*75
$GPGLL,3844.6335,N,00908.0927,W,080401.00,A,*32
$GPGSA,A,3,,,,,,,,,,,,,0.0,0.0,0.0*32
$GPRMC,080402.00,A,3844.6334,N,00908.0927,W,0.645529,184.925238,080617,,*20
$GPGGA,080402.00,3844.6334,N,00908.0927,W,1,00,0.0,142.106766,M,0.0,M,,*73
$GPGLL,3844.6334,N,00908.0927,W,080402.00,A,*30
$GPGSA,A,3,,,,,,,,,,,,,0.0,0.0,0.0*32
$GPRMC,080403.00,A,3844.6330,N,00908.0942,W,2.974442,250.460207,080617,,*2F
$GPGGA,080403.00,3844.6330,N,00908.0942,W,1,00,0.0,142.012207,M,0.0,M,,*73
$GPGLL,3844.6330,N,00908.0942,W,080403.00,A,*36
$GPGSA,A,3,,,,,,,,,,,,,0.0,0.0,0.0*32
$GPRMC,080404.00,A,3844.6326,N,00908.0943,W,1.337774,193.901941,080617,,*29
$GPGGA,080404.00,3844.6326,N,00908.0943,W,1,00,0.0,141.986115,M,0.0,M,,*75
$GPGLL,3844.6326,N,00908.0943,W,080404.00,A,*37
$GPGSA,A,3,,,,,,,,,,,,,0.0,0.0,0.0*32
$GPRMC,080405.00,A,3844.6329,N,00908.0958,W,1.043836,282.250668,080617,,*2C
$GPGGA,080405.00,3844.6329,N,00908.0958,W,1,00,0.0,141.704102,M,0.0,M,,*73
$GPGLL,3844.6329,N,00908.0958,W,080405.00,A,*33
$GPGSA,A,3,,,,,,,,,,,,,0.0,0.0,0.0*32
$GPRMC,080406.00,A,3844.6334,N,00908.0975,W,2.093303,292.971665,080617,,*2B
$GPGGA,080406.00,3844.6334,N,00908.0975,W,1,00,0.0,141.371124,M,0.0,M,,*71
$GPGLL,3844.6334,N,00908.0975,W,080406.00,A,*33
$GPGSA,A,3,,,,,,,,,,,,,0.0,0.0,0.0*32
$GPRMC,080407.00,A,3844.6331,N,00908.0974,W,0.852781,167.254078,080617,,*28
$GPGGA,080407.00,3844.6331,N,00908.0974,W,1,00,0.0,141.190521,M,0.0,M,,*78
$GPGLL,3844.6331,N,00908.0974,W,080407.00,A,*36
$GPGSA,A,3,,,,,,,,,,,,,0.0,0.0,0.0*32
$GPRMC,080408.00,A,3844.6329,N,00908.0976,W,0.671907,229.915585,080617,,*23
$GPGGA,080408.00,3844.6329,N,00908.0976,W,1,00,0.0,141.001053,M,0.0,M,,*75
$GPGLL,3844.6329,N,00908.0976,W,080408.00,A,*32
$GPGSA,A,3,,,,,,,,,,,,,0.0,0.0,0.0*32
$GPRMC,080409.00,A,3844.6330,N,00908.0973,W,1.100655,69.081347,080617,,*1D
$GPGGA,080409.00,3844.6330,N,00908.0973,W,1,00,0.0,140.999039,M,0.0,M,,*7C
$GPGLL,3844.6330,N,00908.0973,W,080409.00,A,*3E
$GPGSA,A,3,,,,,,,,,,,,,0.0,0.0,0.0*32
$GPRMC,080410.00,A,3844.6316,N,00908.0972,W,1.649209,175.426796,080617,,*2A
$GPGGA,080410.00,3844.6316,N,00908.0972,W,1,00,0.0,140.657455,M,0.0,M,,*72
$GPGLL,3844.6316,N,00908.0972,W,080410.00,A,*33
$GPGSA,A,3,,,,,,,,,,,,,0.0,0.0,0.0*32
$GPRMC,080411.00,A,3844.6315,N,00908.0981,W,1.628532,266.212756,080617,,*20
$GPGGA,080411.00,3844.6315,N,00908.0981,W,1,00,0.0,140.942535,M,0.0,M,,*70
$GPGLL,3844.6315,N,00908.0981,W,080411.00,A,*3D
$GPGSA,A,3,,,,,,,,,,,,,0.0,0.0,0.0*32
$GPRMC,080412.00,A,3844.6318,N,00908.0964,W,1.099599,77.582688,080617,,*16
$GPGGA,080412.00,3844.6318,N,00908.0964,W,1,00,0.0,140.712265,M,0.0,M,,*7C
$GPGLL,3844.6318,N,00908.0964,W,080412.00,A,*38
$GPGSA,A,3,,,,,,,,,,,,,0.0,0.0,0.0*32
$GPRMC,080413.00,A,3844.6317,N,00908.0970,W,1.348497,258.794139,080617,,*2A
$GPGGA,080413.00,3844.6317,N,00908.0970,W,1,00,0.0,140.354965,M,0.0,M,,*7A
$GPGLL,3844.6317,N,00908.0970,W,080413.00,A,*33
$GPGSA,A,3,,,,,,,,,,,,,0.0,0.0,0.0*32
$GPRMC,080414.00,A,3844.6316,N,00908.0972,W,1.364980,225.088430,080617,,*27
$GPGGA,080414.00,3844.6316,N,00908.0972,W,1,00,0.0,140.103912,M,0.0,M,,*7E
$GPGLL,3844.6316,N,00908.0972,W,080414.00,A,*37
$GPGSA,A,3,,,,,,,,,,,,,0.0,0.0,0.0*32
$GPRMC,080415.00,A,3844.6313,N,00908.0977,W,1.448212,231.719749,080617,,*28
$GPGGA,080415.00,3844.6313,N,00908.0977,W,1,00,0.0,139.940872,M,0.0,M,,*79
$GPGLL,3844.6313,N,00908.0977,W,080415.00,A,*36
$GPGSA,A,3,,,,,,,,,,,,,0.0,0.0,0.0*32
$GPRMC,080416.00,A,3844.6312,N,00908.0979,W,1.435830,237.494400,080617,,*2A
$GPGGA,080416.00,3844.6312,N,00908.0979,W,1,00,0.0,139.597748,M,0.0,M,,*75
$GPGLL,3844.6312,N,00908.0979,W,080416.00,A,*3A
$GPGSA,A,3,,,,,,,,,,,,,0.0,0.0,0.0*32
$GPRMC,080417.00,A,3844.6302,N,00908.0979,W,1.586027,179.668930,080617,,*2B
$GPGGA,080417.00,3844.6302,N,00908.0979,W,1,00,0.0,139.687134,M,0.0,M,,*7A
$GPGLL,3844.6302,N,00908.0979,W,080417.00,A,*3A
$GPGSA,A,3,,,,,,,,,,,,,0.0,0.0,0.0*32
$GPRMC,080418.00,A,3844.6290,N,00908.0975,W,1.617226,165.755298,080617,,*21
$GPGGA,080418.00,3844.6290,N,00908.0975,W,1,00,0.0,139.947281,M,0.0,M,,*7D
$GPGLL,3844.6290,N,00908.0975,W,080418.00,A,*33
$GPGSA,A,3,,,,,,,,,,,,,0.0,0.0,0.0*32
$GPRMC,080419.00,A,3844.6291,N,00908.0972,W,0.734666,73.378567,080617,,*1D
$GPGGA,080419.00,3844.6291,N,00908.0972,W,1,00,0.0,139.866882,M,0.0,M,,*71
$GPGLL,3844.6291,N,00908.0972,W,080419.00,A,*34
$GPGSA,A,3,,,,,,,,,,,,,0.0,0.0,0.0*32
$GPRMC,080420.00,A,3844.6279,N,00908.0974,W,0.708879,190.626849,080617,,*2B
$GPGGA,080420.00,3844.6279,N,00908.0974,W,1,00,0.0,140.481949,M,0.0,M,,*76
$GPGLL,3844.6279,N,00908.0974,W,080420.00,A,*3E
$GPGSA,A,3,,,,,,,,,,,,,0.0,0.0,0.0*32
$GPRMC,080421.00,A,3844.6274,N,00908.0977,W,1.145629,200.710493,080617,,*24
$GPGGA,080421.00,3844.6274,N,00908.0977,W,1,00,0.0,140.357040,M,0.0,M,,*75
$GPGLL,3844.6274,N,00908.0977,W,080421.00,A,*31
$GPGSA,A,3,,,,,,,,,,,,,0.0,0.0,0.0*32
$GPRMC,080422.00,A,3844.6263,N,00908.0961,W,1.550885,130.968063,080617,,*24
$GPGGA,080422.00,3844.6263,N,00908.0961,W,1,00,0.0,140.931061,M,0.0,M,,*7E
$GPGLL,3844.6263,N,00908.0961,W,080422.00,A,*33
$GPGSA,A,3,,,,,,,,,,,,,0.0,0.0,0.0*32
$GPRMC,080423.00,A,3844.6258,N,00908.0970,W,1.559751,236.197487,080617,,*21
$GPGGA,080423.00,3844.6258,N,00908.0970,W,1,00,0.0,140.376160,M,0.0,M,,*7E
$GPGLL,3844.6258,N,00908.0970,W,080423.00,A,*3A
$GPGSA,A,3,,,,,,,,,,,,,0.0,0.0,0.0*32
$GPRMC,080424.00,A,3844.6249,N,00908.0964,W,2.286331,157.341032,080617,,*20
$GPGGA,080424.00,3844.6249,N,00908.0964,W,1,00,0.0,140.025024,M,0.0,M,,*78
$GPGLL,3844.6249,N,00908.0964,W,080424.00,A,*38
$GPGSA,A,3,,,,,,,,,,,,,0.0,0.0,0.0*32
$GPRMC,080425.00,A,3844.6244,N,00908.0965,W,2.458032,181.040068,080617,,*2E
$GPGGA,080425.00,3844.6244,N,00908.0965,W,1,00,0.0,139.609695,M,0.0,M,,*7F
$GPGLL,3844.6244,N,00908.0965,W,080425.00,A,*35
$GPGSA,A,3,,,,,,,,,,,,,0.0,0.0,0.0*32
$GPRMC,080426.00,A,3844.6237,N,00908.0964,W,2.605101,177.871849,080617,,*2B
$GPGGA,080426.00,3844.6237,N,00908.0964,W,1,00,0.0,139.458023,M,0.0,M,,*74
$GPGLL,3844.6237,N,00908.0964,W,080426.00,A,*33
$GPGSA,A,3,,,,,,,,,,,,,0.0,0.0,0.0*32
$GPRMC,080427.00,A,3844.6231,N,00908.0971,W,2.369569,222.601474,080617,,*25
$GPGGA,080427.00,3844.6231,N,00908.0971,W,1,00,0.0,139.230530,M,0.0,M,,*78
$GPGLL,3844.6231,N,00908.0971,W,080427.00,A,*30
$GPGSA,A,3,,,,,,,,,,,,,0.0,0.0,0.0*32
$GPRMC,080428.00,A,3844.6222,N,00908.0969,W,2.288158,169.919798,080617,,*22
$GPGGA,080428.00,3844.6222,N,00908.0969,W,1,00,0.0,139.011292,M,0.0,M,,*72
$GPGLL,3844.6222,N,00908.0969,W,080428.00,A,*34
$GPGSA,A,3,,,,,,,,,,,,,0.0,0.0,0.0*32
$GPRMC,080429.00,A,3844.6213,N,00908.0969,W,2.230451,180.983559,080617,,*25
$GPGGA,080429.00,3844.6213,N,00908.0969,W,1,00,0.0,138.894608,M,0.0,M,,*72
$GPGLL,3844.6213,N,00908.0969,W,080429.00,A,*37
$GPGSA,A,3,,,,,,,,,,,,,0.0,0.0,0.0*32
$GPRMC,080430.00,A,3844.6209,N,00908.0965,W,1.701767,148.003791,080617,,*2B
$GPGGA,080430.00,3844.6209,N,00908.0965,W,1,00,0.0,138.876099,M,0.0,M,,*7F
$GPGLL,3844.6209,N,00908.0965,W,080430.00,A,*38
$GPGSA,A,3,,,,,,,,,,,,,0.0,0.0,0.0*32
$GPRMC,080431.00,A,3844.6201,N,00908.0964,W,1.486538,171.712476,080617,,*20
$GPGGA,080431.00,3844.6201,N,00908.0964,W,1,00,0.0,138.918182,M,0.0,M,,*75
$GPGLL,3844.6201,N,00908.0964,W,080431.00,A,*30
$GPGSA,A,3,,,,,,,,,,,,,0.0,0.0,0.0*32
$GPRMC,080432.00,A,3844.6194,N,00908.0968,W,1.148463,208.421166,080617,,*22
$GPGGA,080432.00,3844.6194,N,00908.0968,W,1,00,0.0,138.598282,M,0.0,M,,*72
$GPGLL,3844.6194,N,00908.0968,W,080432.00,A,*30
$GPGSA,A,3,,,,,,,,,,,,,0.0,0.0,0.0*32
$GPRMC,080433.00,A,3844.6193,N,00908.0981,W,1.245944,266.702723,080617,,*28
$GPGGA,080433.00,3844.6193,N,00908.0981,W,1,00,0.0,138.137222,M,0.0,M,,*78
$GPGLL,3844.6193,N,00908.0981,W,080433.00,A,*31
$GPGSA,A,3,,,,,,,,,,,,,0.0,0.0,0.0*32
$GPRMC,080434.00,A,3844.6200,N,00908.1000,W,1.667686,295.769528,080617,,*2A
$GPGGA,080434.00,3844.6200,N,00908.1000,W,1,00,0.0,137.722687,M,0.0,M,,*71
$GPGLL,3844.6200,N,00908.1000,W,080434.00,A,*3E
$GPGSA,A,3,,,,,,,,,,,,,0.0,0.0,0.0*32
$GPRMC,080435.00,A,3844.6198,N,00908.1006,W,0.868990,241.237416,080617,,*2C
$GPGGA,080435.00,3844.6198,N,00908.1006,W,1,00,0.0,137.563431,M,0.0,M,,*7C
$GPGLL,3844.6198,N,00908.1006,W,080435.00,A,*3B
$GPGSA,A,3,,,,,,,,,,,,,0.0,0.0,0.0*32
$GPRMC,080436.00,A,3844.6191,N,00908.1019,W,1.571732,237.972166,080617,,*23
$GPGGA,080436.00,3844.6191,N,00908.1019,W,1,00,0.0,138.102417,M,0.0,M,,*70
$GPGLL,3844.6191,N,00908.1019,W,080436.00,A,*3F
$GPGSA,A,3,,,,,,,,,,,,,0.0,0.0,0.0*32
$GPRMC,080437.00,A,3844.6184,N,00908.1024,W,1.069396,209.044979,080617,,*29
$GPGGA,080437.00,3844.6184,N,00908.1024,W,1,00,0.0,138.436966,M,0.0,M,,*72
$GPGLL,3844.6184,N,00908.1024,W,080437.00,A,*34
$GPGSA,A,3,,,,,,,,,,,,,0.0,0.0,0.0*32
$GPRMC,080438.00,A,3844.6176,N,00908.1025,W,1.537074,186.893754,080617,,*2C
$GPGGA,080438.00,3844.6176,N,00908.1025,W,1,00,0.0,138.420837,M,0.0,M,,*73
$GPGLL,3844.6176,N,00908.1025,W,080438.00,A,*37
$GPGSA,A,3,,,,,,,,,,,,,0.0,0.0,0.0*32
$GPRMC,080439.00,A,3844.6169,N,00908.1037,W,1.652865,229.665066,080617,,*2F
$GPGGA,080439.00,3844.6169,N,00908.1037,W,1,00,0.0,138.776672,M,0.0,M,,*70
$GPGLL,3844.6169,N,00908.1037,W,080439.00,A,*3B
$GPGSA,A,3,,,,,,,,,,,,,0.0,0.0,0.0*32
$GPRMC,080440.00,A,3844.6171,N,00908.1062,W,1.861653,276.125879,080617,,*22
$GPGGA,080440.00,3844.6171,N,00908.1062,W,1,00,0.0,138.718414,M,0.0,M,,*7D
$GPGLL,3844.6171,N,00908.1062,W,080440.00,A,*3C
$GPGSA,A,3,,,,,,,,,,,,,0.0,0.0,0.0*32
$GPRMC,080441.00,A,3844.6172,N,00908.1076,W,2.102183,273.105429,080617,,*2E
$GPGGA,080441.00,3844.6172,N,00908.1076,W,1,00,0.0,138.869812,M,0.0,M,,*79
$GPGLL,3844.6172,N,00908.1076,W,080441.00,A,*3B
$GPGSA,A,3,,,,,,,,,,,,,0.0,0.0,0.0*32
$GPRMC,080442.00,A,3844.6166,N,00908.1084,W,2.158892,223.112124,080617,,*28
$GPGGA,080442.00,3844.6166,N,00908.1084,W,1,00,0.0,139.094742,M,0.0,M,,*73
$GPGLL,3844.6166,N,00908.1084,W,080442.00,A,*30
$GPGSA,A,3,,,,,,,,,,,,,0.0,0.0,0.0*32
$GPRMC,080443.00,A,3844.6159,N,00908.1093,W,2.220493,227.340042,080617,,*22
$GPGGA,080443.00,3844.6159,N,00908.1093,W,1,00,0.0,139.173676,M,0.0,M,,*76
$GPGLL,3844.6159,N,00908.1093,W,080443.00,A,*3B
$GPGSA,A,3,,,,,,,,,,,,,0.0,0.0,0.0*32
$GPRMC,080444.00,A,3844.6151,N,00908.1099,W,2.199794,211.483840,080617,,*25
$GPGGA,080444.00,3844.6151,N,00908.1099,W,1,00,0.0,139.076477,M,0.0,M,,*74
$GPGLL,3844.6151,N,00908.1099,W,080444.00,A,*3E
$GPGSA,A,3,,,,,,,,,,,,,0.0,0.0,0.0*32
$GPRMC,080445.00,A,3844.6146,N,00908.1109,W,2.659745,233.457478,080617,,*23
$GPGGA,080445.00,3844.6146,N,00908.1109,W,1,00,0.0,139.229416,M,0.0,M,,*74
$GPGLL,3844.6146,N,00908.1109,W,080445.00,A,*31
$GPGSA,A,3,,,,,,,,,,,,,0.0,0.0,0.0*32
$GPRMC,080446.00,A,3844.6146,N,00908.1123,W,2.698685,271.932804,080617,,*27
$GPGGA,080446.00,3844.6146,N,00908.1123,W,1,00,0.0,139.319260,M,0.0,M,,*7A
$GPGLL,3844.6146,N,00908.1123,W,080446.00,A,*3A
$GPGSA,A,3,,,,,,,,,,,,,0.0,0.0,0.0*32
$GPRMC,080447.00,A,3844.6143,N,00908.1136,W,2.246048,253.566464,080617,,*20
$GPGGA,080447.00,3844.6143,N,00908.1136,W,1,00,0.0,139.451279,M,0.0,M,,*79
$GPGLL,3844.6143,N,00908.1136,W,080447.00,A,*3A
$GPGSA,A,3,,,,,,,,,,,,,0.0,0.0,0.0*32
$GPRMC,080448.00,A,3844.6140,N,00908.1147,W,1.985833,250.846688,080617,,*25
$GPGGA,080448.00,3844.6140,N,00908.1147,W,1,00,0.0,139.441833,M,0.0,M,,*76
$GPGLL,3844.6140,N,00908.1147,W,080448.00,A,*30
$GPGSA,A,3,,,,,,,,,,,,,0.0,0.0,0.0*32
$GPRMC,080449.00,A,3844.6141,N,00908.1154,W,1.540712,281.451315,080617,,*29
$GPGGA,080449.00,3844.6141,N,00908.1154,W,1,00,0.0,139.564590,M,0.0,M,,*76
$GPGLL,3844.6141,N,00908.1154,W,080449.00,A,*32
$GPGSA,A,3,,,,,,,,,,,,,0.0,0.0,0.0*32
$GPRMC,080450.00,A,3844.6141,N,00908.1168,W,2.313646,270.446973,080617,,*2F
$GPGGA,080450.00,3844.6141,N,00908.1168,W,1,00,0.0,139.609039,M,0.0,M,,*7F
$GPGLL,3844.6141,N,00908.1168,W,080450.00,A,*35
$GPGSA,A,3,,,,,,,,,,,,,0.0,0.0,0.0*32
$GPRMC,080451.00,A,3844.6130,N,00908.1182,W,4.606954,227.113288,080617,,*2F
$GPGGA,080451.00,3844.6130,N,00908.1182,W,1,00,0.0,139.333618,M,0.0,M,,*75
$GPGLL,3844.6130,N,00908.1182,W,080451.00,A,*36
$GPGSA,A,3,,,,,,,,,,,,,0.0,0.0,0.0*32
$GPRMC,080452.00,A,3844.6140,N,00908.1202,W,3.368576,300.896755,080617,,*23
$GPGGA,080452.00,3844.6140,N,00908.1202,W,1,00,0.0,139.678650,M,0.0,M,,*7C
$GPGLL,3844.6140,N,00908.1202,W,080452.00,A,*39
$GPGSA,A,3,,,,,,,,,,,,,0.0,0.0,0.0*32
$GPRMC,080453.00,A,3844.6139,N,00908.1232,W,2.288437,268.976156,080617,,*20
$GPGGA,080453.00,3844.6139,N,00908.1232,W,1,00,0.0,139.417191,M,0.0,M,,*71
$GPGLL,3844.6139,N,00908.1232,W,080453.00,A,*35
$GPGSA,A,3,,,,,,,,,,,,,0.0,0.0,0.0*32
$GPRMC,080454.00,A,3844.6127,N,00908.1253,W,1.333383,232.646131,080617,,*27
$GPGGA,080454.00,3844.6127,N,00908.1253,W,1,00,0.0,138.877274,M,0.0,M,,*7D
$GPGLL,3844.6127,N,00908.1253,W,080454.00,A,*3A
$GPGSA,A,3,,,,,,,,,,,,,0.0,0.0,0.0*32
$GPRMC,080455.00,A,3844.6126,N,00908.1260,W,1.072776,264.062427,080617,,*2E
$GPGGA,080455.00,3844.6126,N,00908.1260,W,1,00,0.0,138.924850,M,0.0,M,,*76
$GPGLL,3844.6126,N,00908.1260,W,080455.00,A,*3A
$GPGSA,A,3,,,,,,,,,,,,,0.0,0.0,0.0*32
$GPRMC,080456.00,A,3844.6116,N,00908.1267,W,1.492664,207.400191,080617,,*2C
$GPGGA,080456.00,3844.6116,N,00908.1267,W,1,00,0.0,139.060028,M,0.0,M,,*7E
$GPGLL,3844.6116,N,00908.1267,W,080456.00,A,*3D
$GPGSA,A,3,,,,,,,,,,,,,0.0,0.0,0.0*32
$GPRMC,080457.00,A,3844.6108,N,00908.1271,W,1.847223,199.922364,080617,,*27
$GPGGA,080457.00,3844.6108,N,00908.1271,W,1,00,0.0,139.395294,M,0.0,M,,*7B
$GPGLL,3844.6108,N,00908.1271,W,080457.00,A,*34
$GPGSA,A,3,,,,,,,,,,,,,0.0,0.0,0.0*32
$GPRMC,080458.00,A,3844.6105,N,00908.1255,W,2.016445,105.241048,080617,,*2C
$GPGGA,080458.00,3844.6105,N,00908.1255,W,1,00,0.0,138.021957,M,0.0,M,,*76
$GPGLL,3844.6105,N,00908.1255,W,080458.00,A,*30
$GPGSA,A,3,,,,,,,,,,,,,0.0,0.0,0.0*32
$GPRMC,080459.00,A,3844.6095,N,00908.1240,W,2.526493,129.364121,080617,,*2A
$GPGGA,080459.00,3844.6095,N,00908.1240,W,1,00,0.0,138.008362,M,0.0,M,,*7C
$GPGLL,3844.6095,N,00908.1240,W,080459.00,A,*3D
$GPGSA,A,3,,,,,,,,,,,,,0.0,0.0,0.0*32
$GPRMC,080500.00,A,3844.6086,N,00908.1239,W,2.915332,175.430952,080617,,*28
$GPGGA,080500.00,3844.6086,N,00908.1239,W,1,00,0.0,137.400543,M,0.0,M,,*7B
$GPGLL,3844.6086,N,00908.1239,W,080500.00,A,*3C
$GPGSA,A,3,,,,,,,,,,,,,0.0,0.0,0.0*32
$GPRMC,080501.00,A,3844.6065,N,00908.1229,W,2.757617,160.431677,080617,,*22
$GPGGA,080501.00,3844.6065,N,00908.1229,W,1,00,0.0,136.920959,M,0.0,M,,*7F
$GPGLL,3844.6065,N,00908.1229,W,080501.00,A,*31
$GPGSA,A,3,,,,,,,,,,,,,0.0,0.0,0.0*32
$GPRMC,080502.00,A,3844.6060,N,00908.1231,W,1.289785,197.143356,080617,,*2C
$GPGGA,080502.00,3844.6060,N,00908.1231,W,1,00,0.0,136.452271,M,0.0,M,,*79
$GPGLL,3844.6060,N,00908.1231,W,080502.00,A,*3E
$GPGSA,A,3,,,,,,,,,,,,,0.0,0.0,0.0*32
$GPRMC,080503.00,A,3844.6062,N,00908.1228,W,1.329156,60.808854,080617,,*12
$GPGGA,080503.00,3844.6062,N,00908.1228,W,1,00,0.0,135.470352,M,0.0,M,,*71
$GPGLL,3844.6062,N,00908.1228,W,080503.00,A,*35
$GPGSA,A,3,,,,,,,,,,,,,0.0,0.0,0.0*32
$GPRMC,080504.00,A,3844.6053,N,00908.1218,W,1.171632,137.985872,080617,,*2D
$GPGGA,080504.00,3844.6053,N,00908.1218,W,1,00,0.0,134.389572,M,0.0,M,,*73
$GPGLL,3844.6053,N,00908.1218,W,080504.00,A,*33
$GPGSA,A,3,,,,,,,,,,,,,0.0,0.0,0.0*32
$GPRMC,080505.00,A,3844.6045,N,00908.1214,W,0.892198,159.848269,080617,,*2D
$GPGGA,080505.00,3844.6045,N,00908.1214,W,1,00,0.0,133.999344,M,0.0,M,,*76
$GPGLL,3844.6045,N,00908.1214,W,080505.00,A,*39
$GPGSA,A,3,,,,,,,,,,,,,0.0,0.0,0.0*32
$GPRMC,080506.00,A,3844.6044,N,00908.1217,W,0.899697,234.721835,080617,,*24
$GPGGA,080506.00,3844.6044,N,00908.1217,W,1,00,0.0,133.999222,M,0.0,M,,*76
$GPGLL,3844.6044,N,00908.1217,W,080506.00,A,*38
$GPGSA,A,3,,,,,,,,,,,,,0.0,0.0,0.0*32
$GPRMC,080507.00,A,3844.6040,N,00908.1216,W,0.938286,173.387830,080617,,*23
$GPGGA,080507.00,3844.6040,N,00908.1216,W,1,00,0.0,133.719849,M,0.0,M,,*73
$GPGLL,3844.6040,N,00908.1216,W,080507.00,A,*3C
$GPGSA,A,3,,,,,,,,,,,,,0.0,0.0,0.0*32
$GPRMC,080508.00,A,3844.6041,N,00908.1219,W,0.604613,296.193019,080617,,*26
$GPGGA,080508.00,3844.6041,N,00908.1219,W,1,00,0.0,133.588013,M,0.0,M,,*7F
$GPGLL,3844.6041,N,00908.1219,W,080508.00,A,*3D
$GPGSA,A,3,,,,,,,,,,,,,0.0,0.0,0.0*32
$GPRMC,080509.00,A,3844.6037,N,00908.1218,W,0.788630,170.428690,080617,,*2A
$GPGGA,080509.00,3844.6037,N,00908.1218,W,1,00,0.0,133.314026,M,0.0,M,,*7B
$GPGLL,3844.6037,N,00908.1218,W,080509.00,A,*3C
$GPGSA,A,3,,,,,,,,,,,,,0.0,0.0,0.0*32
$GPRMC,080510.00,A,3844.6034,N,00908.1219,W,0.725212,190.569097,080617,,*28
$GPGGA,080510.00,3844.6034,N,00908.1219,W,1,00,0.0,133.197617,M,0.0,M,,*7C
$GPGLL,3844.6034,N,00908.1219,W,080510.00,A,*36
$GPGSA,A,3,,,,,,,,,,,,,0.0,0.0,0.0*32
$GPRMC,080511.00,A,3844.6028,N,00908.1214,W,1.290738,146.821119,080617,,*23
$GPGGA,080511.00,3844.6028,N,00908.1214,W,1,00,0.0,132.764008,M,0.0,M,,*7E
$GPGLL,3844.6028,N,00908.1214,W,080511.00,A,*37
$GPGSA,A,3,,,,,,,,,,,,,0.0,0.0,0.0*32
$GPRMC,080512.00,A,3844.6024,N,00908.1211,W,1.381084,155.144004,080617,,*2D
$GPGGA,080512.00,3844.6024,N,00908.1211,W,1,00,0.0,132.572998,M,0.0,M,,*71
$GPGLL,3844.6024,N,00908.1211,W,080512.00,A,*3D
$GPGSA,A,3,,,,,,,,,,,,,0.0,0.0,0.0*32
$GPRMC,080513.00,A,3844.6019,N,00908.1210,W,1.557270,171.673643,080617,,*27
$GPGGA,080513.00,3844.6019,N,00908.1210,W,1,00,0.0,132.304825,M,0.0,M,,*7F
$GPGLL,3844.6019,N,00908.1210,W,080513.00,A,*33
$GPGSA,A,3,,,,,,,,,,,,,0.0,0.0,0.0*32
$GPRMC,080514.00,A,3844.6015,N,00908.1212,W,1.605976,201.993552,080617,,*21
$GPGGA,080514.00,3844.6015,N,00908.1212,W,1,00,0.0,132.100937,M,0.0,M,,*72
$GPGLL,3844.6015,N,00908.1212,W,080514.00,A,*3A
$GPGSA,A,3,,,,,,,,,,,,,0.0,0.0,0.0*32
$GPRMC,080515.00,A,3844.6009,N,00908.1217,W,1.748290,214.263674,080617,,*24
$GPGGA,080515.00,3844.6009,N,00908.1217,W,1,00,0.0,131.902817,M,0.0,M,,*71
$GPGLL,3844.6009,N,00908.1217,W,080515.00,A,*33
$GPGSA,A,3,,,,,,,,,,,,,0.0,0.0,0.0*32
$GPRMC,080516.00,A,3844.5976,N,00908.1213,W,2.514915,175.042532,080617,,*2B
$GPGGA,080516.00,3844.5976,N,00908.1213,W,1,00,0.0,131.764664,M,0.0,M,,*70
$GPGLL,3844.5976,N,00908.1213,W,080516.00,A,*36
$GPGSA,A,3,,,,,,,,,,,,,0.0,0.0,0.0*32
$GPRMC,080517.00,A,3844.5971,N,00908.1221,W,2.102144,233.596512,080617,,*2C
$GPGGA,080517.00,3844.5971,N,00908.1221,W,1,00,0.0,131.361389,M,0.0,M,,*70
$GPGLL,3844.5971,N,00908.1221,W,080517.00,A,*31
$GPGSA,A,3,,,,,,,,,,,,,0.0,0.0,0.0*32
$GPRMC,080518.00,A,3844.5968,N,00908.1225,W,1.654828,223.203057,080617,,*25
$GPGGA,080518.00,3844.5968,N,00908.1225,W,1,00,0.0,130.740494,M,0.0,M,,*7E
$GPGLL,3844.5968,N,00908.1225,W,080518.00,A,*32
$GPGSA,A,3,,,,,,,,,,,,,0.0,0.0,0.0*32
$GPRMC,080519.00,A,3844.5964,N,00908.1235,W,1.541307,243.366668,080617,,*26
$GPGGA,080519.00,3844.5964,N,00908.1235,W,1,00,0.0,130.072632,M,0.0,M,,*7A
$GPGLL,3844.5964,N,00908.1235,W,080519.00,A,*3E
$GPGSA,A,3,,,,,,,,,,,,,0.0,0.0,0.0*32
$GPRMC,080520.00,A,3844.5966,N,00908.1249,W,1.279877,279.508312,080617,,*2A
$GPGGA,080520.00,3844.5966,N,00908.1249,W,1,00,0.0,129.679642,M,0.0,M,,*7B
$GPGLL,3844.5966,N,00908.1249,W,080520.00,A,*3D
$GPGSA,A,3,,,,,,,,,,,,,0.0,0.0,0.0*32
$GPRMC,080521.00,A,3844.5959,N,00908.1248,W,1.254809,172.938790,080617,,*29
$GPGGA,080521.00,3844.5959,N,00908.1248,W,1,00,0.0,129.580154,M,0.0,M,,*72
$GPGLL,3844.5959,N,00908.1248,W,080521.00,A,*31
$GPGSA,A,3,,,,,,,,,,,,,0.0,0.0,0.0*32
$GPRMC,080522.00,A,3844.5952,N,00908.1248,W,1.303851,181.498860,080617,,*24
$GPGGA,080522.00,3844.5952,N,00908.1248,W,1,00,0.0,129.393448,M,0.0,M,,*76
$GPGLL,3844.5952,N,00908.1248,W,080522.00,A,*39
$GPGSA,A,3,,,,,,,,,,,,,0.0,0.0,0.0*32
$GPRMC,080523.00,A,3844.5949,N,00908.1259,W,1.677143,248.883440,080617,,*2D
$GPGGA,080523.00,3844.5949,N,00908.1259,W,1,00,0.0,128.817886,M,0.0,M,,*75
$GPGLL,3844.5949,N,00908.1259,W,080523.00,A,*32
$GPGSA,A,3,,,,,,,,,,,,,0.0,0.0,0.0*32
$GPRMC,080524.00,A,3844.5945,N,00908.1263,W,1.681781,217.695919,080617,,*2C
$GPGGA,080524.00,3844.5945,N,00908.1263,W,1,00,0.0,128.434052,M,0.0,M,,*7B
$GPGLL,3844.5945,N,00908.1263,W,080524.00,A,*30
$GPGSA,A,3,,,,,,,,,,,,,0.0,0.0,0.0*32
$GPRMC,080525.00,A,3844.5935,N,00908.1260,W,1.738068,166.573488,080617,,*21
$GPGGA,080525.00,3844.5935,N,00908.1260,W,1,00,0.0,128.348892,M,0.0,M,,*76
$GPGLL,3844.5935,N,00908.1260,W,080525.00,A,*35
$GPGSA,A,3,,,,,,,,,,,,,0.0,0.0,0.0*32
$GPRMC,080526.00,A,3844.5922,N,00908.1255,W,1.880166,160.975422,080617,,*2D
$GPGGA,080526.00,3844.5922,N,00908.1255,W,1,00,0.0,128.239822,M,0.0,M,,*79
$GPGLL,3844.5922,N,00908.1255,W,080526.00,A,*36
$GPGSA,A,3,,,,,,,,,,,,,0.0,0.0,0.0*32
$GPRMC,080527.00,A,3844.5919,N,00908.1256,W,1.773894,194.377080,080617,,*2F
$GPGGA,080527.00,3844.5919,N,00908.1256,W,1,00,0.0,128.000763,M,0.0,M,,*71
$GPGLL,3844.5919,N,00908.1256,W,080527.00,A,*3C
$GPGSA,A,3,,,,,,,,,,,,,0.0,0.0,0.0*32
$GPRMC,080528.00,A,3844.5909,N,00908.1255,W,1.937287,177.146793,080617,,*2C
$GPGGA,080528.00,3844.5909,N,00908.1255,W,1,00,0.0,127.851639,M,0.0,M,,*71
$GPGLL,3844.5909,N,00908.1255,W,080528.00,A,*31
$GPGSA,A,3,,,,,,,,,,,,,0.0,0.0,0.0*32
$GPRMC,080529.00,A,3844.5904,N,00908.1254,W,1.775714,170.393120,080617,,*25
$GPGGA,080529.00,3844.5904,N,00908.1254,W,1,00,0.0,127.628944,M,0.0,M,,*79
$GPGLL,3844.5904,N,00908.1254,W,080529.00,A,*3C
$GPGSA,A,3,,,,,,,,,,,,,0.0,0.0,0.0*32
$GPRMC,080530.00,A,3844.5897,N,00908.1251,W,1.733839,156.803994,080617,,*20
$GPGGA,080530.00,3844.5897,N,00908.1251,W,1,00,0.0,127.506393,M,0.0,M,,*70
$GPGLL,3844.5897,N,00908.1251,W,080530.00,A,*3A
$GPGSA,A,3,,,,,,,,,,,,,0.0,0.0,0.0*32
$GPRMC,080531.00,A,3844.5889,N,00908.1249,W,1.809059,172.141322,080617,,*21
$GPGGA,080531.00,3844.5889,N,00908.1249,W,1,00,0.0,127.368736,M,0.0,M,,*72
$GPGLL,3844.5889,N,00908.1249,W,080531.00,A,*3D
$GPGSA,A,3,,,,,,,,,,,,,0.0,0.0,0.0*32
$GPRMC,080532.00,A,3844.5876,N,00908.1247,W,1.982039,171.757062,080617,,*2D
$GPGGA,080532.00,3844.5876,N,00908.1247,W,1,00,0.0,127.134109,M,0.0,M,,*7E
$GPGLL,3844.5876,N,00908.1247,W,080532.00,A,*30
$GPGSA,A,3,,,,,,,,,,,,,0.0,0.0,0.0*32
$GPRMC,080533.00,A,3844.5870,N,00908.1250,W,2.069265,204.071601,080617,,*29
$GPGGA,080533.00,3844.5870,N,00908.1250,W,1,00,0.0,126.834770,M,0.0,M,,*7F
$GPGLL,3844.5870,N,00908.1250,W,080533.00,A,*31
$GPGSA,A,3,,,,,,,,,,,,,0.0,0.0,0.0*32
$GPRMC,080534.00,A,3844.5860,N,00908.1254,W,2.129462,193.620591,080617,,*2A
$GPGGA,080534.00,3844.5860,N,00908.1254,W,1,00,0.0,126.607216,M,0.0,M,,*76
$GPGLL,3844.5860,N,00908.1254,W,080534.00,A,*33
$GPGSA,A,3,,,,,,,,,,,,,0.0,0.0,0.0*32
$GPRMC,080535.00,A,3844.5858,N,00908.1256,W,2.177040,221.623431,080617,,*2F
$GPGGA,080535.00,3844.5858,N,00908.1256,W,1,00,0.0,126.232567,M,0.0,M,,*7D
$GPGLL,3844.5858,N,00908.1256,W,080535.00,A,*3B
$GPGSA,A,3,,,,,,,,,,,,,0.0,0.0,0.0*32
$GPRMC,080536.00,A,3844.5854,N,00908.1256,W,2.075186,179.206285,080617,,*2C
$GPGGA,080536.00,3844.5854,N,00908.1256,W,1,00,0.0,126.000359,M,0.0,M,,*7A
$GPGLL,3844.5854,N,00908.1256,W,080536.00,A,*34
$GPGSA,A,3,,,,,,,,,,,,,0.0,0.0,0.0*32
$GPRMC,080537.00,A,3844.5850,N,00908.1253,W,1.954571,156.132442,080617,,*2D
$GPGGA,080537.00,3844.5850,N,00908.1253,W,1,00,0.0,125.833443,M,0.0,M,,*7D
$GPGLL,3844.5850,N,00908.1253,W,080537.00,A,*34
$GPGSA,A,3,,,,,,,,,,,,,0.0,0.0,0.0*32
$GPRMC,080538.00,A,3844.5844,N,00908.1250,W,1.987357,155.614283,080617,,*23
$GPGGA,080538.00,3844.5844,N,00908.1250,W,1,00,0.0,125.659584,M,0.0,M,,*7C
$GPGLL,3844.5844,N,00908.1250,W,080538.00,A,*3D
$GPGSA,A,3,,,,,,,,,,,,,0.0,0.0,0.0*32
$GPRMC,080539.00,A,3844.5835,N,00908.1247,W,1.917899,167.181085,080617,,*2C
$GPGGA,080539.00,3844.5835,N,00908.1247,W,1,00,0.0,125.631264,M,0.0,M,,*7A
$GPGLL,3844.5835,N,00908.1247,W,080539.00,A,*3C
$GPGSA,A,3,,,,,,,,,,,,,0.0,0.0,0.0*32
$GPRMC,080540.00,A,3844.5832,N,00908.1245,W,1.591213,151.327540,080617,,*2A
$GPGGA,080540.00,3844.5832,N,00908.1245,W,1,00,0.0,125.473022,M,0.0,M,,*75
$GPGLL,3844.5832,N,00908.1245,W,080540.00,A,*37
$GPGSA,A,3,,,,,,,,,,,,,0.0,0.0,0.0*32
$GPRMC,080541.00,A,3844.5825,N,00908.1242,W,1.614293,161.179643,080617,,*26
$GPGGA,080541.00,3844.5825,N,00908.1242,W,1,00,0.0,125.274391,M,0.0,M,,*7F
$GPGLL,3844.5825,N,00908.1242,W,080541.00,A,*37
$GPGSA,A,3,,,,,,,,,,,,,0.0,0.0,0.0*32
$GPRMC,080542.00,A,3844.5818,N,00908.1244,W,1.750719,190.000842,080617,,*25
$GPGGA,080542.00,3844.5818,N,00908.1244,W,1,00,0.0,125.108894,M,0.0,M,,*72
$GPGLL,3844.5818,N,00908.1244,W,080542.00,A,*3C
$GPGSA,A,3,,,,,,,,,,,,,0.0,0.0,0.0*32
$GPRMC,080543.00,A,3844.5815,N,00908.1243,W,1.800812,168.974415,080617,,*23
$GPGGA,080543.00,3844.5815,N,00908.1243,W,1,00,0.0,124.941208,M,0.0,M,,*72
$GPGLL,3844.5815,N,00908.1243,W,080543.00,A,*37
$GPGSA,A,3,,,,,,,,,,,,,0.0,0.0,0.0*32
$GPRMC,080544.00,A,3844.5813,N,00908.1240,W,1.641296,133.397561,080617,,*27
$GPGGA,080544.00,3844.5813,N,00908.1240,W,1,00,0.0,124.791771,M,0.0,M,,*78
$GPGLL,3844.5813,N,00908.1240,W,080544.00,A,*35
$GPGSA,A,3,,,,,,,,,,,,,0.0,0.0,0.0*32
$GPRMC,080545.00,A,3844.5810,N,00908.1238,W,1.580097,145.810417,080617,,*22
$GPGGA,080545.00,3844.5810,N,00908.1238,W,1,00,0.0,124.638000,M,0.0,M,,*76
$GPGLL,3844.5810,N,00908.1238,W,080545.00,A,*38
$GPGSA,A,3,,,,,,,,,,,,,0.0,0.0,0.0*32
$GPRMC,080546.00,A,3844.5807,N,00908.1236,W,1.537578,147.638898,080617,,*2C
$GPGGA,080546.00,3844.5807,N,00908.1236,W,1,00,0.0,124.456680,M,0.0,M,,*79
$GPGLL,3844.5807,N,00908.1236,W,080546.00,A,*33
$GPGSA,A,3,,,,,,,,,,,,,0.0,0.0,0.0*32
$GPRMC,080547.00,A,3844.5803,N,00908.1233,W,1.448213,147.167276,080617,,*28
$GPGGA,080547.00,3844.5803,N,00908.1233,W,1,00,0.0,124.213959,M,0.0,M,,*75
$GPGLL,3844.5803,N,00908.1233,W,080547.00,A,*33
$GPGSA,A,3,,,,,,,,,,,,,0.0,0.0,0.0*32
$GPRMC,080548.00,A,3844.5809,N,00908.1236,W,0.887864,332.437515,080617,,*2E
$GPGGA,080548.00,3844.5809,N,00908.1236,W,1,00,0.0,123.987823,M,0.0,M,,*78
$GPGLL,3844.5809,N,00908.1236,W,080548.00,A,*33
$GPGSA,A,3,,,,,,,,,,,,,0.0,0.0,0.0*32
$GPRMC,080549.00,A,3844.5772,N,00908.1257,W,1.157236,203.568065,080617,,*29
$GPGGA,080549.00,3844.5772,N,00908.1257,W,1,00,0.0,124.089478,M,0.0,M,,*7F
$GPGLL,3844.5772,N,00908.1257,W,080549.00,A,*36
$GPGSA,A,3,,,,,,,,,,,,,0.0,0.0,0.0*32
$GPRMC,080550.00,A,3844.5768,N,00908.1252,W,1.078077,143.717149,080617,,*26
$GPGGA,080550.00,3844.5768,N,00908.1252,W,1,00,0.0,123.952110,M,0.0,M,,*7A
$GPGLL,3844.5768,N,00908.1252,W,080550.00,A,*30
$GPGSA,A,3,,,,,,,,,,,,,0.0,0.0,0.0*32
$GPRMC,080551.00,A,3844.5764,N,00908.1246,W,1.100278,124.481664,080617,,*28
$GPGGA,080551.00,3844.5764,N,00908.1246,W,1,00,0.0,123.782562,M,0.0,M,,*70
$GPGLL,3844.5764,N,00908.1246,W,080551.00,A,*38
$GPGSA,A,3,,,,,,,,,,,,,0.0,0.0,0.0*32
$GPRMC,080552.00,A,3844.5755,N,00908.1241,W,1.264523,159.743919,080617,,*24
$GPGGA,080552.00,3844.5755,N,00908.1241,W,1,00,0.0,123.703903,M,0.0,M,,*74
$GPGLL,3844.5755,N,00908.1241,W,080552.00,A,*3E
$GPGSA,A,3,,,,,,,,,,,,,0.0,0.0,0.0*32
$GPRMC,080553.00,A,3844.5752,N,00908.1245,W,1.032289,231.813251,080617,,*20
$GPGGA,080553.00,3844.5752,N,00908.1245,W,1,00,0.0,123.529541,M,0.0,M,,*76
$GPGLL,3844.5752,N,00908.1245,W,080553.00,A,*3C
$GPGSA,A,3,,,,,,,,,,,,,0.0,0.0,0.0*32
$GPRMC,080554.00,A,3844.5751,N,00908.1242,W,0.975737,130.195696,080617,,*22
$GPGGA,080554.00,3844.5751,N,00908.1242,W,1,00,0.0,123.270508,M,0.0,M,,*73
$GPGLL,3844.5751,N,00908.1242,W,080554.00,A,*3F
$GPGSA,A,3,,,,,,,,,,,,,0.0,0.0,0.0*32
$GPRMC,080555.00,A,3844.5732,N,00908.1249,W,0.947857,195.437460,080617,,*2C
$GPGGA,080555.00,3844.5732,N,00908.1249,W,1,00,0.0,123.132660,M,0.0,M,,*74
$GPGLL,3844.5732,N,00908.1249,W,080555.00,A,*30
$GPGSA,A,3,,,,,,,,,,,,,0.0,0.0,0.0*32
$GPRMC,080556.00,A,3844.5728,N,00908.1243,W,0.836619,130.505716,080617,,*20
$GPGGA,080556.00,3844.5728,N,00908.1243,W,1,00,0.0,122.899506,M,0.0,M,,*7C
$GPGLL,3844.5728,N,00908.1243,W,080556.00,A,*32
$GPGSA,A,3,,,,,,,,,,,,,0.0,0.0,0.0*32
$GPRMC,080557.00,A,3844.5701,N,00908.1255,W,1.343920,198.833237,080617,,*2C
$GPGGA,080557.00,3844.5701,N,00908.1255,W,1,00,0.0,122.883568,M,0.0,M,,*72
$GPGLL,3844.5701,N,00908.1255,W,080557.00,A,*3F
$GPGSA,A,3,,,,,,,,,,,,,0.0,0.0,0.0*32
$GPRMC,080558.00,A,3844.5692,N,00908.1248,W,1.421523,144.995070,080617,,*25
$GPGGA,080558.00,3844.5692,N,00908.1248,W,1,00,0.0,122.689026,M,0.0,M,,*71
$GPGLL,3844.5692,N,00908.1248,W,080558.00,A,*37
$GPGSA,A,3,,,,,,,,,,,,,0.0,0.0,0.0*32
$GPRMC,080559.00,A,3844.5682,N,00908.1243,W,1.448139,157.258323,080617,,*23
$GPGGA,080559.00,3844.5682,N,00908.1243,W,1,00,0.0,122.466904,M,0.0,M,,*70
$GPGLL,3844.5682,N,00908.1243,W,080559.00,A,*3C
$GPGSA,A,3,,,,,,,,,,,,,0.0,0.0,0.0*32
$GPRMC,080600.00,A,3844.5671,N,00908.1239,W,1.758465,164.462866,080617,,*26
$GPGGA,080600.00,3844.5671,N,00908.1239,W,1,00,0.0,122.248398,M,0.0,M,,*7B
$GPGLL,3844.5671,N,00908.1239,W,080600.00,A,*32
$GPGSA,A,3,,,,,,,,,,,,,0.0,0.0,0.0*32
$GPRMC,080601.00,A,3844.5669,N,00908.1239,W,1.618293,203.408115,080617,,*27
$GPGGA,080601.00,3844.5669,N,00908.1239,W,1,00,0.0,122.069778,M,0.0,M,,*78
$GPGLL,3844.5669,N,00908.1239,W,080601.00,A,*3A
$GPGSA,A,3,,,,,,,,,,,,,0.0,0.0,0.0*32
$GPRMC,080602.00,A,3844.5665,N,00908.1236,W,1.630772,150.880617,080617,,*2B
$GPGGA,080602.00,3844.5665,N,00908.1236,W,1,00,0.0,121.926659,M,0.0,M,,*7B
$GPGLL,3844.5665,N,00908.1236,W,080602.00,A,*3A
$GPGSA,A,3,,,,,,,,,,,,,0.0,0.0,0.0*32
$GPRMC,080603.00,A,3844.5660,N,00908.1234,W,1.729469,164.173140,080617,,*2A
$GPGGA,080603.00,3844.5660,N,00908.1234,W,1,00,0.0,121.768349,M,0.0,M,,*7D
$GPGLL,3844.5660,N,00908.1234,W,080603.00,A,*3C
$GPGSA,A,3,,,,,,,,,,,,,0.0,0.0,0.0*32
$GPRMC,080604.00,A,3844.5656,N,00908.1234,W,1.662227,176.084380,080617,,*2E
$GPGGA,080604.00,3844.5656,N,00908.1234,W,1,00,0.0,121.617889,M,0.0,M,,*71
$GPGLL,3844.5656,N,00908.1234,W,080604.00,A,*3E
$GPGSA,A,3,,,,,,,,,,,,,0.0,0.0,0.0*32
$GPRMC,080605.00,A,3844.5654,N,00908.1233,W,1.458561,162.887101,080617,,*21
$GPGGA,080605.00,3844.5654,N,00908.1233,W,1,00,0.0,121.466507,M,0.0,M,,*7A
$GPGLL,3844.5654,N,00908.1233,W,080605.00,A,*3A
$GPGSA,A,3,,,,,,,,,,,,,0.0,0.0,0.0*32
$GPRMC,080606.00,A,3844.5650,N,00908.1229,W,1.302193,141.409636,080617,,*24
$GPGGA,080606.00,3844.5650,N,00908.1229,W,1,00,0.0,121.288414,M,0.0,M,,*73
$GPGLL,3844.5650,N,00908.1229,W,080606.00,A,*36
$GPGSA,A,3,,,,,,,,,,,,,0.0,0.0,0.0*32
$GPRMC,080607.00,A,3844.5645,N,00908.1223,W,1.189148,134.848772,080617,,*26
$GPGGA,080607.00,3844.5645,N,00908.1223,W,1,00,0.0,121.104713,M,0.0,M,,*7F
$GPGLL,3844.5645,N,00908.1223,W,080607.00,A,*39
$GPGSA,A,3,,,,,,,,,,,,,0.0,0.0,0.0*32
$GPRMC,080608.00,A,3844.5642,N,00908.1220,W,1.135690,150.675599,080617,,*2D
$GPGGA,080608.00,3844.5642,N,00908.1220,W,1,00,0.0,120.940140,M,0.0,M,,*7D
$GPGLL,3844.5642,N,00908.1220,W,080608.00,A,*32
$GPGSA,A,3,,,,,,,,,,,,,0.0,0.0,0.0*32
$GPRMC,080609.00,A,3844.5619,N,00908.1226,W,1.333606,190.666574,080617,,*22
$GPGGA,080609.00,3844.5619,N,00908.1226,W,1,00,0.0,120.792923,M,0.0,M,,*78
$GPGLL,3844.5619,N,00908.1226,W,080609.00,A,*3B
$GPGSA,A,3,,,,,,,,,,,,,0.0,0.0,0.0*32
$GPRMC,080610.00,A,3844.5611,N,00908.1207,W,1.657310,118.849121,080617,,*23
$GPGGA,080610.00,3844.5611,N,00908.1207,W,1,00,0.0,120.563271,M,0.0,M,,*7B
$GPGLL,3844.5611,N,00908.1207,W,080610.00,A,*38
$GPGSA,A,3,,,,,,,,,,,,,0.0,0.0,0.0*32
$GPRMC,080611.00,A,3844.5607,N,00908.1202,W,1.700952,133.313369,080617,,*2C
$GPGGA,080611.00,3844.5607,N,00908.1202,W,1,00,0.0,120.402809,M,0.0,M,,*7B
$GPGLL,3844.5607,N,00908.1202,W,080611.00,A,*3B
$GPGSA,A,3,,,,,,,,,,,,,0.0,0.0,0.0*32
$GPRMC,080612.00,A,3844.5604,N,00908.1199,W,1.665032,137.838789,080617,,*2C
$GPGGA,080612.00,3844.5604,N,00908.1199,W,1,00,0.0,120.425499,M,0.0,M,,*7A
$GPGLL,3844.5604,N,00908.1199,W,080612.00,A,*3A
$GPGSA,A,3,,,,,,,,,,,,,0.0,0.0,0.0*32
$GPRMC,080613.00,A,3844.5601,N,00908.1198,W,1.260233,170.646402,080617,,*2F
$GPGGA,080613.00,3844.5601,N,00908.1198,W,1,00,0.0,120.628517,M,0.0,M,,*77
$GPGLL,3844.5601,N,00908.1198,W,080613.00,A,*3F
$GPGSA,A,3,,,,,,,,,,,,,0.0,0.0,0.0*32
$GPRMC,080614.00,A,3844.5598,N,00908.1197,W,0.941808,171.004489,080617,,*2D
$GPGGA,080614.00,3844.5598,N,00908.1197,W,1,00,0.0,120.612679,M,0.0,M,,*7E
$GPGLL,3844.5598,N,00908.1197,W,080614.00,A,*34
$GPGSA,A,3,,,,,,,,,,,,,0.0,0.0,0.0*32
$GPRMC,080615.00,A,3844.5596,N,00908.1199,W,0.854063,216.456602,080617,,*2C
$GPGGA,080615.00,3844.5596,N,00908.1199,W,1,00,0.0,120.595085,M,0.0,M,,*76
$GPGLL,3844.5596,N,00908.1199,W,080615.00,A,*35
$GPGSA,A,3,,,,,,,,,,,,,0.0,0.0,0.0*32
$GPRMC,080616.00,A,3844.5597,N,00908.1202,W,0.670906,275.066798,080617,,*2D
$GPGGA,080616.00,3844.5597,N,00908.1202,W,1,00,0.0,120.572067,M,0.0,M,,*70
$GPGLL,3844.5597,N,00908.1202,W,080616.00,A,*36
$GPGSA,A,3,,,,,,,,,,,,,0.0,0.0,0.0*32
$GPRMC,080617.00,A,3844.5597,N,00908.1197,W,0.220099,85.820078,080617,,*13
$GPGGA,080617.00,3844.5597,N,00908.1197,W,1,00,0.0,120.537628,M,0.0,M,,*72
$GPGLL,3844.5597,N,00908.1197,W,080617.00,A,*38
$GPGSA,A,3,,,,,,,,,,,,,0.0,0.0,0.0*32
$GPRMC,080618.00,A,3844.5595,N,00908.1193,W,0.076351,122.705820,080617,,*2D
$GPGGA,080618.00,3844.5595,N,00908.1193,W,1,00,0.0,120.540985,M,0.0,M,,*73
$GPGLL,3844.5595,N,00908.1193,W,080618.00,A,*31
$GPGSA,A,3,,,,,,,,,,,,,0.0,0.0,0.0*32
$GPRMC,080619.00,A,3844.5596,N,00908.1191,W,0.242589,54.049885,080617,,*1B
$GPGGA,080619.00,3844.5596,N,00908.1191,W,1,00,0.0,120.541885,M,0.0,M,,*73
$GPGLL,3844.5596,N,00908.1191,W,080619.00,A,*31
$GPGSA,A,3,,,,,,,,,,,,,0.0,0.0,0.0*32
$GPRMC,080620.00,A,3844.5597,N,00908.1191,W,0.322917,331.854942,080617,,*22
$GPGGA,080620.00,3844.5597,N,00908.1191,W,1,00,0.0,120.542709,M,0.0,M,,*70
$GPGLL,3844.5597,N,00908.1191,W,080620.00,A,*3A
$GPGSA,A,3,,,,,,,,,,,,,0.0,0.0,0.0*32
$GPRMC,080621.00,A,3844.5598,N,00908.1191,W,0.345228,2.466952,080617,,*25
$GPGGA,080621.00,3844.5598,N,00908.1191,W,1,00,0.0,120.533722,M,0.0,M,,*71
$GPGLL,3844.5598,N,00908.1191,W,080621.00,A,*34
$GPGSA,A,3,,,,,,,,,,,,,0.0,0.0,0.0*32
