$GPRMC,194836.00,A,3844.2851,N,00908.3205,W,3.913785,0.000000,080617,,*2A
$GPGGA,194836.00,3844.2851,N,00908.3205,W,1,00,0.0,151.721390,M,0.0,M,,*74
$GPGLL,3844.2851,N,00908.3205,W,194836.00,A,*3B
$GPGSA,A,3,,,,,,,,,,,,,0.0,0.0,0.0*32
$GPRMC,194916.00,A,3844.2902,N,00908.3208,W,3.380496,357.398003,080617,,*22
$GPGGA,194916.00,3844.2902,N,00908.3208,W,1,00,0.0,148.248672,M,0.0,M,,*76
$GPGLL,3844.2902,N,00908.3208,W,194916.00,A,*32
$GPGSA,A,3,,,,,,,,,,,,,0.0,0.0,0.0*32
$GPRMC,194917.00,A,3844.2901,N,00908.3220,W,1.057183,262.315873,080617,,*2D
$GPGGA,194917.00,3844.2901,N,00908.3220,W,1,00,0.0,147.845749,M,0.0,M,,*7F
$GPGLL,3844.2901,N,00908.3220,W,194917.00,A,*3A
$GPGSA,A,3,,,,,,,,,,,,,0.0,0.0,0.0*32
$GPRMC,194918.00,A,3844.2888,N,00908.3246,W,1.511192,236.791980,080617,,*21
$GPGGA,194918.00,3844.2888,N,00908.3246,W,1,00,0.0,146.470490,M,0.0,M,,*7C
$GPGLL,3844.2888,N,00908.3246,W,194918.00,A,*35
$GPGSA,A,3,,,,,,,,,,,,,0.0,0.0,0.0*32
$GPRMC,194919.00,A,3844.2885,N,00908.3243,W,1.159581,145.664161,080617,,*2D
$GPGGA,194919.00,3844.2885,N,00908.3243,W,1,00,0.0,145.462738,M,0.0,M,,*74
$GPGLL,3844.2885,N,00908.3243,W,194919.00,A,*3C
$GPGSA,A,3,,,,,,,,,,,,,0.0,0.0,0.0*32
$GPRMC,194920.00,A,3844.2883,N,00908.3238,W,1.419155,117.108725,080617,,*2D
$GPGGA,194920.00,3844.2883,N,00908.3238,W,1,00,0.0,144.424850,M,0.0,M,,*76
$GPGLL,3844.2883,N,00908.3238,W,194920.00,A,*3C
$GPGSA,A,3,,,,,,,,,,,,,0.0,0.0,0.0*32
$GPRMC,194921.00,A,3844.2882,N,00908.3232,W,1.157086,98.996232,080617,,*1D
$GPGGA,194921.00,3844.2882,N,00908.3232,W,1,00,0.0,143.384567,M,0.0,M,,*7F
$GPGLL,3844.2882,N,00908.3232,W,194921.00,A,*36
$GPGSA,A,3,,,,,,,,,,,,,0.0,0.0,0.0*32
$GPRMC,194922.00,A,3844.2879,N,00908.3226,W,1.683343,126.818616,080617,,*2A
$GPGGA,194922.00,3844.2879,N,00908.3226,W,1,00,0.0,142.358643,M,0.0,M,,*78
$GPGLL,3844.2879,N,00908.3226,W,194922.00,A,*34
$GPGSA,A,3,,,,,,,,,,,,,0.0,0.0,0.0*32
$GPRMC,194923.00,A,3844.2876,N,00908.3222,W,1.514551,129.543038,080617,,*2E
$GPGGA,194923.00,3844.2876,N,00908.3222,W,1,00,0.0,141.322479,M,0.0,M,,*77
$GPGLL,3844.2876,N,00908.3222,W,194923.00,A,*3E
$GPGSA,A,3,,,,,,,,,,,,,0.0,0.0,0.0*32
$GPRMC,194924.00,A,3844.2875,N,00908.3225,W,1.470532,243.098402,080617,,*2A
$GPGGA,194924.00,3844.2875,N,00908.3225,W,1,00,0.0,140.319824,M,0.0,M,,*79
$GPGLL,3844.2875,N,00908.3225,W,194924.00,A,*3D
$GPGSA,A,3,,,,,,,,,,,,,0.0,0.0,0.0*32
$GPRMC,194925.00,A,3844.2879,N,00908.3230,W,0.418474,313.134624,080617,,*2A
$GPGGA,194925.00,3844.2879,N,00908.3230,W,1,00,0.0,139.332840,M,0.0,M,,*75
$GPGLL,3844.2879,N,00908.3230,W,194925.00,A,*34
$GPGSA,A,3,,,,,,,,,,,,,0.0,0.0,0.0*32
$GPRMC,194926.00,A,3844.2877,N,00908.3217,W,1.974872,102.041438,080617,,*20
$GPGGA,194926.00,3844.2877,N,00908.3217,W,1,00,0.0,139.162979,M,0.0,M,,*71
$GPGLL,3844.2877,N,00908.3217,W,194926.00,A,*3C
$GPGSA,A,3,,,,,,,,,,,,,0.0,0.0,0.0*32
$GPRMC,194927.00,A,3844.2873,N,00908.3205,W,1.949100,112.348075,080617,,*22
$GPGGA,194927.00,3844.2873,N,00908.3205,W,1,00,0.0,138.435516,M,0.0,M,,*74
$GPGLL,3844.2873,N,00908.3205,W,194927.00,A,*3A
$GPGSA,A,3,,,,,,,,,,,,,0.0,0.0,0.0*32
$GPRMC,194928.00,A,3844.2868,N,00908.3183,W,1.519648,104.852062,080617,,*29
$GPGGA,194928.00,3844.2868,N,00908.3183,W,1,00,0.0,137.784683,M,0.0,M,,*75
$GPGLL,3844.2868,N,00908.3183,W,194928.00,A,*32
$GPGSA,A,3,,,,,,,,,,,,,0.0,0.0,0.0*32
$GPRMC,194929.00,A,3844.2867,N,00908.3181,W,1.470770,122.069206,080617,,*25
$GPGGA,194929.00,3844.2867,N,00908.3181,W,1,00,0.0,137.141235,M,0.0,M,,*7F
$GPGLL,3844.2867,N,00908.3181,W,194929.00,A,*3E
$GPGSA,A,3,,,,,,,,,,,,,0.0,0.0,0.0*32
$GPRMC,194930.00,A,3844.2862,N,00908.3188,W,1.236072,225.201564,080617,,*2B
$GPGGA,194930.00,3844.2862,N,00908.3188,W,1,00,0.0,136.538925,M,0.0,M,,*7A
$GPGLL,3844.2862,N,00908.3188,W,194930.00,A,*3A
$GPGSA,A,3,,,,,,,,,,,,,0.0,0.0,0.0*32
$GPRMC,194931.00,A,3844.2879,N,00908.3204,W,2.726834,324.358829,080617,,*23
$GPGGA,194931.00,3844.2879,N,00908.3204,W,1,00,0.0,135.994965,M,0.0,M,,*7B
$GPGLL,3844.2879,N,00908.3204,W,194931.00,A,*36
$GPGSA,A,3,,,,,,,,,,,,,0.0,0.0,0.0*32
$GPRMC,194932.00,A,3844.2881,N,00908.3203,W,2.894963,6.219117,080617,,*26
$GPGGA,194932.00,3844.2881,N,00908.3203,W,1,00,0.0,135.404327,M,0.0,M,,*70
$GPGLL,3844.2881,N,00908.3203,W,194932.00,A,*35
$GPGSA,A,3,,,,,,,,,,,,,0.0,0.0,0.0*32
$GPRMC,194933.00,A,3844.2890,N,00908.3211,W,3.215304,326.635706,080617,,*20
$GPGGA,194933.00,3844.2890,N,00908.3211,W,1,00,0.0,134.834549,M,0.0,M,,*72
$GPGLL,3844.2890,N,00908.3211,W,194933.00,A,*37
$GPGSA,A,3,,,,,,,,,,,,,0.0,0.0,0.0*32
$GPRMC,194934.00,A,3844.2896,N,00908.3220,W,3.673022,310.180407,080617,,*2E
$GPGGA,194934.00,3844.2896,N,00908.3220,W,1,00,0.0,134.269287,M,0.0,M,,*76
$GPGLL,3844.2896,N,00908.3220,W,194934.00,A,*34
$GPGSA,A,3,,,,,,,,,,,,,0.0,0.0,0.0*32
$GPRMC,194935.00,A,3844.2909,N,00908.3215,W,3.190819,17.409818,080617,,*16
$GPGGA,194935.00,3844.2909,N,00908.3215,W,1,00,0.0,133.687012,M,0.0,M,,*7B
$GPGLL,3844.2909,N,00908.3215,W,194935.00,A,*34
$GPGSA,A,3,,,,,,,,,,,,,0.0,0.0,0.0*32
$GPRMC,194936.00,A,3844.2910,N,00908.3213,W,2.802544,58.709561,080617,,*16
$GPGGA,194936.00,3844.2910,N,00908.3213,W,1,00,0.0,133.155548,M,0.0,M,,*74
$GPGLL,3844.2910,N,00908.3213,W,194936.00,A,*39
$GPGSA,A,3,,,,,,,,,,,,,0.0,0.0,0.0*32
$GPRMC,194937.00,A,3844.2922,N,00908.3201,W,1.789229,38.553999,080617,,*16
$GPGGA,194937.00,3844.2922,N,00908.3201,W,1,00,0.0,132.595901,M,0.0,M,,*7F
$GPGLL,3844.2922,N,00908.3201,W,194937.00,A,*3A
$GPGSA,A,3,,,,,,,,,,,,,0.0,0.0,0.0*32
$GPRMC,194938.00,A,3844.2922,N,00908.3185,W,1.328122,85.720299,080617,,*1A
$GPGGA,194938.00,3844.2922,N,00908.3185,W,1,00,0.0,131.995056,M,0.0,M,,*7B
$GPGLL,3844.2922,N,00908.3185,W,194938.00,A,*3A
$GPGSA,A,3,,,,,,,,,,,,,0.0,0.0,0.0*32
$GPRMC,194939.00,A,3844.2924,N,00908.3177,W,1.053735,76.786604,080617,,*1F
$GPGGA,194939.00,3844.2924,N,00908.3177,W,1,00,0.0,131.467957,M,0.0,M,,*79
$GPGLL,3844.2924,N,00908.3177,W,194939.00,A,*30
$GPGSA,A,3,,,,,,,,,,,,,0.0,0.0,0.0*32
$GPRMC,194940.00,A,3844.2931,N,00908.3143,W,2.073570,74.289144,080617,,*1B
$GPGGA,194940.00,3844.2931,N,00908.3143,W,1,00,0.0,130.999817,M,0.0,M,,*7C
$GPGLL,3844.2931,N,00908.3143,W,194940.00,A,*3D
$GPGSA,A,3,,,,,,,,,,,,,0.0,0.0,0.0*32
$GPRMC,194941.00,A,3844.2934,N,00908.3126,W,2.209231,80.083141,080617,,*17
$GPGGA,194941.00,3844.2934,N,00908.3126,W,1,00,0.0,130.493210,M,0.0,M,,*71
$GPGLL,3844.2934,N,00908.3126,W,194941.00,A,*3A
$GPGSA,A,3,,,,,,,,,,,,,0.0,0.0,0.0*32
$GPRMC,194942.00,A,3844.2936,N,00908.3123,W,2.116668,48.719568,080617,,*19
$GPGGA,194942.00,3844.2936,N,00908.3123,W,1,00,0.0,129.960968,M,0.0,M,,*78
$GPGLL,3844.2936,N,00908.3123,W,194942.00,A,*3E
$GPGSA,A,3,,,,,,,,,,,,,0.0,0.0,0.0*32
$GPRMC,194943.00,A,3844.2951,N,00908.3098,W,1.941029,52.590558,080617,,*19
$GPGGA,194943.00,3844.2951,N,00908.3098,W,1,00,0.0,129.546768,M,0.0,M,,*7F
$GPGLL,3844.2951,N,00908.3098,W,194943.00,A,*3F
$GPGSA,A,3,,,,,,,,,,,,,0.0,0.0,0.0*32
$GPRMC,194944.00,A,3844.2949,N,00908.3088,W,1.914153,99.963431,080617,,*13
$GPGGA,194944.00,3844.2949,N,00908.3088,W,1,00,0.0,129.054077,M,0.0,M,,*7F
$GPGLL,3844.2949,N,00908.3088,W,194944.00,A,*30
$GPGSA,A,3,,,,,,,,,,,,,0.0,0.0,0.0*32
$GPRMC,194945.00,A,3844.2947,N,00908.3079,W,2.123191,110.415315,080617,,*2E
$GPGGA,194945.00,3844.2947,N,00908.3079,W,1,00,0.0,128.568893,M,0.0,M,,*77
$GPGLL,3844.2947,N,00908.3079,W,194945.00,A,*31
$GPGSA,A,3,,,,,,,,,,,,,0.0,0.0,0.0*32
$GPRMC,194946.00,A,3844.2942,N,00908.3073,W,1.940268,139.546321,080617,,*22
$GPGGA,194946.00,3844.2942,N,00908.3073,W,1,00,0.0,128.111725,M,0.0,M,,*73
$GPGLL,3844.2942,N,00908.3073,W,194946.00,A,*3D
$GPGSA,A,3,,,,,,,,,,,,,0.0,0.0,0.0*32
$GPRMC,194947.00,A,3844.2942,N,00908.3076,W,1.666591,267.290758,080617,,*22
$GPGGA,194947.00,3844.2942,N,00908.3076,W,1,00,0.0,127.597984,M,0.0,M,,*77
$GPGLL,3844.2942,N,00908.3076,W,194947.00,A,*39
$GPGSA,A,3,,,,,,,,,,,,,0.0,0.0,0.0*32
$GPRMC,194948.00,A,3844.2947,N,00908.3073,W,2.106875,17.833741,080617,,*16
$GPGGA,194948.00,3844.2947,N,00908.3073,W,1,00,0.0,127.114258,M,0.0,M,,*7D
$GPGLL,3844.2947,N,00908.3073,W,194948.00,A,*36
$GPGSA,A,3,,,,,,,,,,,,,0.0,0.0,0.0*32
$GPRMC,194949.00,A,3844.2949,N,00908.3043,W,3.169412,84.214007,080617,,*1F
$GPGGA,194949.00,3844.2949,N,00908.3043,W,1,00,0.0,126.585121,M,0.0,M,,*71
$GPGLL,3844.2949,N,00908.3043,W,194949.00,A,*3A
$GPGSA,A,3,,,,,,,,,,,,,0.0,0.0,0.0*32
$GPRMC,194950.00,A,3844.2954,N,00908.3032,W,3.157992,65.412881,080617,,*1C
$GPGGA,194950.00,3844.2954,N,00908.3032,W,1,00,0.0,126.145264,M,0.0,M,,*79
$GPGLL,3844.2954,N,00908.3032,W,194950.00,A,*38
$GPGSA,A,3,,,,,,,,,,,,,0.0,0.0,0.0*32
$GPRMC,194951.00,A,3844.2960,N,00908.2987,W,3.130561,79.726103,080617,,*17
$GPGGA,194951.00,3844.2960,N,00908.2987,W,1,00,0.0,125.743713,M,0.0,M,,*7F
$GPGLL,3844.2960,N,00908.2987,W,194951.00,A,*38
$GPGSA,A,3,,,,,,,,,,,,,0.0,0.0,0.0*32
$GPRMC,194952.00,A,3844.2968,N,00908.2992,W,2.847415,337.722803,080617,,*26
$GPGGA,194952.00,3844.2968,N,00908.2992,W,1,00,0.0,125.390266,M,0.0,M,,*7D
$GPGLL,3844.2968,N,00908.2992,W,194952.00,A,*37
$GPGSA,A,3,,,,,,,,,,,,,0.0,0.0,0.0*32
$GPRMC,194953.00,A,3844.2979,N,00908.2989,W,2.750579,11.086883,080617,,*19
$GPGGA,194953.00,3844.2979,N,00908.2989,W,1,00,0.0,125.053680,M,0.0,M,,*76
$GPGLL,3844.2979,N,00908.2989,W,194953.00,A,*3C
$GPGSA,A,3,,,,,,,,,,,,,0.0,0.0,0.0*32
$GPRMC,194954.00,A,3844.2977,N,00908.2991,W,2.572111,221.953031,080617,,*20
$GPGGA,194954.00,3844.2977,N,00908.2991,W,1,00,0.0,124.932953,M,0.0,M,,*78
$GPGLL,3844.2977,N,00908.2991,W,194954.00,A,*3C
$GPGSA,A,3,,,,,,,,,,,,,0.0,0.0,0.0*32
$GPRMC,194955.00,A,3844.2986,N,00908.2999,W,3.192642,328.402586,080617,,*25
$GPGGA,194955.00,3844.2986,N,00908.2999,W,1,00,0.0,124.702927,M,0.0,M,,*71
$GPGLL,3844.2986,N,00908.2999,W,194955.00,A,*3B
$GPGSA,A,3,,,,,,,,,,,,,0.0,0.0,0.0*32
$GPRMC,194956.00,A,3844.2982,N,00908.3007,W,3.219988,240.859097,080617,,*2C
$GPGGA,194956.00,3844.2982,N,00908.3007,W,1,00,0.0,124.548859,M,0.0,M,,*7D
$GPGLL,3844.2982,N,00908.3007,W,194956.00,A,*33
$GPGSA,A,3,,,,,,,,,,,,,0.0,0.0,0.0*32
$GPRMC,194957.00,A,3844.2986,N,00908.3015,W,3.254238,301.874817,080617,,*28
$GPGGA,194957.00,3844.2986,N,00908.3015,W,1,00,0.0,124.318222,M,0.0,M,,*7E
$GPGLL,3844.2986,N,00908.3015,W,194957.00,A,*35
$GPGSA,A,3,,,,,,,,,,,,,0.0,0.0,0.0*32
$GPRMC,194958.00,A,3844.2992,N,00908.3025,W,3.779470,308.165717,080617,,*2E
$GPGGA,194958.00,3844.2992,N,00908.3025,W,1,00,0.0,124.082619,M,0.0,M,,*7B
$GPGLL,3844.2992,N,00908.3025,W,194958.00,A,*3C
$GPGSA,A,3,,,,,,,,,,,,,0.0,0.0,0.0*32
$GPRMC,194959.00,A,3844.2999,N,00908.3026,W,3.488324,349.957136,080617,,*25
$GPGGA,194959.00,3844.2999,N,00908.3026,W,1,00,0.0,123.863731,M,0.0,M,,*79
$GPGLL,3844.2999,N,00908.3026,W,194959.00,A,*35
$GPGSA,A,3,,,,,,,,,,,,,0.0,0.0,0.0*32
$GPRMC,195000.00,A,3844.3007,N,00908.3032,W,3.668419,331.957551,080617,,*24
$GPGGA,195000.00,3844.3007,N,00908.3032,W,1,00,0.0,123.644424,M,0.0,M,,*7B
$GPGLL,3844.3007,N,00908.3032,W,195000.00,A,*3B
$GPGSA,A,3,,,,,,,,,,,,,0.0,0.0,0.0*32
$GPRMC,195001.00,A,3844.3015,N,00908.3042,W,3.787093,316.434764,080617,,*2E
$GPGGA,195001.00,3844.3015,N,00908.3042,W,1,00,0.0,123.434189,M,0.0,M,,*79
$GPGLL,3844.3015,N,00908.3042,W,195001.00,A,*3E
$GPGSA,A,3,,,,,,,,,,,,,0.0,0.0,0.0*32
$GPRMC,195002.00,A,3844.3020,N,00908.3026,W,4.952015,69.043304,080617,,*1B
$GPGGA,195002.00,3844.3020,N,00908.3026,W,1,00,0.0,123.148521,M,0.0,M,,*76
$GPGLL,3844.3020,N,00908.3026,W,195002.00,A,*39
$GPGSA,A,3,,,,,,,,,,,,,0.0,0.0,0.0*32
$GPRMC,195003.00,A,3844.3032,N,00908.3077,W,5.137306,287.556789,080617,,*24
$GPGGA,195003.00,3844.3032,N,00908.3077,W,1,00,0.0,123.023247,M,0.0,M,,*7B
$GPGLL,3844.3032,N,00908.3077,W,195003.00,A,*3F
$GPGSA,A,3,,,,,,,,,,,,,0.0,0.0,0.0*32
$GPRMC,195004.00,A,3844.3037,N,00908.3094,W,5.153964,289.840818,080617,,*24
$GPGGA,195004.00,3844.3037,N,00908.3094,W,1,00,0.0,122.867180,M,0.0,M,,*75
$GPGLL,3844.3037,N,00908.3094,W,195004.00,A,*30
$GPGSA,A,3,,,,,,,,,,,,,0.0,0.0,0.0*32
$GPRMC,195005.00,A,3844.3041,N,00908.3108,W,5.139406,290.849151,080617,,*20
$GPGGA,195005.00,3844.3041,N,00908.3108,W,1,00,0.0,122.721985,M,0.0,M,,*71
$GPGLL,3844.3041,N,00908.3108,W,195005.00,A,*34
$GPGSA,A,3,,,,,,,,,,,,,0.0,0.0,0.0*32
$GPRMC,195006.00,A,3844.3048,N,00908.3123,W,5.033194,301.822806,080617,,*29
$GPGGA,195006.00,3844.3048,N,00908.3123,W,1,00,0.0,122.539558,M,0.0,M,,*75
$GPGLL,3844.3048,N,00908.3123,W,195006.00,A,*37
$GPGSA,A,3,,,,,,,,,,,,,0.0,0.0,0.0*32
$GPRMC,195007.00,A,3844.3056,N,00908.3139,W,5.360641,300.574036,080617,,*22
$GPGGA,195007.00,3844.3056,N,00908.3139,W,1,00,0.0,122.389099,M,0.0,M,,*75
$GPGLL,3844.3056,N,00908.3139,W,195007.00,A,*32
$GPGSA,A,3,,,,,,,,,,,,,0.0,0.0,0.0*32
$GPRMC,195008.00,A,3844.3066,N,00908.3144,W,6.031017,341.562903,080617,,*28
$GPGGA,195008.00,3844.3066,N,00908.3144,W,1,00,0.0,122.270386,M,0.0,M,,*79
$GPGLL,3844.3066,N,00908.3144,W,195008.00,A,*34
$GPGSA,A,3,,,,,,,,,,,,,0.0,0.0,0.0*32
$GPRMC,195009.00,A,3844.3075,N,00908.3145,W,5.664358,352.640870,080617,,*23
$GPGGA,195009.00,3844.3075,N,00908.3145,W,1,00,0.0,122.170563,M,0.0,M,,*75
$GPGLL,3844.3075,N,00908.3145,W,195009.00,A,*36
$GPGSA,A,3,,,,,,,,,,,,,0.0,0.0,0.0*32
$GPRMC,195010.00,A,3844.3081,N,00908.3161,W,5.957626,297.809490,080617,,*2C
$GPGGA,195010.00,3844.3081,N,00908.3161,W,1,00,0.0,122.080223,M,0.0,M,,*7D
$GPGLL,3844.3081,N,00908.3161,W,195010.00,A,*33
$GPGSA,A,3,,,,,,,,,,,,,0.0,0.0,0.0*32
$GPRMC,195011.00,A,3844.3093,N,00908.3154,W,4.944208,26.908841,080617,,*1B
$GPGGA,195011.00,3844.3093,N,00908.3154,W,1,00,0.0,122.029861,M,0.0,M,,*76
$GPGLL,3844.3093,N,00908.3154,W,195011.00,A,*37
$GPGSA,A,3,,,,,,,,,,,,,0.0,0.0,0.0*32
$GPRMC,195012.00,A,3844.3107,N,00908.3180,W,4.713635,305.625148,080617,,*29
$GPGGA,195012.00,3844.3107,N,00908.3180,W,1,00,0.0,122.035172,M,0.0,M,,*76
$GPGLL,3844.3107,N,00908.3180,W,195012.00,A,*31
$GPGSA,A,3,,,,,,,,,,,,,0.0,0.0,0.0*32
$GPRMC,195013.00,A,3844.3120,N,00908.3139,W,2.732334,67.877689,080617,,*1A
$GPGGA,195013.00,3844.3120,N,00908.3139,W,1,00,0.0,121.953789,M,0.0,M,,*78
$GPGLL,3844.3120,N,00908.3139,W,195013.00,A,*37
$GPGSA,A,3,,,,,,,,,,,,,0.0,0.0,0.0*32
$GPRMC,195014.00,A,3844.3125,N,00908.3130,W,2.294875,51.300684,080617,,*15
$GPGGA,195014.00,3844.3125,N,00908.3130,W,1,00,0.0,121.942802,M,0.0,M,,*7F
$GPGLL,3844.3125,N,00908.3130,W,195014.00,A,*3C
$GPGSA,A,3,,,,,,,,,,,,,0.0,0.0,0.0*32
$GPRMC,195015.00,A,3844.3138,N,00908.3113,W,1.365998,46.015050,080617,,*19
$GPGGA,195015.00,3844.3138,N,00908.3113,W,1,00,0.0,121.964645,M,0.0,M,,*7A
$GPGLL,3844.3138,N,00908.3113,W,195015.00,A,*30
$GPGSA,A,3,,,,,,,,,,,,,0.0,0.0,0.0*32
$GPRMC,195016.00,A,3844.3147,N,00908.3085,W,0.630559,68.568113,080617,,*1C
$GPGGA,195016.00,3844.3147,N,00908.3085,W,1,00,0.0,121.971306,M,0.0,M,,*79
$GPGLL,3844.3147,N,00908.3085,W,195016.00,A,*35
$GPGSA,A,3,,,,,,,,,,,,,0.0,0.0,0.0*32
$GPRMC,195017.00,A,3844.3146,N,00908.3084,W,1.230825,156.560671,080617,,*29
$GPGGA,195017.00,3844.3146,N,00908.3084,W,1,00,0.0,122.048935,M,0.0,M,,*72
$GPGLL,3844.3146,N,00908.3084,W,195017.00,A,*34
$GPGSA,A,3,,,,,,,,,,,,,0.0,0.0,0.0*32
$GPRMC,195018.00,A,3844.3152,N,00908.3062,W,2.100118,70.924762,080617,,*15
$GPGGA,195018.00,3844.3152,N,00908.3062,W,1,00,0.0,122.041260,M,0.0,M,,*72
$GPGLL,3844.3152,N,00908.3062,W,195018.00,A,*36
$GPGSA,A,3,,,,,,,,,,,,,0.0,0.0,0.0*32
$GPRMC,195019.00,A,3844.3132,N,00908.3061,W,0.628137,178.072477,080617,,*27
$GPGGA,195019.00,3844.3132,N,00908.3061,W,1,00,0.0,122.123779,M,0.0,M,,*7E
$GPGLL,3844.3132,N,00908.3061,W,195019.00,A,*32
$GPGSA,A,3,,,,,,,,,,,,,0.0,0.0,0.0*32
$GPRMC,195020.00,A,3844.3146,N,00908.3018,W,1.866573,66.799631,080617,,*1D
$GPGGA,195020.00,3844.3146,N,00908.3018,W,1,00,0.0,122.228539,M,0.0,M,,*77
$GPGLL,3844.3146,N,00908.3018,W,195020.00,A,*35
$GPGSA,A,3,,,,,,,,,,,,,0.0,0.0,0.0*32
$GPRMC,195021.00,A,3844.3154,N,00908.3000,W,2.678486,61.887283,080617,,*15
$GPGGA,195021.00,3844.3154,N,00908.3000,W,1,00,0.0,122.396149,M,0.0,M,,*7B
$GPGLL,3844.3154,N,00908.3000,W,195021.00,A,*3E
$GPGSA,A,3,,,,,,,,,,,,,0.0,0.0,0.0*32
$GPRMC,195022.00,A,3844.3163,N,00908.2990,W,2.580909,38.828156,080617,,*1F
$GPGGA,195022.00,3844.3163,N,00908.2990,W,1,00,0.0,122.576797,M,0.0,M,,*70
$GPGLL,3844.3163,N,00908.2990,W,195022.00,A,*38
$GPGSA,A,3,,,,,,,,,,,,,0.0,0.0,0.0*32
$GPRMC,195023.00,A,3844.3160,N,00908.2997,W,3.019135,236.374808,080617,,*25
$GPGGA,195023.00,3844.3160,N,00908.2997,W,1,00,0.0,122.785606,M,0.0,M,,*72
$GPGLL,3844.3160,N,00908.2997,W,195023.00,A,*3D
$GPGSA,A,3,,,,,,,,,,,,,0.0,0.0,0.0*32
$GPRMC,195024.00,A,3844.3166,N,00908.2974,W,3.428164,71.589115,080617,,*1B
$GPGGA,195024.00,3844.3166,N,00908.2974,W,1,00,0.0,122.946968,M,0.0,M,,*78
$GPGLL,3844.3166,N,00908.2974,W,195024.00,A,*31
$GPGSA,A,3,,,,,,,,,,,,,0.0,0.0,0.0*32
$GPRMC,195025.00,A,3844.3167,N,00908.2987,W,1.557161,277.670395,080617,,*22
$GPGGA,195025.00,3844.3167,N,00908.2987,W,1,00,0.0,123.134308,M,0.0,M,,*74
$GPGLL,3844.3167,N,00908.2987,W,195025.00,A,*3D
$GPGSA,A,3,,,,,,,,,,,,,0.0,0.0,0.0*32
$GPRMC,195026.00,A,3844.3190,N,00908.2944,W,2.134728,55.343659,080617,,*1D
$GPGGA,195026.00,3844.3190,N,00908.2944,W,1,00,0.0,123.305733,M,0.0,M,,*7C
$GPGLL,3844.3190,N,00908.2944,W,195026.00,A,*39
$GPGSA,A,3,,,,,,,,,,,,,0.0,0.0,0.0*32
$GPRMC,195027.00,A,3844.3202,N,00908.2957,W,1.849773,318.510687,080617,,*21
$GPGGA,195027.00,3844.3202,N,00908.2957,W,1,00,0.0,123.652428,M,0.0,M,,*79
$GPGLL,3844.3202,N,00908.2957,W,195027.00,A,*32
$GPGSA,A,3,,,,,,,,,,,,,0.0,0.0,0.0*32
$GPRMC,195028.00,A,3844.3202,N,00908.2947,W,2.781381,95.547436,080617,,*12
$GPGGA,195028.00,3844.3202,N,00908.2947,W,1,00,0.0,123.782272,M,0.0,M,,*72
$GPGLL,3844.3202,N,00908.2947,W,195028.00,A,*3C
$GPGSA,A,3,,,,,,,,,,,,,0.0,0.0,0.0*32
$GPRMC,195029.00,A,3844.3201,N,00908.2934,W,2.892588,90.571503,080617,,*11
$GPGGA,195029.00,3844.3201,N,00908.2934,W,1,00,0.0,123.963440,M,0.0,M,,*72
$GPGLL,3844.3201,N,00908.2934,W,195029.00,A,*3A
$GPGSA,A,3,,,,,,,,,,,,,0.0,0.0,0.0*32
$GPRMC,195030.00,A,3844.3198,N,00908.2946,W,0.676022,252.130556,080617,,*21
$GPGGA,195030.00,3844.3198,N,00908.2946,W,1,00,0.0,124.179222,M,0.0,M,,*7A
$GPGLL,3844.3198,N,00908.2946,W,195030.00,A,*34
$GPGSA,A,3,,,,,,,,,,,,,0.0,0.0,0.0*32
$GPRMC,195031.00,A,3844.3204,N,00908.2932,W,1.478767,62.871835,080617,,*1B
$GPGGA,195031.00,3844.3204,N,00908.2932,W,1,00,0.0,124.422401,M,0.0,M,,*72
$GPGLL,3844.3204,N,00908.2932,W,195031.00,A,*30
$GPGSA,A,3,,,,,,,,,,,,,0.0,0.0,0.0*32
$GPRMC,195032.00,A,3844.3212,N,00908.2911,W,3.348158,63.235958,080617,,*13
$GPGGA,195032.00,3844.3212,N,00908.2911,W,1,00,0.0,124.684319,M,0.0,M,,*77
$GPGLL,3844.3212,N,00908.2911,W,195032.00,A,*35
$GPGSA,A,3,,,,,,,,,,,,,0.0,0.0,0.0*32
$GPRMC,195033.00,A,3844.3217,N,00908.2896,W,3.175883,67.675131,080617,,*19
$GPGGA,195033.00,3844.3217,N,00908.2896,W,1,00,0.0,124.961143,M,0.0,M,,*74
$GPGLL,3844.3217,N,00908.2896,W,195033.00,A,*3F
$GPGSA,A,3,,,,,,,,,,,,,0.0,0.0,0.0*32
$GPRMC,195034.00,A,3844.3217,N,00908.2894,W,3.143142,86.576810,080617,,*18
$GPGGA,195034.00,3844.3217,N,00908.2894,W,1,00,0.0,125.240410,M,0.0,M,,*7B
$GPGLL,3844.3217,N,00908.2894,W,195034.00,A,*3A
$GPGSA,A,3,,,,,,,,,,,,,0.0,0.0,0.0*32
$GPRMC,195035.00,A,3844.3219,N,00908.2888,W,3.370464,63.433627,080617,,*18
$GPGGA,195035.00,3844.3219,N,00908.2888,W,1,00,0.0,125.493210,M,0.0,M,,*77
$GPGLL,3844.3219,N,00908.2888,W,195035.00,A,*38
$GPGSA,A,3,,,,,,,,,,,,,0.0,0.0,0.0*32
$GPRMC,195036.00,A,3844.3225,N,00908.2880,W,2.941610,44.623126,080617,,*14
$GPGGA,195036.00,3844.3225,N,00908.2880,W,1,00,0.0,125.711227,M,0.0,M,,*7E
$GPGLL,3844.3225,N,00908.2880,W,195036.00,A,*3C
$GPGSA,A,3,,,,,,,,,,,,,0.0,0.0,0.0*32
$GPRMC,195037.00,A,3844.3232,N,00908.2882,W,2.115725,350.859587,080617,,*25
$GPGGA,195037.00,3844.3232,N,00908.2882,W,1,00,0.0,125.939545,M,0.0,M,,*7C
$GPGLL,3844.3232,N,00908.2882,W,195037.00,A,*39
$GPGSA,A,3,,,,,,,,,,,,,0.0,0.0,0.0*32
$GPRMC,195038.00,A,3844.3241,N,00908.2900,W,2.716823,299.778026,080617,,*2F
$GPGGA,195038.00,3844.3241,N,00908.2900,W,1,00,0.0,126.230797,M,0.0,M,,*70
$GPGLL,3844.3241,N,00908.2900,W,195038.00,A,*39
$GPGSA,A,3,,,,,,,,,,,,,0.0,0.0,0.0*32
$GPRMC,195039.00,A,3844.3245,N,00908.2867,W,2.205923,79.917230,080617,,*12
$GPGGA,195039.00,3844.3245,N,00908.2867,W,1,00,0.0,126.525497,M,0.0,M,,*75
$GPGLL,3844.3245,N,00908.2867,W,195039.00,A,*3C
$GPGSA,A,3,,,,,,,,,,,,,0.0,0.0,0.0*32
$GPRMC,195040.00,A,3844.3251,N,00908.2852,W,2.547699,64.277820,080617,,*1A
$GPGGA,195040.00,3844.3251,N,00908.2852,W,1,00,0.0,126.854393,M,0.0,M,,*70
$GPGLL,3844.3251,N,00908.2852,W,195040.00,A,*31
$GPGSA,A,3,,,,,,,,,,,,,0.0,0.0,0.0*32
$GPRMC,195041.00,A,3844.3254,N,00908.2848,W,2.557889,45.404710,080617,,*16
$GPGGA,195041.00,3844.3254,N,00908.2848,W,1,00,0.0,127.223267,M,0.0,M,,*7E
$GPGLL,3844.3254,N,00908.2848,W,195041.00,A,*3E
$GPGSA,A,3,,,,,,,,,,,,,0.0,0.0,0.0*32
$GPRMC,195042.00,A,3844.3263,N,00908.2843,W,2.906986,23.496989,080617,,*19
$GPGGA,195042.00,3844.3263,N,00908.2843,W,1,00,0.0,127.550728,M,0.0,M,,*7F
$GPGLL,3844.3263,N,00908.2843,W,195042.00,A,*32
$GPGSA,A,3,,,,,,,,,,,,,0.0,0.0,0.0*32
$GPRMC,195043.00,A,3844.3263,N,00908.2837,W,2.453524,92.750152,080617,,*1F
$GPGGA,195043.00,3844.3263,N,00908.2837,W,1,00,0.0,127.781136,M,0.0,M,,*7A
$GPGLL,3844.3263,N,00908.2837,W,195043.00,A,*30
$GPGSA,A,3,,,,,,,,,,,,,0.0,0.0,0.0*32
$GPRMC,195044.00,A,3844.3269,N,00908.2821,W,2.101194,66.258178,080617,,*16
$GPGGA,195044.00,3844.3269,N,00908.2821,W,1,00,0.0,128.107330,M,0.0,M,,*73
$GPGLL,3844.3269,N,00908.2821,W,195044.00,A,*3A
$GPGSA,A,3,,,,,,,,,,,,,0.0,0.0,0.0*32
$GPRMC,195045.00,A,3844.3264,N,00908.2826,W,1.836837,222.071528,080617,,*29
$GPGGA,195045.00,3844.3264,N,00908.2826,W,1,00,0.0,128.540237,M,0.0,M,,*79
$GPGLL,3844.3264,N,00908.2826,W,195045.00,A,*31
$GPGSA,A,3,,,,,,,,,,,,,0.0,0.0,0.0*32
$GPRMC,195046.00,A,3844.3268,N,00908.2829,W,1.933493,339.836611,080617,,*26
$GPGGA,195046.00,3844.3268,N,00908.2829,W,1,00,0.0,128.957779,M,0.0,M,,*7C
$GPGLL,3844.3268,N,00908.2829,W,195046.00,A,*31
$GPGSA,A,3,,,,,,,,,,,,,0.0,0.0,0.0*32
$GPRMC,195047.00,A,3844.3275,N,00908.2830,W,2.149802,348.922201,080617,,*26
$GPGGA,195047.00,3844.3275,N,00908.2830,W,1,00,0.0,129.359146,M,0.0,M,,*76
$GPGLL,3844.3275,N,00908.2830,W,195047.00,A,*34
$GPGSA,A,3,,,,,,,,,,,,,0.0,0.0,0.0*32
$GPRMC,195048.00,A,3844.3285,N,00908.2826,W,2.702211,17.599145,080617,,*16
$GPGGA,195048.00,3844.3285,N,00908.2826,W,1,00,0.0,129.744507,M,0.0,M,,*78
$GPGLL,3844.3285,N,00908.2826,W,195048.00,A,*33
$GPGSA,A,3,,,,,,,,,,,,,0.0,0.0,0.0*32
$GPRMC,195049.00,A,3844.3288,N,00908.2818,W,1.746963,68.223075,080617,,*16
$GPGGA,195049.00,3844.3288,N,00908.2818,W,1,00,0.0,130.155884,M,0.0,M,,*71
$GPGLL,3844.3288,N,00908.2818,W,195049.00,A,*32
$GPGSA,A,3,,,,,,,,,,,,,0.0,0.0,0.0*32
$GPRMC,195050.00,A,3844.3294,N,00908.2772,W,2.015431,79.899547,080617,,*17
$GPGGA,195050.00,3844.3294,N,00908.2772,W,1,00,0.0,130.551590,M,0.0,M,,*7F
$GPGLL,3844.3294,N,00908.2772,W,195050.00,A,*34
$GPGSA,A,3,,,,,,,,,,,,,0.0,0.0,0.0*32
$GPRMC,195051.00,A,3844.3304,N,00908.2761,W,1.744810,42.453393,080617,,*1E
$GPGGA,195051.00,3844.3304,N,00908.2761,W,1,00,0.0,131.000870,M,0.0,M,,*77
$GPGLL,3844.3304,N,00908.2761,W,195051.00,A,*3F
$GPGSA,A,3,,,,,,,,,,,,,0.0,0.0,0.0*32
$GPRMC,195052.00,A,3844.3306,N,00908.2736,W,1.867213,85.808123,080617,,*1A
$GPGGA,195052.00,3844.3306,N,00908.2736,W,1,00,0.0,131.448547,M,0.0,M,,*75
$GPGLL,3844.3306,N,00908.2736,W,195052.00,A,*3C
$GPGSA,A,3,,,,,,,,,,,,,0.0,0.0,0.0*32
$GPRMC,195053.00,A,3844.3311,N,00908.2744,W,2.042971,310.672421,080617,,*20
$GPGGA,195053.00,3844.3311,N,00908.2744,W,1,00,0.0,131.945831,M,0.0,M,,*7B
$GPGLL,3844.3311,N,00908.2744,W,195053.00,A,*3E
$GPGSA,A,3,,,,,,,,,,,,,0.0,0.0,0.0*32
$GPRMC,195054.00,A,3844.3323,N,00908.2724,W,2.854202,53.632368,080617,,*1A
$GPGGA,195054.00,3844.3323,N,00908.2724,W,1,00,0.0,132.501129,M,0.0,M,,*74
$GPGLL,3844.3323,N,00908.2724,W,195054.00,A,*3E
$GPGSA,A,3,,,,,,,,,,,,,0.0,0.0,0.0*32
$GPRMC,195055.00,A,3844.3328,N,00908.2722,W,2.768988,14.767570,080617,,*12
$GPGGA,195055.00,3844.3328,N,00908.2722,W,1,00,0.0,133.105774,M,0.0,M,,*77
$GPGLL,3844.3328,N,00908.2722,W,195055.00,A,*32
$GPGSA,A,3,,,,,,,,,,,,,0.0,0.0,0.0*32
$GPRMC,195056.00,A,3844.3343,N,00908.2697,W,3.536781,50.915749,080617,,*1F
$GPGGA,195056.00,3844.3343,N,00908.2697,W,1,00,0.0,133.802261,M,0.0,M,,*79
$GPGLL,3844.3343,N,00908.2697,W,195056.00,A,*33
$GPGSA,A,3,,,,,,,,,,,,,0.0,0.0,0.0*32
$GPRMC,195057.00,A,3844.3355,N,00908.2665,W,3.143005,65.112176,080617,,*1A
$GPGGA,195057.00,3844.3355,N,00908.2665,W,1,00,0.0,134.298401,M,0.0,M,,*7C
$GPGLL,3844.3355,N,00908.2665,W,195057.00,A,*38
$GPGSA,A,3,,,,,,,,,,,,,0.0,0.0,0.0*32
$GPRMC,195058.00,A,3844.3353,N,00908.2671,W,2.514749,248.752998,080617,,*29
$GPGGA,195058.00,3844.3353,N,00908.2671,W,1,00,0.0,134.826279,M,0.0,M,,*76
$GPGLL,3844.3353,N,00908.2671,W,195058.00,A,*34
$GPGSA,A,3,,,,,,,,,,,,,0.0,0.0,0.0*32
$GPRMC,195059.00,A,3844.3360,N,00908.2652,W,2.730518,66.042797,080617,,*12
$GPGGA,195059.00,3844.3360,N,00908.2652,W,1,00,0.0,135.373688,M,0.0,M,,*76
$GPGLL,3844.3360,N,00908.2652,W,195059.00,A,*34
$GPGSA,A,3,,,,,,,,,,,,,0.0,0.0,0.0*32
$GPRMC,195100.00,A,3844.3361,N,00908.2647,W,1.488656,78.020604,080617,,*10
$GPGGA,195100.00,3844.3361,N,00908.2647,W,1,00,0.0,135.839264,M,0.0,M,,*7D
$GPGLL,3844.3361,N,00908.2647,W,195100.00,A,*3C
$GPGSA,A,3,,,,,,,,,,,,,0.0,0.0,0.0*32
$GPRMC,195101.00,A,3844.3361,N,00908.2646,W,0.960182,64.797061,080617,,*17
$GPGGA,195101.00,3844.3361,N,00908.2646,W,1,00,0.0,136.348694,M,0.0,M,,*78
$GPGLL,3844.3361,N,00908.2646,W,195101.00,A,*3C
$GPGSA,A,3,,,,,,,,,,,,,0.0,0.0,0.0*32
$GPRMC,195102.00,A,3844.3364,N,00908.2658,W,1.270227,288.020999,080617,,*2C
$GPGGA,195102.00,3844.3364,N,00908.2658,W,1,00,0.0,136.868011,M,0.0,M,,*73
$GPGLL,3844.3364,N,00908.2658,W,195102.00,A,*35
$GPGSA,A,3,,,,,,,,,,,,,0.0,0.0,0.0*32
$GPRMC,195103.00,A,3844.3368,N,00908.2664,W,1.985788,312.007466,080617,,*25
$GPGGA,195103.00,3844.3368,N,00908.2664,W,1,00,0.0,137.379562,M,0.0,M,,*7A
$GPGLL,3844.3368,N,00908.2664,W,195103.00,A,*37
$GPGSA,A,3,,,,,,,,,,,,,0.0,0.0,0.0*32
$GPRMC,195104.00,A,3844.3370,N,00908.2664,W,1.659910,10.004266,080617,,*1E
$GPGGA,195104.00,3844.3370,N,00908.2664,W,1,00,0.0,137.926300,M,0.0,M,,*76
$GPGLL,3844.3370,N,00908.2664,W,195104.00,A,*39
$GPGSA,A,3,,,,,,,,,,,,,0.0,0.0,0.0*32
$GPRMC,195105.00,A,3844.3375,N,00908.2665,W,2.065202,350.007865,080617,,*24
$GPGGA,195105.00,3844.3375,N,00908.2665,W,1,00,0.0,138.472885,M,0.0,M,,*76
$GPGLL,3844.3375,N,00908.2665,W,195105.00,A,*3C
$GPGSA,A,3,,,,,,,,,,,,,0.0,0.0,0.0*32
$GPRMC,195106.00,A,3844.3378,N,00908.2656,W,1.376601,70.828643,080617,,*11
$GPGGA,195106.00,3844.3378,N,00908.2656,W,1,00,0.0,139.016037,M,0.0,M,,*7E
$GPGLL,3844.3378,N,00908.2656,W,195106.00,A,*32
$GPGSA,A,3,,,,,,,,,,,,,0.0,0.0,0.0*32
$GPRMC,195107.00,A,3844.3376,N,00908.2659,W,1.312315,231.232620,080617,,*20
$GPGGA,195107.00,3844.3376,N,00908.2659,W,1,00,0.0,139.574051,M,0.0,M,,*7F
$GPGLL,3844.3376,N,00908.2659,W,195107.00,A,*32
$GPGSA,A,3,,,,,,,,,,,,,0.0,0.0,0.0*32
$GPRMC,195108.00,A,3844.3380,N,00908.2669,W,2.380553,293.826315,080617,,*2D
$GPGGA,195108.00,3844.3380,N,00908.2669,W,1,00,0.0,140.143372,M,0.0,M,,*76
$GPGLL,3844.3380,N,00908.2669,W,195108.00,A,*37
$GPGSA,A,3,,,,,,,,,,,,,0.0,0.0,0.0*32
$GPRMC,195109.00,A,3844.3383,N,00908.2666,W,2.139717,29.532534,080617,,*1C
$GPGGA,195109.00,3844.3383,N,00908.2666,W,1,00,0.0,140.732483,M,0.0,M,,*72
$GPGLL,3844.3383,N,00908.2666,W,195109.00,A,*3A
$GPGSA,A,3,,,,,,,,,,,,,0.0,0.0,0.0*32
$GPRMC,195110.00,A,3844.3388,N,00908.2671,W,2.544252,322.805940,080617,,*2D
$GPGGA,195110.00,3844.3388,N,00908.2671,W,1,00,0.0,141.332626,M,0.0,M,,*7F
$GPGLL,3844.3388,N,00908.2671,W,195110.00,A,*3F
$GPGSA,A,3,,,,,,,,,,,,,0.0,0.0,0.0*32
$GPRMC,195111.00,A,3844.3386,N,00908.2670,W,2.565468,153.494582,080617,,*2D
$GPGGA,195111.00,3844.3386,N,00908.2670,W,1,00,0.0,141.934860,M,0.0,M,,*71
$GPGLL,3844.3386,N,00908.2670,W,195111.00,A,*31
$GPGSA,A,3,,,,,,,,,,,,,0.0,0.0,0.0*32
$GPRMC,195112.00,A,3844.3394,N,00908.2671,W,3.202919,358.448512,080617,,*21
$GPGGA,195112.00,3844.3394,N,00908.2671,W,1,00,0.0,142.535034,M,0.0,M,,*77
$GPGLL,3844.3394,N,00908.2671,W,195112.00,A,*30
$GPGSA,A,3,,,,,,,,,,,,,0.0,0.0,0.0*32
$GPRMC,195113.00,A,3844.3396,N,00908.2659,W,2.346380,73.971163,080617,,*1D
$GPGGA,195113.00,3844.3396,N,00908.2659,W,1,00,0.0,143.168182,M,0.0,M,,*7F
$GPGLL,3844.3396,N,00908.2659,W,195113.00,A,*39
$GPGSA,A,3,,,,,,,,,,,,,0.0,0.0,0.0*32
$GPRMC,195114.00,A,3844.3408,N,00908.2638,W,3.074878,55.020420,080617,,*19
$GPGGA,195114.00,3844.3408,N,00908.2638,W,1,00,0.0,143.778488,M,0.0,M,,*77
$GPGLL,3844.3408,N,00908.2638,W,195114.00,A,*39
$GPGSA,A,3,,,,,,,,,,,,,0.0,0.0,0.0*32
$GPRMC,195115.00,A,3844.3405,N,00908.2650,W,2.706289,253.571643,080617,,*2E
$GPGGA,195115.00,3844.3405,N,00908.2650,W,1,00,0.0,144.395142,M,0.0,M,,*76
$GPGLL,3844.3405,N,00908.2650,W,195115.00,A,*3B
$GPGSA,A,3,,,,,,,,,,,,,0.0,0.0,0.0*32
$GPRMC,195116.00,A,3844.3414,N,00908.2640,W,2.786208,39.363211,080617,,*15
$GPGGA,195116.00,3844.3414,N,00908.2640,W,1,00,0.0,145.051834,M,0.0,M,,*76
$GPGLL,3844.3414,N,00908.2640,W,195116.00,A,*39
$GPGSA,A,3,,,,,,,,,,,,,0.0,0.0,0.0*32
$GPRMC,195117.00,A,3844.3419,N,00908.2656,W,1.050975,291.283871,080617,,*23
$GPGGA,195117.00,3844.3419,N,00908.2656,W,1,00,0.0,145.720840,M,0.0,M,,*7F
$GPGLL,3844.3419,N,00908.2656,W,195117.00,A,*32
$GPGSA,A,3,,,,,,,,,,,,,0.0,0.0,0.0*32
$GPRMC,195118.00,A,3844.3432,N,00908.2725,W,1.126069,283.869470,080617,,*24
$GPGGA,195118.00,3844.3432,N,00908.2725,W,1,00,0.0,146.416199,M,0.0,M,,*74
$GPGLL,3844.3432,N,00908.2725,W,195118.00,A,*31
$GPGSA,A,3,,,,,,,,,,,,,0.0,0.0,0.0*32
$GPRMC,195119.00,A,3844.3436,N,00908.2717,W,2.052765,55.917692,080617,,*15
$GPGGA,195119.00,3844.3436,N,00908.2717,W,1,00,0.0,147.075699,M,0.0,M,,*77
$GPGLL,3844.3436,N,00908.2717,W,195119.00,A,*35
$GPGSA,A,3,,,,,,,,,,,,,0.0,0.0,0.0*32
$GPRMC,195120.00,A,3844.3442,N,00908.2662,W,2.119455,82.616909,080617,,*18
$GPGGA,195120.00,3844.3442,N,00908.2662,W,1,00,0.0,147.706894,M,0.0,M,,*7D
$GPGLL,3844.3442,N,00908.2662,W,195120.00,A,*3F
$GPGSA,A,3,,,,,,,,,,,,,0.0,0.0,0.0*32
$GPRMC,195121.00,A,3844.3450,N,00908.2624,W,2.433772,74.993110,080617,,*18
$GPGGA,195121.00,3844.3450,N,00908.2624,W,1,00,0.0,148.391815,M,0.0,M,,*71
$GPGLL,3844.3450,N,00908.2624,W,195121.00,A,*3F
$GPGSA,A,3,,,,,,,,,,,,,0.0,0.0,0.0*32
$GPRMC,195122.00,A,3844.3449,N,00908.2595,W,3.295919,92.381813,080617,,*19
$GPGGA,195122.00,3844.3449,N,00908.2595,W,1,00,0.0,149.076569,M,0.0,M,,*7E
$GPGLL,3844.3449,N,00908.2595,W,195122.00,A,*3D
$GPGSA,A,3,,,,,,,,,,,,,0.0,0.0,0.0*32
$GPRMC,195123.00,A,3844.3460,N,00908.2597,W,3.366892,351.247118,080617,,*2B
$GPGGA,195123.00,3844.3460,N,00908.2597,W,1,00,0.0,149.846970,M,0.0,M,,*79
$GPGLL,3844.3460,N,00908.2597,W,195123.00,A,*35
$GPGSA,A,3,,,,,,,,,,,,,0.0,0.0,0.0*32
$GPRMC,195124.00,A,3844.3463,N,00908.2587,W,2.116660,69.725220,080617,,*18
$GPGGA,195124.00,3844.3463,N,00908.2587,W,1,00,0.0,150.605743,M,0.0,M,,*73
$GPGLL,3844.3463,N,00908.2587,W,195124.00,A,*30
$GPGSA,A,3,,,,,,,,,,,,,0.0,0.0,0.0*32
$GPRMC,195125.00,A,3844.3466,N,00908.2572,W,2.219556,77.189756,080617,,*17
$GPGGA,195125.00,3844.3466,N,00908.2572,W,1,00,0.0,151.256378,M,0.0,M,,*72
$GPGLL,3844.3466,N,00908.2572,W,195125.00,A,*3E
$GPGSA,A,3,,,,,,,,,,,,,0.0,0.0,0.0*32
$GPRMC,195126.00,A,3844.3446,N,00908.2571,W,1.075803,178.869998,080617,,*26
$GPGGA,195126.00,3844.3446,N,00908.2571,W,1,00,0.0,151.811691,M,0.0,M,,*7B
$GPGLL,3844.3446,N,00908.2571,W,195126.00,A,*3C
$GPGSA,A,3,,,,,,,,,,,,,0.0,0.0,0.0*32
$GPRMC,195127.00,A,3844.3443,N,00908.2574,W,0.615605,216.716945,080617,,*22
$GPGGA,195127.00,3844.3443,N,00908.2574,W,1,00,0.0,152.518860,M,0.0,M,,*7D
$GPGLL,3844.3443,N,00908.2574,W,195127.00,A,*3D
$GPGSA,A,3,,,,,,,,,,,,,0.0,0.0,0.0*32
$GPRMC,195128.00,A,3844.3441,N,00908.2582,W,1.426836,251.183569,080617,,*20
$GPGGA,195128.00,3844.3441,N,00908.2582,W,1,00,0.0,153.258072,M,0.0,M,,*70
$GPGLL,3844.3441,N,00908.2582,W,195128.00,A,*39
$GPGSA,A,3,,,,,,,,,,,,,0.0,0.0,0.0*32
$GPRMC,195129.00,A,3844.3440,N,00908.2583,W,1.903789,236.411185,080617,,*29
$GPGGA,195129.00,3844.3440,N,00908.2583,W,1,00,0.0,154.069168,M,0.0,M,,*7C
$GPGLL,3844.3440,N,00908.2583,W,195129.00,A,*38
$GPGSA,A,3,,,,,,,,,,,,,0.0,0.0,0.0*32
$GPRMC,195130.00,A,3844.3447,N,00908.2578,W,2.039955,28.499108,080617,,*16
$GPGGA,195130.00,3844.3447,N,00908.2578,W,1,00,0.0,154.824219,M,0.0,M,,*73
$GPGLL,3844.3447,N,00908.2578,W,195130.00,A,*33
$GPGSA,A,3,,,,,,,,,,,,,0.0,0.0,0.0*32
$GPRMC,195131.00,A,3844.3452,N,00908.2575,W,2.117974,22.486878,080617,,*1A
$GPGGA,195131.00,3844.3452,N,00908.2575,W,1,00,0.0,155.542023,M,0.0,M,,*7C
$GPGLL,3844.3452,N,00908.2575,W,195131.00,A,*3B
$GPGSA,A,3,,,,,,,,,,,,,0.0,0.0,0.0*32
$GPRMC,195132.00,A,3844.3485,N,00908.2487,W,3.659959,63.890871,080617,,*1B
$GPGGA,195132.00,3844.3485,N,00908.2487,W,1,00,0.0,156.299561,M,0.0,M,,*78
$GPGLL,3844.3485,N,00908.2487,W,195132.00,A,*3E
$GPGSA,A,3,,,,,,,,,,,,,0.0,0.0,0.0*32
$GPRMC,195133.00,A,3844.3498,N,00908.2464,W,3.009988,54.677412,080617,,*1E
$GPGGA,195133.00,3844.3498,N,00908.2464,W,1,00,0.0,157.126907,M,0.0,M,,*72
$GPGLL,3844.3498,N,00908.2464,W,195133.00,A,*3E
$GPGSA,A,3,,,,,,,,,,,,,0.0,0.0,0.0*32
$GPRMC,195134.00,A,3844.3497,N,00908.2484,W,2.465246,264.942277,080617,,*23
$GPGGA,195134.00,3844.3497,N,00908.2484,W,1,00,0.0,157.943451,M,0.0,M,,*71
$GPGLL,3844.3497,N,00908.2484,W,195134.00,A,*38
$GPGSA,A,3,,,,,,,,,,,,,0.0,0.0,0.0*32
$GPRMC,195135.00,A,3844.3502,N,00908.2479,W,2.855170,34.862899,080617,,*1A
$GPGGA,195135.00,3844.3502,N,00908.2479,W,1,00,0.0,158.649811,M,0.0,M,,*7D
$GPGLL,3844.3502,N,00908.2479,W,195135.00,A,*36
$GPGSA,A,3,,,,,,,,,,,,,0.0,0.0,0.0*32
$GPRMC,195136.00,A,3844.3507,N,00908.2469,W,3.108152,58.148890,080617,,*1F
$GPGGA,195136.00,3844.3507,N,00908.2469,W,1,00,0.0,159.356613,M,0.0,M,,*7C
$GPGLL,3844.3507,N,00908.2469,W,195136.00,A,*31
$GPGSA,A,3,,,,,,,,,,,,,0.0,0.0,0.0*32
$GPRMC,195137.00,A,3844.3507,N,00908.2466,W,2.086622,87.566135,080617,,*1B
$GPGGA,195137.00,3844.3507,N,00908.2466,W,1,00,0.0,160.013260,M,0.0,M,,*7A
$GPGLL,3844.3507,N,00908.2466,W,195137.00,A,*3F
$GPGSA,A,3,,,,,,,,,,,,,0.0,0.0,0.0*32
$GPRMC,195138.00,A,3844.3515,N,00908.2466,W,1.882840,1.527009,080617,,*27
$GPGGA,195138.00,3844.3515,N,00908.2466,W,1,00,0.0,160.741013,M,0.0,M,,*70
$GPGLL,3844.3515,N,00908.2466,W,195138.00,A,*33
$GPGSA,A,3,,,,,,,,,,,,,0.0,0.0,0.0*32
$GPRMC,195139.00,A,3844.3527,N,00908.2464,W,2.120236,6.743882,080617,,*20
$GPGGA,195139.00,3844.3527,N,00908.2464,W,1,00,0.0,161.428421,M,0.0,M,,*7A
$GPGLL,3844.3527,N,00908.2464,W,195139.00,A,*31
$GPGSA,A,3,,,,,,,,,,,,,0.0,0.0,0.0*32
$GPRMC,195140.00,A,3844.3535,N,00908.2453,W,2.579391,47.540928,080617,,*18
$GPGGA,195140.00,3844.3535,N,00908.2453,W,1,00,0.0,162.061844,M,0.0,M,,*76
$GPGLL,3844.3535,N,00908.2453,W,195140.00,A,*38
$GPGSA,A,3,,,,,,,,,,,,,0.0,0.0,0.0*32
$GPRMC,195141.00,A,3844.3542,N,00908.2453,W,2.697876,0.789479,080617,,*25
$GPGGA,195141.00,3844.3542,N,00908.2453,W,1,00,0.0,162.704437,M,0.0,M,,*7B
$GPGLL,3844.3542,N,00908.2453,W,195141.00,A,*39
$GPGSA,A,3,,,,,,,,,,,,,0.0,0.0,0.0*32
$GPRMC,195142.00,A,3844.3549,N,00908.2444,W,2.635539,48.232831,080617,,*1C
$GPGGA,195142.00,3844.3549,N,00908.2444,W,1,00,0.0,163.390121,M,0.0,M,,*7F
$GPGLL,3844.3549,N,00908.2444,W,195142.00,A,*37
$GPGSA,A,3,,,,,,,,,,,,,0.0,0.0,0.0*32
$GPRMC,195143.00,A,3844.3556,N,00908.2436,W,1.809271,42.921917,080617,,*19
$GPGGA,195143.00,3844.3556,N,00908.2436,W,1,00,0.0,164.122757,M,0.0,M,,*7E
$GPGLL,3844.3556,N,00908.2436,W,195143.00,A,*3D
$GPGSA,A,3,,,,,,,,,,,,,0.0,0.0,0.0*32
$GPRMC,195144.00,A,3844.3558,N,00908.2482,W,2.940238,273.204568,080617,,*25
$GPGGA,195144.00,3844.3558,N,00908.2482,W,1,00,0.0,164.821564,M,0.0,M,,*70
$GPGLL,3844.3558,N,00908.2482,W,195144.00,A,*3B
$GPGSA,A,3,,,,,,,,,,,,,0.0,0.0,0.0*32
$GPRMC,195145.00,A,3844.3561,N,00908.2486,W,1.020578,319.509568,080617,,*22
$GPGGA,195145.00,3844.3561,N,00908.2486,W,1,00,0.0,165.564835,M,0.0,M,,*7B
$GPGLL,3844.3561,N,00908.2486,W,195145.00,A,*34
$GPGSA,A,3,,,,,,,,,,,,,0.0,0.0,0.0*32
$GPRMC,195146.00,A,3844.3566,N,00908.2478,W,1.644026,51.714637,080617,,*15
$GPGGA,195146.00,3844.3566,N,00908.2478,W,1,00,0.0,166.295609,M,0.0,M,,*75
$GPGLL,3844.3566,N,00908.2478,W,195146.00,A,*31
$GPGSA,A,3,,,,,,,,,,,,,0.0,0.0,0.0*32
$GPRMC,195147.00,A,3844.3584,N,00908.2482,W,3.689012,350.125387,080617,,*21
$GPGGA,195147.00,3844.3584,N,00908.2482,W,1,00,0.0,167.056030,M,0.0,M,,*7D
$GPGLL,3844.3584,N,00908.2482,W,195147.00,A,*39
$GPGSA,A,3,,,,,,,,,,,,,0.0,0.0,0.0*32
$GPRMC,195148.00,A,3844.3601,N,00908.2463,W,2.941827,42.393961,080617,,*16
$GPGGA,195148.00,3844.3601,N,00908.2463,W,1,00,0.0,167.734543,M,0.0,M,,*71
$GPGLL,3844.3601,N,00908.2463,W,195148.00,A,*37
$GPGSA,A,3,,,,,,,,,,,,,0.0,0.0,0.0*32
$GPRMC,195149.00,A,3844.3605,N,00908.2473,W,1.918655,294.737945,080617,,*23
$GPGGA,195149.00,3844.3605,N,00908.2473,W,1,00,0.0,168.274094,M,0.0,M,,*74
$GPGLL,3844.3605,N,00908.2473,W,195149.00,A,*33
$GPGSA,A,3,,,,,,,,,,,,,0.0,0.0,0.0*32
$GPRMC,195150.00,A,3844.3619,N,00908.2460,W,2.559377,37.868252,080617,,*18
$GPGGA,195150.00,3844.3619,N,00908.2460,W,1,00,0.0,168.840836,M,0.0,M,,*7E
$GPGLL,3844.3619,N,00908.2460,W,195150.00,A,*34
$GPGSA,A,3,,,,,,,,,,,,,0.0,0.0,0.0*32
$GPRMC,195151.00,A,3844.3627,N,00908.2453,W,2.532140,31.812359,080617,,*1E
$GPGGA,195151.00,3844.3627,N,00908.2453,W,1,00,0.0,169.437714,M,0.0,M,,*70
$GPGLL,3844.3627,N,00908.2453,W,195151.00,A,*38
$GPGSA,A,3,,,,,,,,,,,,,0.0,0.0,0.0*32
$GPRMC,195152.00,A,3844.3637,N,00908.2443,W,2.762165,40.143449,080617,,*10
$GPGGA,195152.00,3844.3637,N,00908.2443,W,1,00,0.0,170.011276,M,0.0,M,,*7A
$GPGLL,3844.3637,N,00908.2443,W,195152.00,A,*3B
$GPGSA,A,3,,,,,,,,,,,,,0.0,0.0,0.0*32
$GPRMC,195153.00,A,3844.3646,N,00908.2425,W,3.213039,57.893653,080617,,*16
$GPGGA,195153.00,3844.3646,N,00908.2425,W,1,00,0.0,170.665436,M,0.0,M,,*7A
$GPGLL,3844.3646,N,00908.2425,W,195153.00,A,*3C
$GPGSA,A,3,,,,,,,,,,,,,0.0,0.0,0.0*32
$GPRMC,195154.00,A,3844.3650,N,00908.2404,W,4.033829,74.401400,080617,,*19
$GPGGA,195154.00,3844.3650,N,00908.2404,W,1,00,0.0,171.243042,M,0.0,M,,*7F
$GPGLL,3844.3650,N,00908.2404,W,195154.00,A,*3F
$GPGSA,A,3,,,,,,,,,,,,,0.0,0.0,0.0*32
$GPRMC,195155.00,A,3844.3660,N,00908.2398,W,4.147208,25.396353,080617,,*1E
$GPGGA,195155.00,3844.3660,N,00908.2398,W,1,00,0.0,171.821564,M,0.0,M,,*70
$GPGLL,3844.3660,N,00908.2398,W,195155.00,A,*3F
$GPGSA,A,3,,,,,,,,,,,,,0.0,0.0,0.0*32
$GPRMC,195156.00,A,3844.3667,N,00908.2387,W,4.083251,49.996348,080617,,*1B
$GPGGA,195156.00,3844.3667,N,00908.2387,W,1,00,0.0,172.391541,M,0.0,M,,*7E
$GPGLL,3844.3667,N,00908.2387,W,195156.00,A,*35
$GPGSA,A,3,,,,,,,,,,,,,0.0,0.0,0.0*32
$GPRMC,195157.00,A,3844.3671,N,00908.2376,W,3.374329,64.877501,080617,,*1B
$GPGGA,195157.00,3844.3671,N,00908.2376,W,1,00,0.0,172.897064,M,0.0,M,,*79
$GPGLL,3844.3671,N,00908.2376,W,195157.00,A,*3D
$GPGSA,A,3,,,,,,,,,,,,,0.0,0.0,0.0*32
$GPRMC,195158.00,A,3844.3680,N,00908.2373,W,2.972717,12.451362,080617,,*11
$GPGGA,195158.00,3844.3680,N,00908.2373,W,1,00,0.0,173.491760,M,0.0,M,,*75
$GPGLL,3844.3680,N,00908.2373,W,195158.00,A,*39
$GPGSA,A,3,,,,,,,,,,,,,0.0,0.0,0.0*32
$GPRMC,195159.00,A,3844.3682,N,00908.2361,W,2.236022,76.249894,080617,,*14
$GPGGA,195159.00,3844.3682,N,00908.2361,W,1,00,0.0,174.023163,M,0.0,M,,*7A
$GPGLL,3844.3682,N,00908.2361,W,195159.00,A,*39
$GPGSA,A,3,,,,,,,,,,,,,0.0,0.0,0.0*32
$GPRMC,195200.00,A,3844.3695,N,00908.2372,W,1.356378,325.648435,080617,,*20
$GPGGA,195200.00,3844.3695,N,00908.2372,W,1,00,0.0,174.597565,M,0.0,M,,*79
$GPGLL,3844.3695,N,00908.2372,W,195200.00,A,*32
$GPGSA,A,3,,,,,,,,,,,,,0.0,0.0,0.0*32
$GPRMC,195201.00,A,3844.3712,N,00908.2328,W,3.069659,62.746024,080617,,*10
$GPGGA,195201.00,3844.3712,N,00908.2328,W,1,00,0.0,173.117493,M,0.0,M,,*7A
$GPGLL,3844.3712,N,00908.2328,W,195201.00,A,*32
$GPGSA,A,3,,,,,,,,,,,,,0.0,0.0,0.0*32
$GPRMC,195202.00,A,3844.3722,N,00908.2323,W,4.888425,21.256901,080617,,*1F
$GPGGA,195202.00,3844.3722,N,00908.2323,W,1,00,0.0,172.978104,M,0.0,M,,*7A
$GPGLL,3844.3722,N,00908.2323,W,195202.00,A,*39
$GPGSA,A,3,,,,,,,,,,,,,0.0,0.0,0.0*32
$GPRMC,195203.00,A,3844.3727,N,00908.2312,W,4.426986,64.903894,080617,,*12
$GPGGA,195203.00,3844.3727,N,00908.2312,W,1,00,0.0,173.241348,M,0.0,M,,*76
$GPGLL,3844.3727,N,00908.2312,W,195203.00,A,*3F
$GPGSA,A,3,,,,,,,,,,,,,0.0,0.0,0.0*32
$GPRMC,195204.00,A,3844.3735,N,00908.2309,W,4.202727,15.320642,080617,,*11
$GPGGA,195204.00,3844.3735,N,00908.2309,W,1,00,0.0,173.169067,M,0.0,M,,*7F
$GPGLL,3844.3735,N,00908.2309,W,195204.00,A,*31
$GPGSA,A,3,,,,,,,,,,,,,0.0,0.0,0.0*32
$GPRMC,195205.00,A,3844.3743,N,00908.2310,W,3.947442,348.807203,080617,,*20
$GPGGA,195205.00,3844.3743,N,00908.2310,W,1,00,0.0,173.120422,M,0.0,M,,*7F
$GPGLL,3844.3743,N,00908.2310,W,195205.00,A,*39
$GPGSA,A,3,,,,,,,,,,,,,0.0,0.0,0.0*32
$GPRMC,195206.00,A,3844.3738,N,00908.2316,W,1.801616,226.596425,080617,,*25
$GPGGA,195206.00,3844.3738,N,00908.2316,W,1,00,0.0,173.535568,M,0.0,M,,*79
$GPGLL,3844.3738,N,00908.2316,W,195206.00,A,*30
$GPGSA,A,3,,,,,,,,,,,,,0.0,0.0,0.0*32
$GPRMC,195207.00,A,3844.3750,N,00908.2311,W,2.490075,18.266444,080617,,*19
$GPGGA,195207.00,3844.3750,N,00908.2311,W,1,00,0.0,172.440002,M,0.0,M,,*7A
$GPGLL,3844.3750,N,00908.2311,W,195207.00,A,*38
$GPGSA,A,3,,,,,,,,,,,,,0.0,0.0,0.0*32
$GPRMC,195208.00,A,3844.3754,N,00908.2301,W,2.308786,62.981983,080617,,*17
$GPGGA,195208.00,3844.3754,N,00908.2301,W,1,00,0.0,172.523468,M,0.0,M,,*7C
$GPGLL,3844.3754,N,00908.2301,W,195208.00,A,*32
$GPGSA,A,3,,,,,,,,,,,,,0.0,0.0,0.0*32
$GPRMC,195209.00,A,3844.3756,N,00908.2305,W,2.064739,312.169891,080617,,*25
$GPGGA,195209.00,3844.3756,N,00908.2305,W,1,00,0.0,172.191315,M,0.0,M,,*7B
$GPGLL,3844.3756,N,00908.2305,W,195209.00,A,*35
$GPGSA,A,3,,,,,,,,,,,,,0.0,0.0,0.0*32
$GPRMC,195210.00,A,3844.3762,N,00908.2304,W,2.014258,1.764461,080617,,*27
$GPGGA,195210.00,3844.3762,N,00908.2304,W,1,00,0.0,172.241623,M,0.0,M,,*7B
$GPGLL,3844.3762,N,00908.2304,W,195210.00,A,*3B
$GPGSA,A,3,,,,,,,,,,,,,0.0,0.0,0.0*32
$GPRMC,195211.00,A,3844.3767,N,00908.2303,W,2.444765,12.931679,080617,,*19
$GPGGA,195211.00,3844.3767,N,00908.2303,W,1,00,0.0,172.511765,M,0.0,M,,*79
$GPGLL,3844.3767,N,00908.2303,W,195211.00,A,*38
$GPGSA,A,3,,,,,,,,,,,,,0.0,0.0,0.0*32
$GPRMC,195212.00,A,3844.3775,N,00908.2312,W,2.442321,321.000558,080617,,*23
$GPGGA,195212.00,3844.3775,N,00908.2312,W,1,00,0.0,171.982635,M,0.0,M,,*78
$GPGLL,3844.3775,N,00908.2312,W,195212.00,A,*38
$GPGSA,A,3,,,,,,,,,,,,,0.0,0.0,0.0*32
$GPRMC,195213.00,A,3844.3785,N,00908.2320,W,3.904859,326.877640,080617,,*23
$GPGGA,195213.00,3844.3785,N,00908.2320,W,1,00,0.0,170.704086,M,0.0,M,,*78
$GPGLL,3844.3785,N,00908.2320,W,195213.00,A,*37
$GPGSA,A,3,,,,,,,,,,,,,0.0,0.0,0.0*32
$GPRMC,195214.00,A,3844.3800,N,00908.2324,W,3.926218,350.003707,080617,,*25
$GPGGA,195214.00,3844.3800,N,00908.2324,W,1,00,0.0,169.184982,M,0.0,M,,*72
$GPGLL,3844.3800,N,00908.2324,W,195214.00,A,*36
$GPGSA,A,3,,,,,,,,,,,,,0.0,0.0,0.0*32
$GPRMC,195215.00,A,3844.3819,N,00908.2346,W,2.146385,317.157188,080617,,*20
$GPGGA,195215.00,3844.3819,N,00908.2346,W,1,00,0.0,166.999405,M,0.0,M,,*76
$GPGLL,3844.3819,N,00908.2346,W,195215.00,A,*3B
$GPGSA,A,3,,,,,,,,,,,,,0.0,0.0,0.0*32
$GPRMC,195216.00,A,3844.3815,N,00908.2341,W,1.709318,129.872572,080617,,*22
$GPGGA,195216.00,3844.3815,N,00908.2341,W,1,00,0.0,165.857483,M,0.0,M,,*70
$GPGLL,3844.3815,N,00908.2341,W,195216.00,A,*33
$GPGSA,A,3,,,,,,,,,,,,,0.0,0.0,0.0*32
$GPRMC,195217.00,A,3844.3814,N,00908.2333,W,2.020803,102.249056,080617,,*21
$GPGGA,195217.00,3844.3814,N,00908.2333,W,1,00,0.0,164.175232,M,0.0,M,,*71
$GPGLL,3844.3814,N,00908.2333,W,195217.00,A,*36
$GPGSA,A,3,,,,,,,,,,,,,0.0,0.0,0.0*32
$GPRMC,195218.00,A,3844.3815,N,00908.2323,W,0.544727,80.593077,080617,,*1A
$GPGGA,195218.00,3844.3815,N,00908.2323,W,1,00,0.0,162.827377,M,0.0,M,,*76
$GPGLL,3844.3815,N,00908.2323,W,195218.00,A,*39
$GPGSA,A,3,,,,,,,,,,,,,0.0,0.0,0.0*32
$GPRMC,195219.00,A,3844.3820,N,00908.2317,W,0.988160,40.184214,080617,,*1A
$GPGGA,195219.00,3844.3820,N,00908.2317,W,1,00,0.0,162.582047,M,0.0,M,,*74
$GPGLL,3844.3820,N,00908.2317,W,195219.00,A,*39
$GPGSA,A,3,,,,,,,,,,,,,0.0,0.0,0.0*32
$GPRMC,195220.00,A,3844.3824,N,00908.2327,W,1.694751,300.195918,080617,,*20
$GPGGA,195220.00,3844.3824,N,00908.2327,W,1,00,0.0,162.972427,M,0.0,M,,*78
$GPGLL,3844.3824,N,00908.2327,W,195220.00,A,*34
$GPGSA,A,3,,,,,,,,,,,,,0.0,0.0,0.0*32
$GPRMC,195221.00,A,3844.3832,N,00908.2320,W,2.503173,37.525554,080617,,*15
$GPGGA,195221.00,3844.3832,N,00908.2320,W,1,00,0.0,162.556686,M,0.0,M,,*7A
$GPGLL,3844.3832,N,00908.2320,W,195221.00,A,*35
$GPGSA,A,3,,,,,,,,,,,,,0.0,0.0,0.0*32
$GPRMC,195222.00,A,3844.3835,N,00908.2316,W,3.182155,40.070435,080617,,*1F
$GPGGA,195222.00,3844.3835,N,00908.2316,W,1,00,0.0,162.260864,M,0.0,M,,*7B
$GPGLL,3844.3835,N,00908.2316,W,195222.00,A,*34
$GPGSA,A,3,,,,,,,,,,,,,0.0,0.0,0.0*32
$GPRMC,195223.00,A,3844.3841,N,00908.2313,W,4.880170,22.487891,080617,,*19
$GPGGA,195223.00,3844.3841,N,00908.2313,W,1,00,0.0,161.824310,M,0.0,M,,*7D
$GPGLL,3844.3841,N,00908.2313,W,195223.00,A,*33
$GPGSA,A,3,,,,,,,,,,,,,0.0,0.0,0.0*32
$GPRMC,195224.00,A,3844.3860,N,00908.2310,W,7.605207,6.156977,080617,,*2B
$GPGGA,195224.00,3844.3860,N,00908.2310,W,1,00,0.0,160.528214,M,0.0,M,,*7F
$GPGLL,3844.3860,N,00908.2310,W,195224.00,A,*34
$GPGSA,A,3,,,,,,,,,,,,,0.0,0.0,0.0*32
$GPRMC,195225.00,A,3844.3871,N,00908.2305,W,5.337495,20.280370,080617,,*14
$GPGGA,195225.00,3844.3871,N,00908.2305,W,1,00,0.0,159.985291,M,0.0,M,,*76
$GPGLL,3844.3871,N,00908.2305,W,195225.00,A,*31
$GPGSA,A,3,,,,,,,,,,,,,0.0,0.0,0.0*32
$GPRMC,195226.00,A,3844.3879,N,00908.2307,W,3.098559,347.728483,080617,,*22
$GPGGA,195226.00,3844.3879,N,00908.2307,W,1,00,0.0,160.286072,M,0.0,M,,*72
$GPGLL,3844.3879,N,00908.2307,W,195226.00,A,*38
$GPGSA,A,3,,,,,,,,,,,,,0.0,0.0,0.0*32
$GPRMC,195227.00,A,3844.3881,N,00908.2298,W,3.226001,69.061872,080617,,*1B
$GPGGA,195227.00,3844.3881,N,00908.2298,W,1,00,0.0,159.950272,M,0.0,M,,*7B
$GPGLL,3844.3881,N,00908.2298,W,195227.00,A,*39
$GPGSA,A,3,,,,,,,,,,,,,0.0,0.0,0.0*32
$GPRMC,195228.00,A,3844.3889,N,00908.2294,W,3.880087,25.048927,080617,,*1A
$GPGGA,195228.00,3844.3889,N,00908.2294,W,1,00,0.0,159.704803,M,0.0,M,,*73
$GPGLL,3844.3889,N,00908.2294,W,195228.00,A,*32
$GPGSA,A,3,,,,,,,,,,,,,0.0,0.0,0.0*32
$GPRMC,195229.00,A,3844.3893,N,00908.2294,W,4.588688,351.578396,080617,,*2D
$GPGGA,195229.00,3844.3893,N,00908.2294,W,1,00,0.0,159.434052,M,0.0,M,,*75
$GPGLL,3844.3893,N,00908.2294,W,195229.00,A,*38
$GPGSA,A,3,,,,,,,,,,,,,0.0,0.0,0.0*32
$GPRMC,195230.00,A,3844.3911,N,00908.2291,W,7.902963,7.337466,080617,,*29
$GPGGA,195230.00,3844.3911,N,00908.2291,W,1,00,0.0,159.955841,M,0.0,M,,*73
$GPGLL,3844.3911,N,00908.2291,W,195230.00,A,*3E
$GPGSA,A,3,,,,,,,,,,,,,0.0,0.0,0.0*32
$GPRMC,195231.00,A,3844.3923,N,00908.2294,W,6.446631,351.865447,080617,,*27
$GPGGA,195231.00,3844.3923,N,00908.2294,W,1,00,0.0,160.838913,M,0.0,M,,*70
$GPGLL,3844.3923,N,00908.2294,W,195231.00,A,*3B
$GPGSA,A,3,,,,,,,,,,,,,0.0,0.0,0.0*32
$GPRMC,195232.00,A,3844.3946,N,00908.2283,W,4.825130,19.754784,080617,,*12
$GPGGA,195232.00,3844.3946,N,00908.2283,W,1,00,0.0,160.896774,M,0.0,M,,*7D
$GPGLL,3844.3946,N,00908.2283,W,195232.00,A,*3D
$GPGSA,A,3,,,,,,,,,,,,,0.0,0.0,0.0*32
$GPRMC,195233.00,A,3844.3964,N,00908.2282,W,2.509420,2.269836,080617,,*24
$GPGGA,195233.00,3844.3964,N,00908.2282,W,1,00,0.0,160.993881,M,0.0,M,,*7C
$GPGLL,3844.3964,N,00908.2282,W,195233.00,A,*3D
$GPGSA,A,3,,,,,,,,,,,,,0.0,0.0,0.0*32
$GPRMC,195234.00,A,3844.3975,N,00908.2280,W,2.498938,8.288252,080617,,*21
$GPGGA,195234.00,3844.3975,N,00908.2280,W,1,00,0.0,160.890198,M,0.0,M,,*7A
$GPGLL,3844.3975,N,00908.2280,W,195234.00,A,*38
$GPGSA,A,3,,,,,,,,,,,,,0.0,0.0,0.0*32
$GPRMC,195235.00,A,3844.3968,N,00908.2284,W,1.985208,203.818139,080617,,*26
$GPGGA,195235.00,3844.3968,N,00908.2284,W,1,00,0.0,161.282669,M,0.0,M,,*72
$GPGLL,3844.3968,N,00908.2284,W,195235.00,A,*31
$GPGSA,A,3,,,,,,,,,,,,,0.0,0.0,0.0*32
$GPRMC,195236.00,A,3844.3969,N,00908.2278,W,1.665597,84.151061,080617,,*12
$GPGGA,195236.00,3844.3969,N,00908.2278,W,1,00,0.0,162.119537,M,0.0,M,,*79
$GPGLL,3844.3969,N,00908.2278,W,195236.00,A,*30
$GPGSA,A,3,,,,,,,,,,,,,0.0,0.0,0.0*32
$GPRMC,195237.00,A,3844.3973,N,00908.2278,W,1.562289,356.309263,080617,,*27
$GPGGA,195237.00,3844.3973,N,00908.2278,W,1,00,0.0,162.485703,M,0.0,M,,*76
$GPGLL,3844.3973,N,00908.2278,W,195237.00,A,*3A
$GPGSA,A,3,,,,,,,,,,,,,0.0,0.0,0.0*32
$GPRMC,195238.00,A,3844.3978,N,00908.2281,W,1.205051,336.437958,080617,,*2B
$GPGGA,195238.00,3844.3978,N,00908.2281,W,1,00,0.0,162.345215,M,0.0,M,,*7D
$GPGLL,3844.3978,N,00908.2281,W,195238.00,A,*38
$GPGSA,A,3,,,,,,,,,,,,,0.0,0.0,0.0*32
$GPRMC,195239.00,A,3844.3979,N,00908.2283,W,1.866390,304.213480,080617,,*21
$GPGGA,195239.00,3844.3979,N,00908.2283,W,1,00,0.0,162.545135,M,0.0,M,,*78
$GPGLL,3844.3979,N,00908.2283,W,195239.00,A,*3A
$GPGSA,A,3,,,,,,,,,,,,,0.0,0.0,0.0*32
$GPRMC,195240.00,A,3844.3984,N,00908.2286,W,1.822255,329.339198,080617,,*2A
$GPGGA,195240.00,3844.3984,N,00908.2286,W,1,00,0.0,162.535400,M,0.0,M,,*75
$GPGLL,3844.3984,N,00908.2286,W,195240.00,A,*33
$GPGSA,A,3,,,,,,,,,,,,,0.0,0.0,0.0*32
$GPRMC,195241.00,A,3844.3989,N,00908.2288,W,1.981003,342.245157,080617,,*25
$GPGGA,195241.00,3844.3989,N,00908.2288,W,1,00,0.0,162.537720,M,0.0,M,,*74
$GPGLL,3844.3989,N,00908.2288,W,195241.00,A,*31
$GPGSA,A,3,,,,,,,,,,,,,0.0,0.0,0.0*32
$GPRMC,195242.00,A,3844.3996,N,00908.2288,W,1.933311,4.958774,080617,,*20
$GPGGA,195242.00,3844.3996,N,00908.2288,W,1,00,0.0,162.209213,M,0.0,M,,*76
$GPGLL,3844.3996,N,00908.2288,W,195242.00,A,*3C
$GPGSA,A,3,,,,,,,,,,,,,0.0,0.0,0.0*32
$GPRMC,195243.00,A,3844.3999,N,00908.2289,W,1.757992,343.737405,080617,,*20
$GPGGA,195243.00,3844.3999,N,00908.2289,W,1,00,0.0,162.259735,M,0.0,M,,*7D
$GPGLL,3844.3999,N,00908.2289,W,195243.00,A,*33
$GPGSA,A,3,,,,,,,,,,,,,0.0,0.0,0.0*32
$GPRMC,195244.00,A,3844.4002,N,00908.2288,W,1.495285,4.465723,080617,,*29
$GPGGA,195244.00,3844.4002,N,00908.2288,W,1,00,0.0,162.186218,M,0.0,M,,*7C
$GPGLL,3844.4002,N,00908.2288,W,195244.00,A,*39
$GPGSA,A,3,,,,,,,,,,,,,0.0,0.0,0.0*32
$GPRMC,195245.00,A,3844.4015,N,00908.2279,W,1.946766,31.467625,080617,,*18
$GPGGA,195245.00,3844.4015,N,00908.2279,W,1,00,0.0,161.140228,M,0.0,M,,*7F
$GPGLL,3844.4015,N,00908.2279,W,195245.00,A,*30
$GPGSA,A,3,,,,,,,,,,,,,0.0,0.0,0.0*32
$GPRMC,195246.00,A,3844.4019,N,00908.2294,W,2.052881,290.216739,080617,,*28
$GPGGA,195246.00,3844.4019,N,00908.2294,W,1,00,0.0,161.745743,M,0.0,M,,*78
$GPGLL,3844.4019,N,00908.2294,W,195246.00,A,*3C
$GPGSA,A,3,,,,,,,,,,,,,0.0,0.0,0.0*32
$GPRMC,195247.00,A,3844.4026,N,00908.2297,W,2.489545,340.574802,080617,,*29
$GPGGA,195247.00,3844.4026,N,00908.2297,W,1,00,0.0,161.143234,M,0.0,M,,*73
$GPGLL,3844.4026,N,00908.2297,W,195247.00,A,*32
$GPGSA,A,3,,,,,,,,,,,,,0.0,0.0,0.0*32
$GPRMC,195248.00,A,3844.4037,N,00908.2306,W,2.833676,326.052157,080617,,*29
$GPGGA,195248.00,3844.4037,N,00908.2306,W,1,00,0.0,160.950912,M,0.0,M,,*71
$GPGLL,3844.4037,N,00908.2306,W,195248.00,A,*34
$GPGSA,A,3,,,,,,,,,,,,,0.0,0.0,0.0*32
$GPRMC,195249.00,A,3844.4053,N,00908.2313,W,2.604649,341.408354,080617,,*23
$GPGGA,195249.00,3844.4053,N,00908.2313,W,1,00,0.0,160.585068,M,0.0,M,,*76
$GPGLL,3844.4053,N,00908.2313,W,195249.00,A,*33
$GPGSA,A,3,,,,,,,,,,,,,0.0,0.0,0.0*32
$GPRMC,195250.00,A,3844.4058,N,00908.2313,W,2.181858,2.193515,080617,,*24
$GPGGA,195250.00,3844.4058,N,00908.2313,W,1,00,0.0,160.436707,M,0.0,M,,*72
$GPGLL,3844.4058,N,00908.2313,W,195250.00,A,*30
$GPGSA,A,3,,,,,,,,,,,,,0.0,0.0,0.0*32
$GPRMC,195251.00,A,3844.4062,N,00908.2312,W,2.040375,4.211123,080617,,*2B
$GPGGA,195251.00,3844.4062,N,00908.2312,W,1,00,0.0,160.110199,M,0.0,M,,*7B
$GPGLL,3844.4062,N,00908.2312,W,195251.00,A,*39
$GPGSA,A,3,,,,,,,,,,,,,0.0,0.0,0.0*32
$GPRMC,195252.00,A,3844.4064,N,00908.2315,W,2.394539,302.412942,080617,,*22
$GPGGA,195252.00,3844.4064,N,00908.2315,W,1,00,0.0,160.187851,M,0.0,M,,*7A
$GPGLL,3844.4064,N,00908.2315,W,195252.00,A,*3B
$GPGSA,A,3,,,,,,,,,,,,,0.0,0.0,0.0*32
$GPRMC,195253.00,A,3844.4071,N,00908.2320,W,2.723623,330.273400,080617,,*2A
$GPGGA,195253.00,3844.4071,N,00908.2320,W,1,00,0.0,160.006531,M,0.0,M,,*7A
$GPGLL,3844.4071,N,00908.2320,W,195253.00,A,*38
$GPGSA,A,3,,,,,,,,,,,,,0.0,0.0,0.0*32
$GPRMC,195254.00,A,3844.4080,N,00908.2327,W,2.754668,329.750921,080617,,*29
$GPGGA,195254.00,3844.4080,N,00908.2327,W,1,00,0.0,160.113953,M,0.0,M,,*79
$GPGLL,3844.4080,N,00908.2327,W,195254.00,A,*36
$GPGSA,A,3,,,,,,,,,,,,,0.0,0.0,0.0*32
$GPRMC,195255.00,A,3844.4150,N,00908.2462,W,2.641040,303.642800,080617,,*23
$GPGGA,195255.00,3844.4150,N,00908.2462,W,1,00,0.0,119.571510,M,0.0,M,,*77
$GPGLL,3844.4150,N,00908.2462,W,195255.00,A,*3D
$GPGSA,A,3,,,,,,,,,,,,,0.0,0.0,0.0*32
$GPRMC,195256.00,A,3844.4141,N,00908.2467,W,1.822379,202.071800,080617,,*22
$GPGGA,195256.00,3844.4141,N,00908.2467,W,1,00,0.0,119.161720,M,0.0,M,,*75
$GPGLL,3844.4141,N,00908.2467,W,195256.00,A,*3B
$GPGSA,A,3,,,,,,,,,,,,,0.0,0.0,0.0*32
$GPRMC,195257.00,A,3844.4147,N,00908.2468,W,2.253453,354.171063,080617,,*24
$GPGGA,195257.00,3844.4147,N,00908.2468,W,1,00,0.0,119.712837,M,0.0,M,,*76
$GPGLL,3844.4147,N,00908.2468,W,195257.00,A,*33
$GPGSA,A,3,,,,,,,,,,,,,0.0,0.0,0.0*32
$GPRMC,195258.00,A,3844.4152,N,00908.2469,W,1.779666,346.664351,080617,,*26
$GPGGA,195258.00,3844.4152,N,00908.2469,W,1,00,0.0,120.293533,M,0.0,M,,*73
$GPGLL,3844.4152,N,00908.2469,W,195258.00,A,*39
$GPGSA,A,3,,,,,,,,,,,,,0.0,0.0,0.0*32
$GPRMC,195259.00,A,3844.4153,N,00908.2471,W,2.231706,292.698095,080617,,*22
$GPGGA,195259.00,3844.4153,N,00908.2471,W,1,00,0.0,120.939445,M,0.0,M,,*71
$GPGLL,3844.4153,N,00908.2471,W,195259.00,A,*30
$GPGSA,A,3,,,,,,,,,,,,,0.0,0.0,0.0*32
$GPRMC,195300.00,A,3844.4157,N,00908.2468,W,2.034898,31.014585,080617,,*11
$GPGGA,195300.00,3844.4157,N,00908.2468,W,1,00,0.0,121.476387,M,0.0,M,,*7E
$GPGLL,3844.4157,N,00908.2468,W,195300.00,A,*31
$GPGSA,A,3,,,,,,,,,,,,,0.0,0.0,0.0*32
$GPRMC,195301.00,A,3844.4163,N,00908.2477,W,2.240962,309.907508,080617,,*2A
$GPGGA,195301.00,3844.4163,N,00908.2477,W,1,00,0.0,119.554955,M,0.0,M,,*79
$GPGLL,3844.4163,N,00908.2477,W,195301.00,A,*39
$GPGSA,A,3,,,,,,,,,,,,,0.0,0.0,0.0*32
$GPRMC,195302.00,A,3844.4163,N,00908.2471,W,2.296824,85.010574,080617,,*14
$GPGGA,195302.00,3844.4163,N,00908.2471,W,1,00,0.0,121.627151,M,0.0,M,,*7C
$GPGLL,3844.4163,N,00908.2471,W,195302.00,A,*3C
$GPGSA,A,3,,,,,,,,,,,,,0.0,0.0,0.0*32
$GPRMC,195303.00,A,3844.4164,N,00908.2475,W,2.315242,281.664800,080617,,*2B
$GPGGA,195303.00,3844.4164,N,00908.2475,W,1,00,0.0,121.823158,M,0.0,M,,*7D
$GPGLL,3844.4164,N,00908.2475,W,195303.00,A,*3E
$GPGSA,A,3,,,,,,,,,,,,,0.0,0.0,0.0*32
$GPRMC,195304.00,A,3844.4163,N,00908.2473,W,2.430635,108.694195,080617,,*21
$GPGGA,195304.00,3844.4163,N,00908.2473,W,1,00,0.0,120.902046,M,0.0,M,,*76
$GPGLL,3844.4163,N,00908.2473,W,195304.00,A,*38
$GPGSA,A,3,,,,,,,,,,,,,0.0,0.0,0.0*32
$GPRMC,195305.00,A,3844.4167,N,00908.2475,W,2.229296,342.967707,080617,,*23
$GPGGA,195305.00,3844.4167,N,00908.2475,W,1,00,0.0,121.201828,M,0.0,M,,*7C
$GPGLL,3844.4167,N,00908.2475,W,195305.00,A,*3B
$GPGSA,A,3,,,,,,,,,,,,,0.0,0.0,0.0*32
$GPRMC,195306.00,A,3844.4172,N,00908.2478,W,1.911853,332.726015,080617,,*21
$GPGGA,195306.00,3844.4172,N,00908.2478,W,1,00,0.0,121.835327,M,0.0,M,,*7F
$GPGLL,3844.4172,N,00908.2478,W,195306.00,A,*31
$GPGSA,A,3,,,,,,,,,,,,,0.0,0.0,0.0*32
$GPRMC,195307.00,A,3844.4174,N,00908.2481,W,1.144615,301.876736,080617,,*28
$GPGGA,195307.00,3844.4174,N,00908.2481,W,1,00,0.0,122.138184,M,0.0,M,,*72
$GPGLL,3844.4174,N,00908.2481,W,195307.00,A,*30
$GPGSA,A,3,,,,,,,,,,,,,0.0,0.0,0.0*32
$GPRMC,195308.00,A,3844.4178,N,00908.2482,W,1.066969,347.287769,080617,,*21
$GPGGA,195308.00,3844.4178,N,00908.2482,W,1,00,0.0,122.733009,M,0.0,M,,*7B
$GPGLL,3844.4178,N,00908.2482,W,195308.00,A,*30
$GPGSA,A,3,,,,,,,,,,,,,0.0,0.0,0.0*32
$GPRMC,195309.00,A,3844.4187,N,00908.2485,W,1.518694,347.410688,080617,,*20
$GPGGA,195309.00,3844.4187,N,00908.2485,W,1,00,0.0,123.800850,M,0.0,M,,*77
$GPGLL,3844.4187,N,00908.2485,W,195309.00,A,*36
$GPGSA,A,3,,,,,,,,,,,,,0.0,0.0,0.0*32
$GPRMC,195310.00,A,3844.4194,N,00908.2488,W,1.697013,344.374925,080617,,*24
$GPGGA,195310.00,3844.4194,N,00908.2488,W,1,00,0.0,124.392509,M,0.0,M,,*76
$GPGLL,3844.4194,N,00908.2488,W,195310.00,A,*31
$GPGSA,A,3,,,,,,,,,,,,,0.0,0.0,0.0*32
$GPRMC,195311.00,A,3844.4205,N,00908.2487,W,2.037988,0.790317,080617,,*23
$GPGGA,195311.00,3844.4205,N,00908.2487,W,1,00,0.0,125.113968,M,0.0,M,,*72
$GPGLL,3844.4205,N,00908.2487,W,195311.00,A,*34
$GPGSA,A,3,,,,,,,,,,,,,0.0,0.0,0.0*32
$GPRMC,195312.00,A,3844.4208,N,00908.2494,W,2.395753,306.718246,080617,,*2C
$GPGGA,195312.00,3844.4208,N,00908.2494,W,1,00,0.0,125.922005,M,0.0,M,,*76
$GPGLL,3844.4208,N,00908.2494,W,195312.00,A,*38
$GPGSA,A,3,,,,,,,,,,,,,0.0,0.0,0.0*32
$GPRMC,195313.00,A,3844.4216,N,00908.2496,W,2.607189,349.251339,080617,,*25
$GPGGA,195313.00,3844.4216,N,00908.2496,W,1,00,0.0,126.423431,M,0.0,M,,*76
$GPGLL,3844.4216,N,00908.2496,W,195313.00,A,*34
$GPGSA,A,3,,,,,,,,,,,,,0.0,0.0,0.0*32
$GPRMC,195314.00,A,3844.4223,N,00908.2497,W,2.662910,349.545508,080617,,*28
$GPGGA,195314.00,3844.4223,N,00908.2497,W,1,00,0.0,126.716423,M,0.0,M,,*70
$GPGLL,3844.4223,N,00908.2497,W,195314.00,A,*34
$GPGSA,A,3,,,,,,,,,,,,,0.0,0.0,0.0*32
$GPRMC,195315.00,A,3844.4229,N,00908.2498,W,2.312841,354.465271,080617,,*2D
$GPGGA,195315.00,3844.4229,N,00908.2498,W,1,00,0.0,126.899498,M,0.0,M,,*7C
$GPGLL,3844.4229,N,00908.2498,W,195315.00,A,*30
$GPGSA,A,3,,,,,,,,,,,,,0.0,0.0,0.0*32
$GPRMC,195316.00,A,3844.4237,N,00908.2501,W,2.672787,343.229447,080617,,*2D
$GPGGA,195316.00,3844.4237,N,00908.2501,W,1,00,0.0,127.181946,M,0.0,M,,*7E
$GPGLL,3844.4237,N,00908.2501,W,195316.00,A,*3D
$GPGSA,A,3,,,,,,,,,,,,,0.0,0.0,0.0*32
$GPRMC,195317.00,A,3844.4242,N,00908.2507,W,2.806760,319.506681,080617,,*21
$GPGGA,195317.00,3844.4242,N,00908.2507,W,1,00,0.0,127.539467,M,0.0,M,,*72
$GPGLL,3844.4242,N,00908.2507,W,195317.00,A,*38
$GPGSA,A,3,,,,,,,,,,,,,0.0,0.0,0.0*32
$GPRMC,195318.00,A,3844.4249,N,00908.2509,W,2.972082,348.652028,080617,,*21
$GPGGA,195318.00,3844.4249,N,00908.2509,W,1,00,0.0,127.803482,M,0.0,M,,*77
$GPGLL,3844.4249,N,00908.2509,W,195318.00,A,*32
$GPGSA,A,3,,,,,,,,,,,,,0.0,0.0,0.0*32
$GPRMC,195319.00,A,3844.4251,N,00908.2514,W,2.011599,293.044007,080617,,*2D
$GPGGA,195319.00,3844.4251,N,00908.2514,W,1,00,0.0,128.201752,M,0.0,M,,*7A
$GPGLL,3844.4251,N,00908.2514,W,195319.00,A,*36
$GPGSA,A,3,,,,,,,,,,,,,0.0,0.0,0.0*32
$GPRMC,195320.00,A,3844.4253,N,00908.2519,W,2.034657,298.727608,080617,,*2E
$GPGGA,195320.00,3844.4253,N,00908.2519,W,1,00,0.0,128.685257,M,0.0,M,,*77
$GPGLL,3844.4253,N,00908.2519,W,195320.00,A,*33
$GPGSA,A,3,,,,,,,,,,,,,0.0,0.0,0.0*32
$GPRMC,195321.00,A,3844.4258,N,00908.2522,W,2.949230,332.959780,080617,,*2D
$GPGGA,195321.00,3844.4258,N,00908.2522,W,1,00,0.0,129.112259,M,0.0,M,,*73
$GPGLL,3844.4258,N,00908.2522,W,195321.00,A,*31
$GPGSA,A,3,,,,,,,,,,,,,0.0,0.0,0.0*32
$GPRMC,195322.00,A,3844.4268,N,00908.2523,W,4.259961,354.864821,080617,,*24
$GPGGA,195322.00,3844.4268,N,00908.2523,W,1,00,0.0,130.125107,M,0.0,M,,*76
$GPGLL,3844.4268,N,00908.2523,W,195322.00,A,*30
$GPGSA,A,3,,,,,,,,,,,,,0.0,0.0,0.0*32
$GPRMC,195323.00,A,3844.4277,N,00908.2528,W,3.242127,340.394658,080617,,*26
$GPGGA,195323.00,3844.4277,N,00908.2528,W,1,00,0.0,130.637604,M,0.0,M,,*72
$GPGLL,3844.4277,N,00908.2528,W,195323.00,A,*34
$GPGSA,A,3,,,,,,,,,,,,,0.0,0.0,0.0*32
$GPRMC,195324.00,A,3844.4283,N,00908.2529,W,1.944728,350.209151,080617,,*27
$GPGGA,195324.00,3844.4283,N,00908.2529,W,1,00,0.0,131.080109,M,0.0,M,,*7E
$GPGLL,3844.4283,N,00908.2529,W,195324.00,A,*39
$GPGSA,A,3,,,,,,,,,,,,,0.0,0.0,0.0*32
$GPRMC,195325.00,A,3844.4290,N,00908.2531,W,2.194155,345.624480,080617,,*21
$GPGGA,195325.00,3844.4290,N,00908.2531,W,1,00,0.0,131.696457,M,0.0,M,,*7B
$GPGLL,3844.4290,N,00908.2531,W,195325.00,A,*33
$GPGSA,A,3,,,,,,,,,,,,,0.0,0.0,0.0*32
$GPRMC,195326.00,A,3844.4299,N,00908.2534,W,2.425900,348.372380,080617,,*25
$GPGGA,195326.00,3844.4299,N,00908.2534,W,1,00,0.0,132.423965,M,0.0,M,,*77
$GPGLL,3844.4299,N,00908.2534,W,195326.00,A,*3C
$GPGSA,A,3,,,,,,,,,,,,,0.0,0.0,0.0*32
$GPRMC,195327.00,A,3844.4303,N,00908.2537,W,2.684295,328.235675,080617,,*20
$GPGGA,195327.00,3844.4303,N,00908.2537,W,1,00,0.0,132.205521,M,0.0,M,,*79
$GPGLL,3844.4303,N,00908.2537,W,195327.00,A,*3C
$GPGSA,A,3,,,,,,,,,,,,,0.0,0.0,0.0*32
$GPRMC,195328.00,A,3844.4311,N,00908.2548,W,2.448167,314.207319,080617,,*29
$GPGGA,195328.00,3844.4311,N,00908.2548,W,1,00,0.0,130.710419,M,0.0,M,,*74
