$GPRMC,205741.00,A,3844.2886,N,00908.3373,W,0.219112,0.000000,050617,,*23
$GPGGA,205741.00,3844.2886,N,00908.3373,W,1,00,0.0,142.167801,M,0.0,M,,*7F
$GPGLL,3844.2886,N,00908.3373,W,205741.00,A,*35
$GPGSA,A,3,,,,,,,,,,,,,0.0,0.0,0.0*32
$GPRMC,205742.00,A,3844.2885,N,00908.3379,W,0.242417,261.528934,050617,,*23
$GPGGA,205742.00,3844.2885,N,00908.3379,W,1,00,0.0,142.326706,M,0.0,M,,*7A
$GPGLL,3844.2885,N,00908.3379,W,205742.00,A,*3F
$GPGSA,A,3,,,,,,,,,,,,,0.0,0.0,0.0*32
$GPRMC,205743.00,A,3844.2885,N,00908.3373,W,0.446405,88.800978,050617,,*13
$GPGGA,205743.00,3844.2885,N,00908.3373,W,1,00,0.0,142.395782,M,0.0,M,,*75
$GPGLL,3844.2885,N,00908.3373,W,205743.00,A,*34
$GPGSA,A,3,,,,,,,,,,,,,0.0,0.0,0.0*32
$GPRMC,205744.00,A,3844.2886,N,00908.3367,W,0.516881,75.563521,050617,,*1C
$GPGGA,205744.00,3844.2886,N,00908.3367,W,1,00,0.0,142.416153,M,0.0,M,,*72
$GPGLL,3844.2886,N,00908.3367,W,205744.00,A,*35
$GPGSA,A,3,,,,,,,,,,,,,0.0,0.0,0.0*32
$GPRMC,205745.00,A,3844.2888,N,00908.3360,W,1.160780,66.958588,050617,,*1B
$GPGGA,205745.00,3844.2888,N,00908.3360,W,1,00,0.0,142.462585,M,0.0,M,,*76
$GPGLL,3844.2888,N,00908.3360,W,205745.00,A,*3D
$GPGSA,A,3,,,,,,,,,,,,,0.0,0.0,0.0*32
$GPRMC,205746.00,A,3844.2888,N,00908.3353,W,1.518683,95.435356,050617,,*1E
$GPGGA,205746.00,3844.2888,N,00908.3353,W,1,00,0.0,142.503830,M,0.0,M,,*70
$GPGLL,3844.2888,N,00908.3353,W,205746.00,A,*3E
$GPGSA,A,3,,,,,,,,,,,,,0.0,0.0,0.0*32
$GPRMC,205747.00,A,3844.2888,N,00908.3346,W,1.797606,84.841950,050617,,*10
$GPGGA,205747.00,3844.2888,N,00908.3346,W,1,00,0.0,142.378357,M,0.0,M,,*75
$GPGLL,3844.2888,N,00908.3346,W,205747.00,A,*3B
$GPGSA,A,3,,,,,,,,,,,,,0.0,0.0,0.0*32
$GPRMC,205748.00,A,3844.2888,N,00908.3344,W,2.449094,92.131597,050617,,*1D
$GPGGA,205748.00,3844.2888,N,00908.3344,W,1,00,0.0,142.350357,M,0.0,M,,*72
$GPGLL,3844.2888,N,00908.3344,W,205748.00,A,*36
$GPGSA,A,3,,,,,,,,,,,,,0.0,0.0,0.0*32
$GPRMC,205749.00,A,3844.2887,N,00908.3337,W,2.557554,97.594573,050617,,*14
$GPGGA,205749.00,3844.2887,N,00908.3337,W,1,00,0.0,142.453323,M,0.0,M,,*7F
$GPGLL,3844.2887,N,00908.3337,W,205749.00,A,*3C
$GPGSA,A,3,,,,,,,,,,,,,0.0,0.0,0.0*32
$GPRMC,205750.00,A,3844.2890,N,00908.3333,W,1.980553,39.617828,050617,,*13
$GPGGA,205750.00,3844.2890,N,00908.3333,W,1,00,0.0,141.828079,M,0.0,M,,*7A
$GPGLL,3844.2890,N,00908.3333,W,205750.00,A,*36
$GPGSA,A,3,,,,,,,,,,,,,0.0,0.0,0.0*32
$GPRMC,205751.00,A,3844.2889,N,00908.3323,W,2.570522,97.923067,050617,,*12
$GPGGA,205751.00,3844.2889,N,00908.3323,W,1,00,0.0,141.592361,M,0.0,M,,*74
$GPGLL,3844.2889,N,00908.3323,W,205751.00,A,*3E
$GPGSA,A,3,,,,,,,,,,,,,0.0,0.0,0.0*32
$GPRMC,205752.00,A,3844.2892,N,00908.3314,W,2.226460,70.394903,050617,,*18
$GPGGA,205752.00,3844.2892,N,00908.3314,W,1,00,0.0,141.398331,M,0.0,M,,*70
$GPGLL,3844.2892,N,00908.3314,W,205752.00,A,*33
$GPGSA,A,3,,,,,,,,,,,,,0.0,0.0,0.0*32
$GPRMC,205753.00,A,3844.2889,N,00908.3303,W,3.308374,106.371661,050617,,*2B
$GPGGA,205753.00,3844.2889,N,00908.3303,W,1,00,0.0,141.260788,M,0.0,M,,*7D
$GPGLL,3844.2889,N,00908.3303,W,205753.00,A,*3E
$GPGSA,A,3,,,,,,,,,,,,,0.0,0.0,0.0*32
$GPRMC,205754.00,A,3844.2890,N,00908.3299,W,2.356182,69.481530,050617,,*10
$GPGGA,205754.00,3844.2890,N,00908.3299,W,1,00,0.0,141.041977,M,0.0,M,,*7F
$GPGLL,3844.2890,N,00908.3299,W,205754.00,A,*33
$GPGSA,A,3,,,,,,,,,,,,,0.0,0.0,0.0*32
$GPRMC,205755.00,A,3844.2892,N,00908.3303,W,1.814839,299.502065,050617,,*24
$GPGGA,205755.00,3844.2892,N,00908.3303,W,1,00,0.0,140.781982,M,0.0,M,,*7E
$GPGLL,3844.2892,N,00908.3303,W,205755.00,A,*32
$GPGSA,A,3,,,,,,,,,,,,,0.0,0.0,0.0*32
$GPRMC,205756.00,A,3844.2897,N,00908.3306,W,2.219578,333.803806,050617,,*2B
$GPGGA,205756.00,3844.2897,N,00908.3306,W,1,00,0.0,139.897095,M,0.0,M,,*74
$GPGLL,3844.2897,N,00908.3306,W,205756.00,A,*31
$GPGSA,A,3,,,,,,,,,,,,,0.0,0.0,0.0*32
$GPRMC,205757.00,A,3844.2907,N,00908.3308,W,2.732397,347.928104,050617,,*27
$GPGGA,205757.00,3844.2907,N,00908.3308,W,1,00,0.0,139.499008,M,0.0,M,,*75
$GPGLL,3844.2907,N,00908.3308,W,205757.00,A,*36
$GPGSA,A,3,,,,,,,,,,,,,0.0,0.0,0.0*32
$GPRMC,205758.00,A,3844.2914,N,00908.3306,W,1.522732,16.057298,050617,,*1F
$GPGGA,205758.00,3844.2914,N,00908.3306,W,1,00,0.0,139.255966,M,0.0,M,,*71
$GPGLL,3844.2914,N,00908.3306,W,205758.00,A,*35
$GPGSA,A,3,,,,,,,,,,,,,0.0,0.0,0.0*32
$GPRMC,205759.00,A,3844.2919,N,00908.3303,W,3.336388,22.169073,050617,,*1E
$GPGGA,205759.00,3844.2919,N,00908.3303,W,1,00,0.0,139.356537,M,0.0,M,,*72
$GPGLL,3844.2919,N,00908.3303,W,205759.00,A,*3C
$GPGSA,A,3,,,,,,,,,,,,,0.0,0.0,0.0*32
$GPRMC,205800.00,A,3844.2925,N,00908.3299,W,2.158494,27.867072,050617,,*12
$GPGGA,205800.00,3844.2925,N,00908.3299,W,1,00,0.0,139.440720,M,0.0,M,,*78
$GPGLL,3844.2925,N,00908.3299,W,205800.00,A,*32
$GPGSA,A,3,,,,,,,,,,,,,0.0,0.0,0.0*32
$GPRMC,205801.00,A,3844.2933,N,00908.3296,W,2.206242,14.188650,050617,,*10
$GPGGA,205801.00,3844.2933,N,00908.3296,W,1,00,0.0,139.551239,M,0.0,M,,*7D
$GPGLL,3844.2933,N,00908.3296,W,205801.00,A,*3B
$GPGSA,A,3,,,,,,,,,,,,,0.0,0.0,0.0*32
$GPRMC,205802.00,A,3844.2942,N,00908.3291,W,2.070265,26.534988,050617,,*1C
$GPGGA,205802.00,3844.2942,N,00908.3291,W,1,00,0.0,139.974945,M,0.0,M,,*74
$GPGLL,3844.2942,N,00908.3291,W,205802.00,A,*39
$GPGSA,A,3,,,,,,,,,,,,,0.0,0.0,0.0*32
$GPRMC,205803.00,A,3844.2948,N,00908.3288,W,1.416274,17.828831,050617,,*19
$GPGGA,205803.00,3844.2948,N,00908.3288,W,1,00,0.0,139.801559,M,0.0,M,,*75
$GPGLL,3844.2948,N,00908.3288,W,205803.00,A,*3A
$GPGSA,A,3,,,,,,,,,,,,,0.0,0.0,0.0*32
$GPRMC,205804.00,A,3844.2952,N,00908.3283,W,1.957175,41.563178,050617,,*11
$GPGGA,205804.00,3844.2952,N,00908.3283,W,1,00,0.0,139.799210,M,0.0,M,,*76
$GPGLL,3844.2952,N,00908.3283,W,205804.00,A,*3D
$GPGSA,A,3,,,,,,,,,,,,,0.0,0.0,0.0*32
$GPRMC,205805.00,A,3844.2955,N,00908.3278,W,1.951375,55.483379,050617,,*1E
$GPGGA,205805.00,3844.2955,N,00908.3278,W,1,00,0.0,139.840393,M,0.0,M,,*75
$GPGLL,3844.2955,N,00908.3278,W,205805.00,A,*3F
$GPGSA,A,3,,,,,,,,,,,,,0.0,0.0,0.0*32
$GPRMC,205806.00,A,3844.2966,N,00908.3275,W,1.915569,12.245842,050617,,*17
$GPGGA,205806.00,3844.2966,N,00908.3275,W,1,00,0.0,140.726730,M,0.0,M,,*77
$GPGLL,3844.2966,N,00908.3275,W,205806.00,A,*31
$GPGSA,A,3,,,,,,,,,,,,,0.0,0.0,0.0*32
$GPRMC,205807.00,A,3844.2965,N,00908.3268,W,1.807073,93.858357,050617,,*15
$GPGGA,205807.00,3844.2965,N,00908.3268,W,1,00,0.0,140.989639,M,0.0,M,,*7A
$GPGLL,3844.2965,N,00908.3268,W,205807.00,A,*3F
$GPGSA,A,3,,,,,,,,,,,,,0.0,0.0,0.0*32
$GPRMC,205808.00,A,3844.2964,N,00908.3262,W,1.971618,103.986128,050617,,*2A
$GPGGA,205808.00,3844.2964,N,00908.3262,W,1,00,0.0,141.160324,M,0.0,M,,*79
$GPGLL,3844.2964,N,00908.3262,W,205808.00,A,*3B
$GPGSA,A,3,,,,,,,,,,,,,0.0,0.0,0.0*32
$GPRMC,205809.00,A,3844.2963,N,00908.3253,W,2.110814,98.558138,050617,,*1D
$GPGGA,205809.00,3844.2963,N,00908.3253,W,1,00,0.0,141.435455,M,0.0,M,,*79
$GPGLL,3844.2963,N,00908.3253,W,205809.00,A,*3F
$GPGSA,A,3,,,,,,,,,,,,,0.0,0.0,0.0*32
$GPRMC,205810.00,A,3844.2950,N,00908.3237,W,2.248656,138.472829,050617,,*2A
$GPGGA,205810.00,3844.2950,N,00908.3237,W,1,00,0.0,140.779816,M,0.0,M,,*72
$GPGLL,3844.2950,N,00908.3237,W,205810.00,A,*35
$GPGSA,A,3,,,,,,,,,,,,,0.0,0.0,0.0*32
$GPRMC,205811.00,A,3844.2958,N,00908.3214,W,2.986418,64.980715,050617,,*1B
$GPGGA,205811.00,3844.2958,N,00908.3214,W,1,00,0.0,140.717209,M,0.0,M,,*76
$GPGLL,3844.2958,N,00908.3214,W,205811.00,A,*3D
$GPGSA,A,3,,,,,,,,,,,,,0.0,0.0,0.0*32
$GPRMC,205812.00,A,3844.2961,N,00908.3200,W,3.040337,74.307960,050617,,*17
$GPGGA,205812.00,3844.2961,N,00908.3200,W,1,00,0.0,141.097717,M,0.0,M,,*7E
$GPGLL,3844.2961,N,00908.3200,W,205812.00,A,*31
$GPGSA,A,3,,,,,,,,,,,,,0.0,0.0,0.0*32
$GPRMC,205813.00,A,3844.2963,N,00908.3192,W,1.872083,73.334031,050617,,*11
$GPGGA,205813.00,3844.2963,N,00908.3192,W,1,00,0.0,141.227539,M,0.0,M,,*72
$GPGLL,3844.2963,N,00908.3192,W,205813.00,A,*3A
$GPGSA,A,3,,,,,,,,,,,,,0.0,0.0,0.0*32
$GPRMC,205814.00,A,3844.2968,N,00908.3185,W,2.278542,47.867662,050617,,*1A
$GPGGA,205814.00,3844.2968,N,00908.3185,W,1,00,0.0,141.327789,M,0.0,M,,*70
$GPGLL,3844.2968,N,00908.3185,W,205814.00,A,*30
$GPGSA,A,3,,,,,,,,,,,,,0.0,0.0,0.0*32
$GPRMC,205815.00,A,3844.2973,N,00908.3177,W,2.622108,51.405840,050617,,*1C
$GPGGA,205815.00,3844.2973,N,00908.3177,W,1,00,0.0,141.158035,M,0.0,M,,*7C
$GPGLL,3844.2973,N,00908.3177,W,205815.00,A,*36
$GPGSA,A,3,,,,,,,,,,,,,0.0,0.0,0.0*32
$GPRMC,205816.00,A,3844.2980,N,00908.3166,W,2.591510,52.593534,050617,,*16
$GPGGA,205816.00,3844.2980,N,00908.3166,W,1,00,0.0,141.327759,M,0.0,M,,*74
$GPGLL,3844.2980,N,00908.3166,W,205816.00,A,*39
$GPGSA,A,3,,,,,,,,,,,,,0.0,0.0,0.0*32
$GPRMC,205817.00,A,3844.2987,N,00908.3166,W,2.506559,1.485723,050617,,*27
$GPGGA,205817.00,3844.2987,N,00908.3166,W,1,00,0.0,141.251770,M,0.0,M,,*79
$GPGLL,3844.2987,N,00908.3166,W,205817.00,A,*3F
$GPGSA,A,3,,,,,,,,,,,,,0.0,0.0,0.0*32
$GPRMC,205818.00,A,3844.2993,N,00908.3165,W,2.591362,11.292676,050617,,*1E
$GPGGA,205818.00,3844.2993,N,00908.3165,W,1,00,0.0,141.067001,M,0.0,M,,*76
$GPGLL,3844.2993,N,00908.3165,W,205818.00,A,*36
$GPGSA,A,3,,,,,,,,,,,,,0.0,0.0,0.0*32
$GPRMC,205819.00,A,3844.3003,N,00908.3165,W,2.289458,358.572465,050617,,*29
$GPGGA,205819.00,3844.3003,N,00908.3165,W,1,00,0.0,141.164063,M,0.0,M,,*70
$GPGLL,3844.3003,N,00908.3165,W,205819.00,A,*36
$GPGSA,A,3,,,,,,,,,,,,,0.0,0.0,0.0*32
$GPRMC,205820.00,A,3844.3009,N,00908.3165,W,1.886970,358.579958,050617,,*20
$GPGGA,205820.00,3844.3009,N,00908.3165,W,1,00,0.0,141.222290,M,0.0,M,,*7F
$GPGLL,3844.3009,N,00908.3165,W,205820.00,A,*36
$GPGSA,A,3,,,,,,,,,,,,,0.0,0.0,0.0*32
$GPRMC,205821.00,A,3844.3015,N,00908.3166,W,1.228076,352.718544,050617,,*20
$GPGGA,205821.00,3844.3015,N,00908.3166,W,1,00,0.0,141.424667,M,0.0,M,,*7C
$GPGLL,3844.3015,N,00908.3166,W,205821.00,A,*39
$GPGSA,A,3,,,,,,,,,,,,,0.0,0.0,0.0*32
$GPRMC,205822.00,A,3844.3021,N,00908.3164,W,1.400411,15.744185,050617,,*1F
$GPGGA,205822.00,3844.3021,N,00908.3164,W,1,00,0.0,141.614380,M,0.0,M,,*77
$GPGLL,3844.3021,N,00908.3164,W,205822.00,A,*3F
$GPGSA,A,3,,,,,,,,,,,,,0.0,0.0,0.0*32
$GPRMC,205823.00,A,3844.3036,N,00908.3168,W,2.746210,347.965519,050617,,*29
$GPGGA,205823.00,3844.3036,N,00908.3168,W,1,00,0.0,142.067261,M,0.0,M,,*73
$GPGLL,3844.3036,N,00908.3168,W,205823.00,A,*34
$GPGSA,A,3,,,,,,,,,,,,,0.0,0.0,0.0*32
$GPRMC,205824.00,A,3844.3049,N,00908.3175,W,3.035179,337.106617,050617,,*23
$GPGGA,205824.00,3844.3049,N,00908.3175,W,1,00,0.0,142.050659,M,0.0,M,,*7B
$GPGLL,3844.3049,N,00908.3175,W,205824.00,A,*37
$GPGSA,A,3,,,,,,,,,,,,,0.0,0.0,0.0*32
$GPRMC,205825.00,A,3844.3058,N,00908.3177,W,2.970496,352.847042,050617,,*24
$GPGGA,205825.00,3844.3058,N,00908.3177,W,1,00,0.0,142.222672,M,0.0,M,,*76
$GPGLL,3844.3058,N,00908.3177,W,205825.00,A,*34
$GPGSA,A,3,,,,,,,,,,,,,0.0,0.0,0.0*32
$GPRMC,205826.00,A,3844.3066,N,00908.3177,W,2.590393,359.860619,050617,,*2C
$GPGGA,205826.00,3844.3066,N,00908.3177,W,1,00,0.0,142.259247,M,0.0,M,,*76
$GPGLL,3844.3066,N,00908.3177,W,205826.00,A,*3A
$GPGSA,A,3,,,,,,,,,,,,,0.0,0.0,0.0*32
$GPRMC,205827.00,A,3844.3072,N,00908.3177,W,2.219766,0.018961,050617,,*28
$GPGGA,205827.00,3844.3072,N,00908.3177,W,1,00,0.0,142.272446,M,0.0,M,,*7C
$GPGLL,3844.3072,N,00908.3177,W,205827.00,A,*3E
$GPGSA,A,3,,,,,,,,,,,,,0.0,0.0,0.0*32
$GPRMC,205828.00,A,3844.3080,N,00908.3172,W,2.387701,26.858460,050617,,*1C
$GPGGA,205828.00,3844.3080,N,00908.3172,W,1,00,0.0,142.469955,M,0.0,M,,*78
$GPGLL,3844.3080,N,00908.3172,W,205828.00,A,*39
$GPGSA,A,3,,,,,,,,,,,,,0.0,0.0,0.0*32
$GPRMC,205829.00,A,3844.3081,N,00908.3167,W,1.347617,80.065217,050617,,*1D
$GPGGA,205829.00,3844.3081,N,00908.3167,W,1,00,0.0,142.765244,M,0.0,M,,*78
$GPGLL,3844.3081,N,00908.3167,W,205829.00,A,*3D
$GPGSA,A,3,,,,,,,,,,,,,0.0,0.0,0.0*32
$GPRMC,205830.00,A,3844.3083,N,00908.3167,W,1.126544,8.276655,050617,,*25
$GPGGA,205830.00,3844.3083,N,00908.3167,W,1,00,0.0,142.932938,M,0.0,M,,*7E
$GPGLL,3844.3083,N,00908.3167,W,205830.00,A,*37
$GPGSA,A,3,,,,,,,,,,,,,0.0,0.0,0.0*32
$GPRMC,205831.00,A,3844.3087,N,00908.3160,W,0.952325,52.981107,050617,,*10
$GPGGA,205831.00,3844.3087,N,00908.3160,W,1,00,0.0,143.089005,M,0.0,M,,*73
$GPGLL,3844.3087,N,00908.3160,W,205831.00,A,*35
$GPGSA,A,3,,,,,,,,,,,,,0.0,0.0,0.0*32
$GPRMC,205832.00,A,3844.3090,N,00908.3157,W,0.826835,45.453997,050617,,*1C
$GPGGA,205832.00,3844.3090,N,00908.3157,W,1,00,0.0,142.877045,M,0.0,M,,*7E
$GPGLL,3844.3090,N,00908.3157,W,205832.00,A,*34
$GPGSA,A,3,,,,,,,,,,,,,0.0,0.0,0.0*32
$GPRMC,205833.00,A,3844.3097,N,00908.3162,W,0.960285,329.667399,050617,,*26
$GPGGA,205833.00,3844.3097,N,00908.3162,W,1,00,0.0,142.819611,M,0.0,M,,*71
$GPGLL,3844.3097,N,00908.3162,W,205833.00,A,*34
$GPGSA,A,3,,,,,,,,,,,,,0.0,0.0,0.0*32
$GPRMC,205834.00,A,3844.3101,N,00908.3168,W,0.816144,307.423864,050617,,*2C
$GPGGA,205834.00,3844.3101,N,00908.3168,W,1,00,0.0,142.605972,M,0.0,M,,*7B
$GPGLL,3844.3101,N,00908.3168,W,205834.00,A,*37
$GPGSA,A,3,,,,,,,,,,,,,0.0,0.0,0.0*32
$GPRMC,205835.00,A,3844.3093,N,00908.3165,W,0.437832,162.676729,050617,,*28
$GPGGA,205835.00,3844.3093,N,00908.3165,W,1,00,0.0,142.525864,M,0.0,M,,*7A
$GPGLL,3844.3093,N,00908.3165,W,205835.00,A,*31
$GPGSA,A,3,,,,,,,,,,,,,0.0,0.0,0.0*32
$GPRMC,205836.00,A,3844.3095,N,00908.3171,W,0.410163,287.703326,050617,,*20
$GPGGA,205836.00,3844.3095,N,00908.3171,W,1,00,0.0,142.371384,M,0.0,M,,*78
$GPGLL,3844.3095,N,00908.3171,W,205836.00,A,*31
$GPGSA,A,3,,,,,,,,,,,,,0.0,0.0,0.0*32
$GPRMC,205837.00,A,3844.3097,N,00908.3172,W,0.424075,338.440244,050617,,*25
$GPGGA,205837.00,3844.3097,N,00908.3172,W,1,00,0.0,142.156998,M,0.0,M,,*78
$GPGLL,3844.3097,N,00908.3172,W,205837.00,A,*31
$GPGSA,A,3,,,,,,,,,,,,,0.0,0.0,0.0*32
$GPRMC,205838.00,A,3844.3099,N,00908.3171,W,0.390577,14.532085,050617,,*1E
$GPGGA,205838.00,3844.3099,N,00908.3171,W,1,00,0.0,142.056015,M,0.0,M,,*77
$GPGLL,3844.3099,N,00908.3171,W,205838.00,A,*33
$GPGSA,A,3,,,,,,,,,,,,,0.0,0.0,0.0*32
$GPRMC,205839.00,A,3844.3100,N,00908.3172,W,0.511540,339.528991,050617,,*2D
$GPGGA,205839.00,3844.3100,N,00908.3172,W,1,00,0.0,142.096390,M,0.0,M,,*76
$GPGLL,3844.3100,N,00908.3172,W,205839.00,A,*30
$GPGSA,A,3,,,,,,,,,,,,,0.0,0.0,0.0*32
$GPRMC,205840.00,A,3844.3101,N,00908.3173,W,0.279365,324.290373,050617,,*25
$GPGGA,205840.00,3844.3101,N,00908.3173,W,1,00,0.0,142.116745,M,0.0,M,,*7D
$GPGLL,3844.3101,N,00908.3173,W,205840.00,A,*3E
$GPGSA,A,3,,,,,,,,,,,,,0.0,0.0,0.0*32
$GPRMC,205841.00,A,3844.3102,N,00908.3173,W,0.416524,338.021636,050617,,*2A
$GPGGA,205841.00,3844.3102,N,00908.3173,W,1,00,0.0,142.127838,M,0.0,M,,*78
$GPGLL,3844.3102,N,00908.3173,W,205841.00,A,*3C
$GPGSA,A,3,,,,,,,,,,,,,0.0,0.0,0.0*32
$GPRMC,205842.00,A,3844.3103,N,00908.3173,W,0.831932,359.218205,050617,,*21
$GPGGA,205842.00,3844.3103,N,00908.3173,W,1,00,0.0,142.149002,M,0.0,M,,*73
$GPGLL,3844.3103,N,00908.3173,W,205842.00,A,*3E
$GPGSA,A,3,,,,,,,,,,,,,0.0,0.0,0.0*32
$GPRMC,205843.00,A,3844.3116,N,00908.3173,W,0.583347,0.252295,050617,,*20
$GPGGA,205843.00,3844.3116,N,00908.3173,W,1,00,0.0,143.012238,M,0.0,M,,*73
$GPGLL,3844.3116,N,00908.3173,W,205843.00,A,*3B
$GPGSA,A,3,,,,,,,,,,,,,0.0,0.0,0.0*32
$GPRMC,205844.00,A,3844.3131,N,00908.3170,W,1.114622,8.964756,050617,,*20
$GPGGA,205844.00,3844.3131,N,00908.3170,W,1,00,0.0,144.193985,M,0.0,M,,*70
$GPGLL,3844.3131,N,00908.3170,W,205844.00,A,*3A
$GPGSA,A,3,,,,,,,,,,,,,0.0,0.0,0.0*32
$GPRMC,205845.00,A,3844.3139,N,00908.3171,W,1.236659,356.200653,050617,,*22
$GPGGA,205845.00,3844.3139,N,00908.3171,W,1,00,0.0,145.746277,M,0.0,M,,*71
$GPGLL,3844.3139,N,00908.3171,W,205845.00,A,*32
$GPGSA,A,3,,,,,,,,,,,,,0.0,0.0,0.0*32
$GPRMC,205846.00,A,3844.3149,N,00908.3164,W,1.563991,27.721512,050617,,*1B
$GPGGA,205846.00,3844.3149,N,00908.3164,W,1,00,0.0,145.726364,M,0.0,M,,*74
$GPGLL,3844.3149,N,00908.3164,W,205846.00,A,*32
$GPGSA,A,3,,,,,,,,,,,,,0.0,0.0,0.0*32
$GPRMC,205847.00,A,3844.3146,N,00908.3150,W,1.997969,101.965953,050617,,*20
$GPGGA,205847.00,3844.3146,N,00908.3150,W,1,00,0.0,145.055115,M,0.0,M,,*7A
$GPGLL,3844.3146,N,00908.3150,W,205847.00,A,*3B
$GPGSA,A,3,,,,,,,,,,,,,0.0,0.0,0.0*32
$GPRMC,205848.00,A,3844.3149,N,00908.3142,W,1.995166,69.460257,050617,,*1E
$GPGGA,205848.00,3844.3149,N,00908.3142,W,1,00,0.0,144.741211,M,0.0,M,,*7D
$GPGLL,3844.3149,N,00908.3142,W,205848.00,A,*38
$GPGSA,A,3,,,,,,,,,,,,,0.0,0.0,0.0*32
$GPRMC,205849.00,A,3844.3163,N,00908.3130,W,2.623107,32.566015,050617,,*19
$GPGGA,205849.00,3844.3163,N,00908.3130,W,1,00,0.0,144.977951,M,0.0,M,,*75
$GPGLL,3844.3163,N,00908.3130,W,205849.00,A,*34
$GPGSA,A,3,,,,,,,,,,,,,0.0,0.0,0.0*32
$GPRMC,205850.00,A,3844.3167,N,00908.3120,W,3.191433,60.471865,050617,,*16
$GPGGA,205850.00,3844.3167,N,00908.3120,W,1,00,0.0,144.869675,M,0.0,M,,*7F
$GPGLL,3844.3167,N,00908.3120,W,205850.00,A,*39
$GPGSA,A,3,,,,,,,,,,,,,0.0,0.0,0.0*32
$GPRMC,205851.00,A,3844.3174,N,00908.3110,W,3.277762,48.734358,050617,,*17
$GPGGA,205851.00,3844.3174,N,00908.3110,W,1,00,0.0,145.270294,M,0.0,M,,*77
$GPGLL,3844.3174,N,00908.3110,W,205851.00,A,*39
$GPGSA,A,3,,,,,,,,,,,,,0.0,0.0,0.0*32
$GPRMC,205852.00,A,3844.3176,N,00908.3108,W,2.918670,45.468611,050617,,*11
$GPGGA,205852.00,3844.3176,N,00908.3108,W,1,00,0.0,145.817139,M,0.0,M,,*70
$GPGLL,3844.3176,N,00908.3108,W,205852.00,A,*31
$GPGSA,A,3,,,,,,,,,,,,,0.0,0.0,0.0*32
$GPRMC,205853.00,A,3844.3178,N,00908.3094,W,3.028717,75.860298,050617,,*13
$GPGGA,205853.00,3844.3178,N,00908.3094,W,1,00,0.0,145.727203,M,0.0,M,,*7D
$GPGLL,3844.3178,N,00908.3094,W,205853.00,A,*3A
$GPGSA,A,3,,,,,,,,,,,,,0.0,0.0,0.0*32
$GPRMC,205854.00,A,3844.3179,N,00908.3085,W,2.872936,84.254226,050617,,*18
$GPGGA,205854.00,3844.3179,N,00908.3085,W,1,00,0.0,146.004410,M,0.0,M,,*7A
$GPGLL,3844.3179,N,00908.3085,W,205854.00,A,*3C
$GPGSA,A,3,,,,,,,,,,,,,0.0,0.0,0.0*32
$GPRMC,205855.00,A,3844.3183,N,00908.3073,W,2.327213,69.062640,050617,,*12
$GPGGA,205855.00,3844.3183,N,00908.3073,W,1,00,0.0,146.140976,M,0.0,M,,*7B
$GPGLL,3844.3183,N,00908.3073,W,205855.00,A,*31
$GPGSA,A,3,,,,,,,,,,,,,0.0,0.0,0.0*32
$GPRMC,205856.00,A,3844.3185,N,00908.3066,W,3.097240,71.674414,050617,,*17
$GPGGA,205856.00,3844.3185,N,00908.3066,W,1,00,0.0,146.395081,M,0.0,M,,*71
$GPGLL,3844.3185,N,00908.3066,W,205856.00,A,*30
$GPGSA,A,3,,,,,,,,,,,,,0.0,0.0,0.0*32
$GPRMC,205857.00,A,3844.3189,N,00908.3050,W,2.288911,70.690913,050617,,*1C
$GPGGA,205857.00,3844.3189,N,00908.3050,W,1,00,0.0,146.124405,M,0.0,M,,*79
$GPGLL,3844.3189,N,00908.3050,W,205857.00,A,*38
$GPGSA,A,3,,,,,,,,,,,,,0.0,0.0,0.0*32
$GPRMC,205858.00,A,3844.3193,N,00908.3044,W,2.414645,51.492007,050617,,*1F
$GPGGA,205858.00,3844.3193,N,00908.3044,W,1,00,0.0,145.931381,M,0.0,M,,*7C
$GPGLL,3844.3193,N,00908.3044,W,205858.00,A,*39
$GPGSA,A,3,,,,,,,,,,,,,0.0,0.0,0.0*32
$GPRMC,205859.00,A,3844.3199,N,00908.3029,W,2.684201,60.550489,050617,,*1F
$GPGGA,205859.00,3844.3199,N,00908.3029,W,1,00,0.0,145.608124,M,0.0,M,,*74
$GPGLL,3844.3199,N,00908.3029,W,205859.00,A,*39
$GPGSA,A,3,,,,,,,,,,,,,0.0,0.0,0.0*32
$GPRMC,205900.00,A,3844.3203,N,00908.3016,W,3.313755,69.465380,050617,,*10
$GPGGA,205900.00,3844.3203,N,00908.3016,W,1,00,0.0,145.387634,M,0.0,M,,*71
$GPGLL,3844.3203,N,00908.3016,W,205900.00,A,*38
$GPGSA,A,3,,,,,,,,,,,,,0.0,0.0,0.0*32
$GPRMC,205901.00,A,3844.3209,N,00908.3007,W,2.885636,49.464848,050617,,*16
$GPGGA,205901.00,3844.3209,N,00908.3007,W,1,00,0.0,145.579071,M,0.0,M,,*7A
$GPGLL,3844.3209,N,00908.3007,W,205901.00,A,*33
$GPGSA,A,3,,,,,,,,,,,,,0.0,0.0,0.0*32
$GPRMC,205902.00,A,3844.3217,N,00908.2993,W,3.088920,52.575700,050617,,*1B
$GPGGA,205902.00,3844.3217,N,00908.2993,W,1,00,0.0,145.442719,M,0.0,M,,*73
$GPGLL,3844.3217,N,00908.2993,W,205902.00,A,*3A
$GPGSA,A,3,,,,,,,,,,,,,0.0,0.0,0.0*32
$GPRMC,205903.00,A,3844.3223,N,00908.2983,W,3.248258,51.216371,050617,,*15
$GPGGA,205903.00,3844.3223,N,00908.2983,W,1,00,0.0,145.246506,M,0.0,M,,*7A
$GPGLL,3844.3223,N,00908.2983,W,205903.00,A,*3D
$GPGSA,A,3,,,,,,,,,,,,,0.0,0.0,0.0*32
$GPRMC,205904.00,A,3844.3226,N,00908.2975,W,2.920601,65.860808,050617,,*1B
$GPGGA,205904.00,3844.3226,N,00908.2975,W,1,00,0.0,144.891586,M,0.0,M,,*78
$GPGLL,3844.3226,N,00908.2975,W,205904.00,A,*36
$GPGSA,A,3,,,,,,,,,,,,,0.0,0.0,0.0*32
$GPRMC,205905.00,A,3844.3229,N,00908.2968,W,2.822571,60.253695,050617,,*1B
$GPGGA,205905.00,3844.3229,N,00908.2968,W,1,00,0.0,144.337402,M,0.0,M,,*70
$GPGLL,3844.3229,N,00908.2968,W,205905.00,A,*34
$GPGSA,A,3,,,,,,,,,,,,,0.0,0.0,0.0*32
$GPRMC,205906.00,A,3844.3239,N,00908.2955,W,3.896580,45.562628,050617,,*13
$GPGGA,205906.00,3844.3239,N,00908.2955,W,1,00,0.0,143.883255,M,0.0,M,,*7B
$GPGLL,3844.3239,N,00908.2955,W,205906.00,A,*38
$GPGSA,A,3,,,,,,,,,,,,,0.0,0.0,0.0*32
$GPRMC,205907.00,A,3844.3247,N,00908.2943,W,3.199902,50.287986,050617,,*1F
$GPGGA,205907.00,3844.3247,N,00908.2943,W,1,00,0.0,143.333557,M,0.0,M,,*71
$GPGLL,3844.3247,N,00908.2943,W,205907.00,A,*37
$GPGSA,A,3,,,,,,,,,,,,,0.0,0.0,0.0*32
$GPRMC,205908.00,A,3844.3253,N,00908.2932,W,3.632858,55.313514,050617,,*15
$GPGGA,205908.00,3844.3253,N,00908.2932,W,1,00,0.0,142.966843,M,0.0,M,,*7E
$GPGLL,3844.3253,N,00908.2932,W,205908.00,A,*3B
$GPGSA,A,3,,,,,,,,,,,,,0.0,0.0,0.0*32
$GPRMC,205909.00,A,3844.3258,N,00908.2922,W,3.688639,56.012201,050617,,*14
$GPGGA,205909.00,3844.3258,N,00908.2922,W,1,00,0.0,142.836121,M,0.0,M,,*7C
$GPGLL,3844.3258,N,00908.2922,W,205909.00,A,*30
$GPGSA,A,3,,,,,,,,,,,,,0.0,0.0,0.0*32
$GPRMC,205910.00,A,3844.3263,N,00908.2905,W,3.933563,72.014100,050617,,*10
$GPGGA,205910.00,3844.3263,N,00908.2905,W,1,00,0.0,142.411301,M,0.0,M,,*70
$GPGLL,3844.3263,N,00908.2905,W,205910.00,A,*35
$GPGSA,A,3,,,,,,,,,,,,,0.0,0.0,0.0*32
$GPRMC,205911.00,A,3844.3268,N,00908.2891,W,3.516852,65.147859,050617,,*16
$GPGGA,205911.00,3844.3268,N,00908.2891,W,1,00,0.0,142.293808,M,0.0,M,,*78
$GPGLL,3844.3268,N,00908.2891,W,205911.00,A,*33
$GPGSA,A,3,,,,,,,,,,,,,0.0,0.0,0.0*32
$GPRMC,205912.00,A,3844.3283,N,00908.2880,W,3.292734,28.079238,050617,,*1C
$GPGGA,205912.00,3844.3283,N,00908.2880,W,1,00,0.0,143.719620,M,0.0,M,,*7C
$GPGLL,3844.3283,N,00908.2880,W,205912.00,A,*35
$GPGSA,A,3,,,,,,,,,,,,,0.0,0.0,0.0*32
$GPRMC,205913.00,A,3844.3281,N,00908.2851,W,3.437377,94.169323,050617,,*15
$GPGGA,205913.00,3844.3281,N,00908.2851,W,1,00,0.0,145.486130,M,0.0,M,,*76
$GPGLL,3844.3281,N,00908.2851,W,205913.00,A,*3A
$GPGSA,A,3,,,,,,,,,,,,,0.0,0.0,0.0*32
$GPRMC,205914.00,A,3844.3292,N,00908.2844,W,3.072754,25.671264,050617,,*12
$GPGGA,205914.00,3844.3292,N,00908.2844,W,1,00,0.0,146.068771,M,0.0,M,,*73
$GPGLL,3844.3292,N,00908.2844,W,205914.00,A,*3B
$GPGSA,A,3,,,,,,,,,,,,,0.0,0.0,0.0*32
$GPRMC,205915.00,A,3844.3298,N,00908.2839,W,2.666174,34.561208,050617,,*1D
$GPGGA,205915.00,3844.3298,N,00908.2839,W,1,00,0.0,145.195786,M,0.0,M,,*7A
$GPGLL,3844.3298,N,00908.2839,W,205915.00,A,*3A
$GPGSA,A,3,,,,,,,,,,,,,0.0,0.0,0.0*32
$GPRMC,205916.00,A,3844.3287,N,00908.2803,W,2.694381,110.789439,050617,,*2B
$GPGGA,205916.00,3844.3287,N,00908.2803,W,1,00,0.0,147.927643,M,0.0,M,,*75
$GPGLL,3844.3287,N,00908.2803,W,205916.00,A,*3E
$GPGSA,A,3,,,,,,,,,,,,,0.0,0.0,0.0*32
$GPRMC,205917.00,A,3844.3296,N,00908.2795,W,2.830121,37.041536,050617,,*1B
$GPGGA,205917.00,3844.3296,N,00908.2795,W,1,00,0.0,148.834030,M,0.0,M,,*7A
$GPGLL,3844.3296,N,00908.2795,W,205917.00,A,*3F
$GPGSA,A,3,,,,,,,,,,,,,0.0,0.0,0.0*32
$GPRMC,205918.00,A,3844.3300,N,00908.2784,W,3.070539,63.218095,050617,,*19
$GPGGA,205918.00,3844.3300,N,00908.2784,W,1,00,0.0,148.531815,M,0.0,M,,*7C
$GPGLL,3844.3300,N,00908.2784,W,205918.00,A,*3E
$GPGSA,A,3,,,,,,,,,,,,,0.0,0.0,0.0*32
$GPRMC,205919.00,A,3844.3305,N,00908.2767,W,2.905446,70.352231,050617,,*12
$GPGGA,205919.00,3844.3305,N,00908.2767,W,1,00,0.0,149.620682,M,0.0,M,,*77
$GPGLL,3844.3305,N,00908.2767,W,205919.00,A,*37
$GPGSA,A,3,,,,,,,,,,,,,0.0,0.0,0.0*32
$GPRMC,205920.00,A,3844.3314,N,00908.2764,W,1.640125,10.868162,050617,,*17
$GPGGA,205920.00,3844.3314,N,00908.2764,W,1,00,0.0,149.748383,M,0.0,M,,*75
$GPGLL,3844.3314,N,00908.2764,W,205920.00,A,*3E
$GPGSA,A,3,,,,,,,,,,,,,0.0,0.0,0.0*32
$GPRMC,205921.00,A,3844.3317,N,00908.2758,W,2.573980,65.381827,050617,,*1B
$GPGGA,205921.00,3844.3317,N,00908.2758,W,1,00,0.0,149.283539,M,0.0,M,,*7D
$GPGLL,3844.3317,N,00908.2758,W,205921.00,A,*33
$GPGSA,A,3,,,,,,,,,,,,,0.0,0.0,0.0*32
$GPRMC,205922.00,A,3844.3315,N,00908.2737,W,2.911650,96.131790,050617,,*1F
$GPGGA,205922.00,3844.3315,N,00908.2737,W,1,00,0.0,150.490433,M,0.0,M,,*72
$GPGLL,3844.3315,N,00908.2737,W,205922.00,A,*3B
$GPGSA,A,3,,,,,,,,,,,,,0.0,0.0,0.0*32
$GPRMC,205923.00,A,3844.3319,N,00908.2730,W,2.812990,49.577709,050617,,*10
$GPGGA,205923.00,3844.3319,N,00908.2730,W,1,00,0.0,150.419693,M,0.0,M,,*71
$GPGLL,3844.3319,N,00908.2730,W,205923.00,A,*31
$GPGSA,A,3,,,,,,,,,,,,,0.0,0.0,0.0*32
$GPRMC,205924.00,A,3844.3328,N,00908.2718,W,3.629264,48.594434,050617,,*19
$GPGGA,205924.00,3844.3328,N,00908.2718,W,1,00,0.0,149.955139,M,0.0,M,,*74
$GPGLL,3844.3328,N,00908.2718,W,205924.00,A,*3E
$GPGSA,A,3,,,,,,,,,,,,,0.0,0.0,0.0*32
$GPRMC,205925.00,A,3844.3340,N,00908.2711,W,2.780874,24.407931,050617,,*1E
$GPGGA,205925.00,3844.3340,N,00908.2711,W,1,00,0.0,149.828644,M,0.0,M,,*74
$GPGLL,3844.3340,N,00908.2711,W,205925.00,A,*38
$GPGSA,A,3,,,,,,,,,,,,,0.0,0.0,0.0*32
$GPRMC,205926.00,A,3844.3345,N,00908.2704,W,2.630196,44.600289,050617,,*18
$GPGGA,205926.00,3844.3345,N,00908.2704,W,1,00,0.0,149.496597,M,0.0,M,,*72
$GPGLL,3844.3345,N,00908.2704,W,205926.00,A,*3A
$GPGSA,A,3,,,,,,,,,,,,,0.0,0.0,0.0*32
$GPRMC,205927.00,A,3844.3351,N,00908.2697,W,2.267603,44.549384,050617,,*18
$GPGGA,205927.00,3844.3351,N,00908.2697,W,1,00,0.0,149.145737,M,0.0,M,,*7E
$GPGLL,3844.3351,N,00908.2697,W,205927.00,A,*35
$GPGSA,A,3,,,,,,,,,,,,,0.0,0.0,0.0*32
$GPRMC,205928.00,A,3844.3355,N,00908.2690,W,2.108715,51.282893,050617,,*11
$GPGGA,205928.00,3844.3355,N,00908.2690,W,1,00,0.0,148.885834,M,0.0,M,,*7A
$GPGLL,3844.3355,N,00908.2690,W,205928.00,A,*39
$GPGSA,A,3,,,,,,,,,,,,,0.0,0.0,0.0*32
$GPRMC,205929.00,A,3844.3360,N,00908.2680,W,2.256685,57.240937,050617,,*10
$GPGGA,205929.00,3844.3360,N,00908.2680,W,1,00,0.0,148.447693,M,0.0,M,,*7D
$GPGLL,3844.3360,N,00908.2680,W,205929.00,A,*3F
$GPGSA,A,3,,,,,,,,,,,,,0.0,0.0,0.0*32
$GPRMC,205930.00,A,3844.3366,N,00908.2676,W,2.523578,32.567919,050617,,*1E
$GPGGA,205930.00,3844.3366,N,00908.2676,W,1,00,0.0,148.326721,M,0.0,M,,*72
$GPGLL,3844.3366,N,00908.2676,W,205930.00,A,*38
$GPGSA,A,3,,,,,,,,,,,,,0.0,0.0,0.0*32
$GPRMC,205931.00,A,3844.3371,N,00908.2669,W,3.030741,48.954597,050617,,*12
$GPGGA,205931.00,3844.3371,N,00908.2669,W,1,00,0.0,148.175232,M,0.0,M,,*78
$GPGLL,3844.3371,N,00908.2669,W,205931.00,A,*31
$GPGSA,A,3,,,,,,,,,,,,,0.0,0.0,0.0*32
$GPRMC,205932.00,A,3844.3377,N,00908.2665,W,2.520811,23.916643,050617,,*15
$GPGGA,205932.00,3844.3377,N,00908.2665,W,1,00,0.0,147.909592,M,0.0,M,,*70
$GPGLL,3844.3377,N,00908.2665,W,205932.00,A,*38
$GPGSA,A,3,,,,,,,,,,,,,0.0,0.0,0.0*32
$GPRMC,205933.00,A,3844.3386,N,00908.2646,W,2.470393,60.091924,050617,,*11
$GPGGA,205933.00,3844.3386,N,00908.2646,W,1,00,0.0,147.318085,M,0.0,M,,*77
$GPGLL,3844.3386,N,00908.2646,W,205933.00,A,*36
$GPGSA,A,3,,,,,,,,,,,,,0.0,0.0,0.0*32
$GPRMC,205934.00,A,3844.3390,N,00908.2638,W,2.732652,57.753558,050617,,*1F
$GPGGA,205934.00,3844.3390,N,00908.2638,W,1,00,0.0,147.060425,M,0.0,M,,*7C
$GPGLL,3844.3390,N,00908.2638,W,205934.00,A,*3F
$GPGSA,A,3,,,,,,,,,,,,,0.0,0.0,0.0*32
$GPRMC,205935.00,A,3844.3404,N,00908.2650,W,2.466883,324.828714,050617,,*24
$GPGGA,205935.00,3844.3404,N,00908.2650,W,1,00,0.0,147.988998,M,0.0,M,,*7D
$GPGLL,3844.3404,N,00908.2650,W,205935.00,A,*3A
$GPGSA,A,3,,,,,,,,,,,,,0.0,0.0,0.0*32
$GPRMC,205936.00,A,3844.3417,N,00908.2645,W,3.002135,16.883104,050617,,*16
$GPGGA,205936.00,3844.3417,N,00908.2645,W,1,00,0.0,147.716309,M,0.0,M,,*73
$GPGLL,3844.3417,N,00908.2645,W,205936.00,A,*3F
$GPGSA,A,3,,,,,,,,,,,,,0.0,0.0,0.0*32
$GPRMC,205937.00,A,3844.3428,N,00908.2645,W,2.519074,1.503917,050617,,*28
$GPGGA,205937.00,3844.3428,N,00908.2645,W,1,00,0.0,148.236923,M,0.0,M,,*74
$GPGLL,3844.3428,N,00908.2645,W,205937.00,A,*32
$GPGSA,A,3,,,,,,,,,,,,,0.0,0.0,0.0*32
$GPRMC,205938.00,A,3844.3433,N,00908.2634,W,2.753330,59.129947,050617,,*10
$GPGGA,205938.00,3844.3433,N,00908.2634,W,1,00,0.0,147.858063,M,0.0,M,,*77
$GPGLL,3844.3433,N,00908.2634,W,205938.00,A,*31
$GPGSA,A,3,,,,,,,,,,,,,0.0,0.0,0.0*32
$GPRMC,205939.00,A,3844.3428,N,00908.2599,W,2.899532,98.757642,050617,,*1A
$GPGGA,205939.00,3844.3428,N,00908.2599,W,1,00,0.0,149.831146,M,0.0,M,,*7F
$GPGLL,3844.3428,N,00908.2599,W,205939.00,A,*3E
$GPGSA,A,3,,,,,,,,,,,,,0.0,0.0,0.0*32
$GPRMC,205940.00,A,3844.3440,N,00908.2606,W,3.121592,331.815677,050617,,*21
$GPGGA,205940.00,3844.3440,N,00908.2606,W,1,00,0.0,148.704330,M,0.0,M,,*71
$GPGLL,3844.3440,N,00908.2606,W,205940.00,A,*3B
$GPGSA,A,3,,,,,,,,,,,,,0.0,0.0,0.0*32
$GPRMC,205941.00,A,3844.3453,N,00908.2614,W,2.993274,336.373619,050617,,*2A
$GPGGA,205941.00,3844.3453,N,00908.2614,W,1,00,0.0,147.465454,M,0.0,M,,*7F
$GPGLL,3844.3453,N,00908.2614,W,205941.00,A,*3B
$GPGSA,A,3,,,,,,,,,,,,,0.0,0.0,0.0*32
$GPRMC,205942.00,A,3844.3468,N,00908.2622,W,3.323580,337.357499,050617,,*25
$GPGGA,205942.00,3844.3468,N,00908.2622,W,1,00,0.0,145.172440,M,0.0,M,,*75
$GPGLL,3844.3468,N,00908.2622,W,205942.00,A,*35
$GPGSA,A,3,,,,,,,,,,,,,0.0,0.0,0.0*32
$GPRMC,205943.00,A,3844.3480,N,00908.2620,W,3.311341,6.770302,050617,,*2F
$GPGGA,205943.00,3844.3480,N,00908.2620,W,1,00,0.0,144.299606,M,0.0,M,,*77
$GPGLL,3844.3480,N,00908.2620,W,205943.00,A,*30
$GPGSA,A,3,,,,,,,,,,,,,0.0,0.0,0.0*32
$GPRMC,205944.00,A,3844.3497,N,00908.2621,W,3.607580,356.563674,050617,,*24
$GPGGA,205944.00,3844.3497,N,00908.2621,W,1,00,0.0,143.266876,M,0.0,M,,*79
$GPGLL,3844.3497,N,00908.2621,W,205944.00,A,*30
$GPGSA,A,3,,,,,,,,,,,,,0.0,0.0,0.0*32
$GPRMC,205945.00,A,3844.3499,N,00908.2631,W,3.335117,282.877235,050617,,*25
$GPGGA,205945.00,3844.3499,N,00908.2631,W,1,00,0.0,140.881058,M,0.0,M,,*73
$GPGLL,3844.3499,N,00908.2631,W,205945.00,A,*3E
$GPGSA,A,3,,,,,,,,,,,,,0.0,0.0,0.0*32
$GPRMC,205946.00,A,3844.3512,N,00908.2635,W,3.179094,346.490312,050617,,*28
$GPGGA,205946.00,3844.3512,N,00908.2635,W,1,00,0.0,139.687393,M,0.0,M,,*74
$GPGLL,3844.3512,N,00908.2635,W,205946.00,A,*3B
$GPGSA,A,3,,,,,,,,,,,,,0.0,0.0,0.0*32
$GPRMC,205947.00,A,3844.3516,N,00908.2633,W,2.682625,24.875337,050617,,*12
$GPGGA,205947.00,3844.3516,N,00908.2633,W,1,00,0.0,138.786209,M,0.0,M,,*74
$GPGLL,3844.3516,N,00908.2633,W,205947.00,A,*38
$GPGSA,A,3,,,,,,,,,,,,,0.0,0.0,0.0*32
$GPRMC,205948.00,A,3844.3520,N,00908.2623,W,3.008035,62.888194,050617,,*10
$GPGGA,205948.00,3844.3520,N,00908.2623,W,1,00,0.0,138.359497,M,0.0,M,,*78
$GPGLL,3844.3520,N,00908.2623,W,205948.00,A,*33
$GPGSA,A,3,,,,,,,,,,,,,0.0,0.0,0.0*32
$GPRMC,205949.00,A,3844.3522,N,00908.2619,W,3.286239,56.140168,050617,,*19
$GPGGA,205949.00,3844.3522,N,00908.2619,W,1,00,0.0,137.585602,M,0.0,M,,*74
$GPGLL,3844.3522,N,00908.2619,W,205949.00,A,*39
$GPGSA,A,3,,,,,,,,,,,,,0.0,0.0,0.0*32
$GPRMC,205950.00,A,3844.3520,N,00908.2611,W,3.984855,106.550534,050617,,*2E
$GPGGA,205950.00,3844.3520,N,00908.2611,W,1,00,0.0,136.509659,M,0.0,M,,*7D
$GPGLL,3844.3520,N,00908.2611,W,205950.00,A,*3B
$GPGSA,A,3,,,,,,,,,,,,,0.0,0.0,0.0*32
$GPRMC,205951.00,A,3844.3529,N,00908.2602,W,3.400429,38.334468,050617,,*12
$GPGGA,205951.00,3844.3529,N,00908.2602,W,1,00,0.0,136.237442,M,0.0,M,,*75
$GPGLL,3844.3529,N,00908.2602,W,205951.00,A,*31
$GPGSA,A,3,,,,,,,,,,,,,0.0,0.0,0.0*32
$GPRMC,205952.00,A,3844.3536,N,00908.2594,W,3.281393,42.534337,050617,,*1C
$GPGGA,205952.00,3844.3536,N,00908.2594,W,1,00,0.0,136.027695,M,0.0,M,,*7F
$GPGLL,3844.3536,N,00908.2594,W,205952.00,A,*30
$GPGSA,A,3,,,,,,,,,,,,,0.0,0.0,0.0*32
$GPRMC,205953.00,A,3844.3543,N,00908.2590,W,3.059109,22.116991,050617,,*19
$GPGGA,205953.00,3844.3543,N,00908.2590,W,1,00,0.0,136.530945,M,0.0,M,,*79
$GPGLL,3844.3543,N,00908.2590,W,205953.00,A,*37
$GPGSA,A,3,,,,,,,,,,,,,0.0,0.0,0.0*32
$GPRMC,205954.00,A,3844.3552,N,00908.2585,W,2.589571,25.162829,050617,,*1E
$GPGGA,205954.00,3844.3552,N,00908.2585,W,1,00,0.0,136.584839,M,0.0,M,,*7F
$GPGLL,3844.3552,N,00908.2585,W,205954.00,A,*34
$GPGSA,A,3,,,,,,,,,,,,,0.0,0.0,0.0*32
$GPRMC,205955.00,A,3844.3558,N,00908.2579,W,2.679880,38.460223,050617,,*12
$GPGGA,205955.00,3844.3558,N,00908.2579,W,1,00,0.0,136.885910,M,0.0,M,,*71
$GPGLL,3844.3558,N,00908.2579,W,205955.00,A,*3C
$GPGSA,A,3,,,,,,,,,,,,,0.0,0.0,0.0*32
$GPRMC,205956.00,A,3844.3561,N,00908.2572,W,2.597041,53.987530,050617,,*1A
$GPGGA,205956.00,3844.3561,N,00908.2572,W,1,00,0.0,136.515045,M,0.0,M,,*7E
$GPGLL,3844.3561,N,00908.2572,W,205956.00,A,*3E
$GPGSA,A,3,,,,,,,,,,,,,0.0,0.0,0.0*32
$GPRMC,205957.00,A,3844.3565,N,00908.2557,W,2.745591,71.811591,050617,,*18
$GPGGA,205957.00,3844.3565,N,00908.2557,W,1,00,0.0,136.197968,M,0.0,M,,*74
$GPGLL,3844.3565,N,00908.2557,W,205957.00,A,*3C
$GPGSA,A,3,,,,,,,,,,,,,0.0,0.0,0.0*32
$GPRMC,205958.00,A,3844.3569,N,00908.2549,W,2.990617,60.497647,050617,,*15
$GPGGA,205958.00,3844.3569,N,00908.2549,W,1,00,0.0,136.595352,M,0.0,M,,*7D
$GPGLL,3844.3569,N,00908.2549,W,205958.00,A,*30
$GPGSA,A,3,,,,,,,,,,,,,0.0,0.0,0.0*32
$GPRMC,205959.00,A,3844.3574,N,00908.2545,W,2.022678,31.407913,050617,,*1E
$GPGGA,205959.00,3844.3574,N,00908.2545,W,1,00,0.0,136.089371,M,0.0,M,,*75
$GPGLL,3844.3574,N,00908.2545,W,205959.00,A,*31
$GPGSA,A,3,,,,,,,,,,,,,0.0,0.0,0.0*32
$GPRMC,210000.00,A,3844.3579,N,00908.2538,W,3.020837,52.440860,050617,,*1D
$GPGGA,210000.00,3844.3579,N,00908.2538,W,1,00,0.0,136.076431,M,0.0,M,,*70
$GPGLL,3844.3579,N,00908.2538,W,210000.00,A,*37
$GPGSA,A,3,,,,,,,,,,,,,0.0,0.0,0.0*32
$GPRMC,210001.00,A,3844.3586,N,00908.2528,W,3.314236,48.378315,050617,,*1C
$GPGGA,210001.00,3844.3586,N,00908.2528,W,1,00,0.0,136.652191,M,0.0,M,,*7F
$GPGLL,3844.3586,N,00908.2528,W,210001.00,A,*37
$GPGSA,A,3,,,,,,,,,,,,,0.0,0.0,0.0*32
$GPRMC,210002.00,A,3844.3595,N,00908.2523,W,3.183500,22.105919,050617,,*1A
$GPGGA,210002.00,3844.3595,N,00908.2523,W,1,00,0.0,136.043350,M,0.0,M,,*7C
$GPGLL,3844.3595,N,00908.2523,W,210002.00,A,*3D
$GPGSA,A,3,,,,,,,,,,,,,0.0,0.0,0.0*32
$GPRMC,210003.00,A,3844.3603,N,00908.2516,W,3.167753,34.814946,050617,,*1B
$GPGGA,210003.00,3844.3603,N,00908.2516,W,1,00,0.0,136.049164,M,0.0,M,,*78
$GPGLL,3844.3603,N,00908.2516,W,210003.00,A,*36
$GPGSA,A,3,,,,,,,,,,,,,0.0,0.0,0.0*32
$GPRMC,210004.00,A,3844.3611,N,00908.2512,W,2.951238,20.463444,050617,,*19
$GPGGA,210004.00,3844.3611,N,00908.2512,W,1,00,0.0,135.825958,M,0.0,M,,*7E
$GPGLL,3844.3611,N,00908.2512,W,210004.00,A,*36
$GPGSA,A,3,,,,,,,,,,,,,0.0,0.0,0.0*32
$GPRMC,210005.00,A,3844.3621,N,00908.2509,W,3.094413,13.760882,050617,,*19
$GPGGA,210005.00,3844.3621,N,00908.2509,W,1,00,0.0,135.251923,M,0.0,M,,*73
$GPGLL,3844.3621,N,00908.2509,W,210005.00,A,*3E
$GPGSA,A,3,,,,,,,,,,,,,0.0,0.0,0.0*32
$GPRMC,210006.00,A,3844.3629,N,00908.2501,W,3.297903,35.632533,050617,,*12
$GPGGA,210006.00,3844.3629,N,00908.2501,W,1,00,0.0,135.247314,M,0.0,M,,*79
$GPGLL,3844.3629,N,00908.2501,W,210006.00,A,*3D
$GPGSA,A,3,,,,,,,,,,,,,0.0,0.0,0.0*32
$GPRMC,210007.00,A,3844.3642,N,00908.2503,W,3.434545,353.063584,050617,,*20
$GPGGA,210007.00,3844.3642,N,00908.2503,W,1,00,0.0,134.062378,M,0.0,M,,*79
$GPGLL,3844.3642,N,00908.2503,W,210007.00,A,*33
$GPGSA,A,3,,,,,,,,,,,,,0.0,0.0,0.0*32
$GPRMC,210008.00,A,3844.3651,N,00908.2495,W,3.348418,32.872410,050617,,*16
$GPGGA,210008.00,3844.3651,N,00908.2495,W,1,00,0.0,133.874100,M,0.0,M,,*7F
$GPGLL,3844.3651,N,00908.2495,W,210008.00,A,*30
$GPGSA,A,3,,,,,,,,,,,,,0.0,0.0,0.0*32
$GPRMC,210009.00,A,3844.3660,N,00908.2486,W,3.636933,37.553403,050617,,*16
$GPGGA,210009.00,3844.3660,N,00908.2486,W,1,00,0.0,133.420364,M,0.0,M,,*73
$GPGLL,3844.3660,N,00908.2486,W,210009.00,A,*31
$GPGSA,A,3,,,,,,,,,,,,,0.0,0.0,0.0*32
$GPRMC,210010.00,A,3844.3667,N,00908.2485,W,2.716711,9.039681,050617,,*2A
$GPGGA,210010.00,3844.3667,N,00908.2485,W,1,00,0.0,132.789856,M,0.0,M,,*74
$GPGLL,3844.3667,N,00908.2485,W,210010.00,A,*3D
$GPGSA,A,3,,,,,,,,,,,,,0.0,0.0,0.0*32
$GPRMC,210011.00,A,3844.3676,N,00908.2484,W,3.136193,5.925635,050617,,*24
$GPGGA,210011.00,3844.3676,N,00908.2484,W,1,00,0.0,132.714401,M,0.0,M,,*7E
$GPGLL,3844.3676,N,00908.2484,W,210011.00,A,*3D
$GPGSA,A,3,,,,,,,,,,,,,0.0,0.0,0.0*32
$GPRMC,210012.00,A,3844.3682,N,00908.2477,W,3.386943,39.465502,050617,,*1D
$GPGGA,210012.00,3844.3682,N,00908.2477,W,1,00,0.0,132.824295,M,0.0,M,,*7D
$GPGLL,3844.3682,N,00908.2477,W,210012.00,A,*39
$GPGSA,A,3,,,,,,,,,,,,,0.0,0.0,0.0*32
$GPRMC,210013.00,A,3844.3692,N,00908.2468,W,3.747558,37.019066,050617,,*1A
$GPGGA,210013.00,3844.3692,N,00908.2468,W,1,00,0.0,132.664810,M,0.0,M,,*7E
$GPGLL,3844.3692,N,00908.2468,W,210013.00,A,*37
$GPGSA,A,3,,,,,,,,,,,,,0.0,0.0,0.0*32
$GPRMC,210014.00,A,3844.3701,N,00908.2467,W,2.921793,4.329556,050617,,*25
$GPGGA,210014.00,3844.3701,N,00908.2467,W,1,00,0.0,132.293594,M,0.0,M,,*70
$GPGLL,3844.3701,N,00908.2467,W,210014.00,A,*34
$GPGSA,A,3,,,,,,,,,,,,,0.0,0.0,0.0*32
$GPRMC,210015.00,A,3844.3709,N,00908.2463,W,3.064177,18.950556,050617,,*14
$GPGGA,210015.00,3844.3709,N,00908.2463,W,1,00,0.0,131.909195,M,0.0,M,,*73
$GPGLL,3844.3709,N,00908.2463,W,210015.00,A,*39
$GPGSA,A,3,,,,,,,,,,,,,0.0,0.0,0.0*32
$GPRMC,210016.00,A,3844.3713,N,00908.2457,W,3.194172,46.299425,050617,,*10
$GPGGA,210016.00,3844.3713,N,00908.2457,W,1,00,0.0,132.833908,M,0.0,M,,*7B
$GPGLL,3844.3713,N,00908.2457,W,210016.00,A,*36
$GPGSA,A,3,,,,,,,,,,,,,0.0,0.0,0.0*32
$GPRMC,210017.00,A,3844.3720,N,00908.2453,W,2.851641,31.077712,050617,,*16
$GPGGA,210017.00,3844.3720,N,00908.2453,W,1,00,0.0,132.384644,M,0.0,M,,*7E
$GPGLL,3844.3720,N,00908.2453,W,210017.00,A,*33
$GPGSA,A,3,,,,,,,,,,,,,0.0,0.0,0.0*32
$GPRMC,210018.00,A,3844.3728,N,00908.2443,W,2.270017,42.247777,050617,,*1A
$GPGGA,210018.00,3844.3728,N,00908.2443,W,1,00,0.0,132.056763,M,0.0,M,,*70
$GPGLL,3844.3728,N,00908.2443,W,210018.00,A,*35
$GPGSA,A,3,,,,,,,,,,,,,0.0,0.0,0.0*32
$GPRMC,210019.00,A,3844.3733,N,00908.2441,W,2.613897,21.415979,050617,,*16
$GPGGA,210019.00,3844.3733,N,00908.2441,W,1,00,0.0,131.633209,M,0.0,M,,*76
$GPGLL,3844.3733,N,00908.2441,W,210019.00,A,*3C
$GPGSA,A,3,,,,,,,,,,,,,0.0,0.0,0.0*32
$GPRMC,210020.00,A,3844.3742,N,00908.2436,W,3.001221,19.253140,050617,,*14
$GPGGA,210020.00,3844.3742,N,00908.2436,W,1,00,0.0,131.367416,M,0.0,M,,*76
$GPGLL,3844.3742,N,00908.2436,W,210020.00,A,*30
$GPGSA,A,3,,,,,,,,,,,,,0.0,0.0,0.0*32
$GPRMC,210021.00,A,3844.3753,N,00908.2440,W,3.307717,345.206819,050617,,*2E
$GPGGA,210021.00,3844.3753,N,00908.2440,W,1,00,0.0,131.414734,M,0.0,M,,*76
$GPGLL,3844.3753,N,00908.2440,W,210021.00,A,*30
$GPGSA,A,3,,,,,,,,,,,,,0.0,0.0,0.0*32
$GPRMC,210022.00,A,3844.3761,N,00908.2437,W,2.121364,16.677343,050617,,*18
$GPGGA,210022.00,3844.3761,N,00908.2437,W,1,00,0.0,131.514801,M,0.0,M,,*7C
$GPGLL,3844.3761,N,00908.2437,W,210022.00,A,*32
$GPGSA,A,3,,,,,,,,,,,,,0.0,0.0,0.0*32
$GPRMC,210023.00,A,3844.3767,N,00908.2434,W,2.361778,21.927463,050617,,*18
$GPGGA,210023.00,3844.3767,N,00908.2434,W,1,00,0.0,131.074966,M,0.0,M,,*7B
$GPGLL,3844.3767,N,00908.2434,W,210023.00,A,*36
$GPGSA,A,3,,,,,,,,,,,,,0.0,0.0,0.0*32
$GPRMC,210024.00,A,3844.3773,N,00908.2432,W,2.333662,18.653358,050617,,*18
$GPGGA,210024.00,3844.3773,N,00908.2432,W,1,00,0.0,131.012558,M,0.0,M,,*7E
$GPGLL,3844.3773,N,00908.2432,W,210024.00,A,*32
$GPGSA,A,3,,,,,,,,,,,,,0.0,0.0,0.0*32
$GPRMC,210025.00,A,3844.3778,N,00908.2424,W,2.807995,45.502512,050617,,*19
$GPGGA,210025.00,3844.3778,N,00908.2424,W,1,00,0.0,131.409317,M,0.0,M,,*70
$GPGLL,3844.3778,N,00908.2424,W,210025.00,A,*3F
$GPGSA,A,3,,,,,,,,,,,,,0.0,0.0,0.0*32
$GPRMC,210026.00,A,3844.3788,N,00908.2418,W,2.450265,28.146402,050617,,*1F
$GPGGA,210026.00,3844.3788,N,00908.2418,W,1,00,0.0,130.659866,M,0.0,M,,*78
$GPGLL,3844.3788,N,00908.2418,W,210026.00,A,*3C
$GPGSA,A,3,,,,,,,,,,,,,0.0,0.0,0.0*32
$GPRMC,210027.00,A,3844.3792,N,00908.2414,W,2.027638,35.253996,050617,,*1A
$GPGGA,210027.00,3844.3792,N,00908.2414,W,1,00,0.0,129.710739,M,0.0,M,,*7F
$GPGLL,3844.3792,N,00908.2414,W,210027.00,A,*3A
$GPGSA,A,3,,,,,,,,,,,,,0.0,0.0,0.0*32
$GPRMC,210028.00,A,3844.3801,N,00908.2410,W,1.848938,18.266323,050617,,*14
$GPGGA,210028.00,3844.3801,N,00908.2410,W,1,00,0.0,129.254471,M,0.0,M,,*7B
$GPGLL,3844.3801,N,00908.2410,W,210028.00,A,*34
$GPGSA,A,3,,,,,,,,,,,,,0.0,0.0,0.0*32
$GPRMC,210029.00,A,3844.3806,N,00908.2403,W,1.758396,47.518099,050617,,*16
$GPGGA,210029.00,3844.3806,N,00908.2403,W,1,00,0.0,129.920868,M,0.0,M,,*73
$GPGLL,3844.3806,N,00908.2403,W,210029.00,A,*30
$GPGSA,A,3,,,,,,,,,,,,,0.0,0.0,0.0*32
$GPRMC,210030.00,A,3844.3814,N,00908.2405,W,2.335504,350.944632,050617,,*2D
$GPGGA,210030.00,3844.3814,N,00908.2405,W,1,00,0.0,129.488312,M,0.0,M,,*77
$GPGLL,3844.3814,N,00908.2405,W,210030.00,A,*3D
$GPGSA,A,3,,,,,,,,,,,,,0.0,0.0,0.0*32
$GPRMC,210031.00,A,3844.3819,N,00908.2404,W,2.161072,8.280074,050617,,*2E
$GPGGA,210031.00,3844.3819,N,00908.2404,W,1,00,0.0,129.638412,M,0.0,M,,*74
$GPGLL,3844.3819,N,00908.2404,W,210031.00,A,*30
$GPGSA,A,3,,,,,,,,,,,,,0.0,0.0,0.0*32
$GPRMC,210032.00,A,3844.3824,N,00908.2400,W,2.390061,26.550729,050617,,*10
$GPGGA,210032.00,3844.3824,N,00908.2400,W,1,00,0.0,128.973907,M,0.0,M,,*75
$GPGLL,3844.3824,N,00908.2400,W,210032.00,A,*39
$GPGSA,A,3,,,,,,,,,,,,,0.0,0.0,0.0*32
$GPRMC,210033.00,A,3844.3827,N,00908.2393,W,2.265686,63.891813,050617,,*1C
$GPGGA,210033.00,3844.3827,N,00908.2393,W,1,00,0.0,128.674896,M,0.0,M,,*7B
$GPGLL,3844.3827,N,00908.2393,W,210033.00,A,*36
$GPGSA,A,3,,,,,,,,,,,,,0.0,0.0,0.0*32
$GPRMC,210034.00,A,3844.3830,N,00908.2387,W,2.563889,50.842412,050617,,*1B
$GPGGA,210034.00,3844.3830,N,00908.2387,W,1,00,0.0,128.464462,M,0.0,M,,*7B
$GPGLL,3844.3830,N,00908.2387,W,210034.00,A,*32
$GPGSA,A,3,,,,,,,,,,,,,0.0,0.0,0.0*32
$GPRMC,210035.00,A,3844.3841,N,00908.2378,W,2.535270,35.706297,050617,,*14
$GPGGA,210035.00,3844.3841,N,00908.2378,W,1,00,0.0,128.026367,M,0.0,M,,*7C
$GPGLL,3844.3841,N,00908.2378,W,210035.00,A,*35
$GPGSA,A,3,,,,,,,,,,,,,0.0,0.0,0.0*32
$GPRMC,210036.00,A,3844.3846,N,00908.2372,W,2.597724,40.744925,050617,,*10
$GPGGA,210036.00,3844.3846,N,00908.2372,W,1,00,0.0,128.101959,M,0.0,M,,*71
$GPGLL,3844.3846,N,00908.2372,W,210036.00,A,*3B
$GPGSA,A,3,,,,,,,,,,,,,0.0,0.0,0.0*32
$GPRMC,210037.00,A,3844.3853,N,00908.2367,W,2.469073,28.420361,050617,,*11
$GPGGA,210037.00,3844.3853,N,00908.2367,W,1,00,0.0,127.726494,M,0.0,M,,*70
$GPGLL,3844.3853,N,00908.2367,W,210037.00,A,*3A
$GPGSA,A,3,,,,,,,,,,,,,0.0,0.0,0.0*32
$GPRMC,210038.00,A,3844.3862,N,00908.2365,W,3.155265,14.128554,050617,,*12
$GPGGA,210038.00,3844.3862,N,00908.2365,W,1,00,0.0,127.218430,M,0.0,M,,*79
$GPGLL,3844.3862,N,00908.2365,W,210038.00,A,*35
$GPGSA,A,3,,,,,,,,,,,,,0.0,0.0,0.0*32
$GPRMC,210039.00,A,3844.3869,N,00908.2366,W,3.157184,349.887558,050617,,*2E
$GPGGA,210039.00,3844.3869,N,00908.2366,W,1,00,0.0,127.198357,M,0.0,M,,*7D
$GPGLL,3844.3869,N,00908.2366,W,210039.00,A,*3C
$GPGSA,A,3,,,,,,,,,,,,,0.0,0.0,0.0*32
$GPRMC,210040.00,A,3844.3877,N,00908.2369,W,2.652405,344.863603,050617,,*25
$GPGGA,210040.00,3844.3877,N,00908.2369,W,1,00,0.0,127.731873,M,0.0,M,,*7B
$GPGLL,3844.3877,N,00908.2369,W,210040.00,A,*32
$GPGSA,A,3,,,,,,,,,,,,,0.0,0.0,0.0*32
$GPRMC,210041.00,A,3844.3881,N,00908.2371,W,1.345485,340.982652,050617,,*22
$GPGGA,210041.00,3844.3881,N,00908.2371,W,1,00,0.0,127.384773,M,0.0,M,,*7F
$GPGLL,3844.3881,N,00908.2371,W,210041.00,A,*33
$GPGSA,A,3,,,,,,,,,,,,,0.0,0.0,0.0*32
$GPRMC,210042.00,A,3844.3890,N,00908.2374,W,1.817746,342.332697,050617,,*2E
$GPGGA,210042.00,3844.3890,N,00908.2374,W,1,00,0.0,127.347214,M,0.0,M,,*72
$GPGLL,3844.3890,N,00908.2374,W,210042.00,A,*35
$GPGSA,A,3,,,,,,,,,,,,,0.0,0.0,0.0*32
$GPRMC,210043.00,A,3844.3899,N,00908.2379,W,2.117738,338.958244,050617,,*29
$GPGGA,210043.00,3844.3899,N,00908.2379,W,1,00,0.0,127.972137,M,0.0,M,,*79
$GPGLL,3844.3899,N,00908.2379,W,210043.00,A,*30
$GPGSA,A,3,,,,,,,,,,,,,0.0,0.0,0.0*32
$GPRMC,210044.00,A,3844.3903,N,00908.2376,W,2.655995,20.889244,050617,,*1C
$GPGGA,210044.00,3844.3903,N,00908.2376,W,1,00,0.0,126.782845,M,0.0,M,,*7F
$GPGLL,3844.3903,N,00908.2376,W,210044.00,A,*3A
$GPGSA,A,3,,,,,,,,,,,,,0.0,0.0,0.0*32
$GPRMC,210045.00,A,3844.3910,N,00908.2376,W,2.096283,3.451391,050617,,*2B
$GPGGA,210045.00,3844.3910,N,00908.2376,W,1,00,0.0,126.541771,M,0.0,M,,*79
$GPGLL,3844.3910,N,00908.2376,W,210045.00,A,*39
$GPGSA,A,3,,,,,,,,,,,,,0.0,0.0,0.0*32
$GPRMC,210046.00,A,3844.3915,N,00908.2376,W,1.973196,357.831237,050617,,*2E
$GPGGA,210046.00,3844.3915,N,00908.2376,W,1,00,0.0,126.889595,M,0.0,M,,*7E
$GPGLL,3844.3915,N,00908.2376,W,210046.00,A,*3F
$GPGSA,A,3,,,,,,,,,,,,,0.0,0.0,0.0*32
$GPRMC,210047.00,A,3844.3926,N,00908.2378,W,3.082412,352.460199,050617,,*27
$GPGGA,210047.00,3844.3926,N,00908.2378,W,1,00,0.0,126.999290,M,0.0,M,,*73
$GPGLL,3844.3926,N,00908.2378,W,210047.00,A,*30
$GPGSA,A,3,,,,,,,,,,,,,0.0,0.0,0.0*32
$GPRMC,210048.00,A,3844.3935,N,00908.2381,W,2.728846,345.583301,050617,,*2E
$GPGGA,210048.00,3844.3935,N,00908.2381,W,1,00,0.0,126.976669,M,0.0,M,,*7B
$GPGLL,3844.3935,N,00908.2381,W,210048.00,A,*3B
$GPGSA,A,3,,,,,,,,,,,,,0.0,0.0,0.0*32
$GPRMC,210049.00,A,3844.3945,N,00908.2386,W,2.828270,339.453677,050617,,*2C
$GPGGA,210049.00,3844.3945,N,00908.2386,W,1,00,0.0,126.909050,M,0.0,M,,*7E
$GPGLL,3844.3945,N,00908.2386,W,210049.00,A,*3A
$GPGSA,A,3,,,,,,,,,,,,,0.0,0.0,0.0*32
$GPRMC,210050.00,A,3844.3953,N,00908.2389,W,2.599582,342.406218,050617,,*20
$GPGGA,210050.00,3844.3953,N,00908.2389,W,1,00,0.0,126.508820,M,0.0,M,,*7C
$GPGLL,3844.3953,N,00908.2389,W,210050.00,A,*3A
$GPGSA,A,3,,,,,,,,,,,,,0.0,0.0,0.0*32
$GPRMC,210051.00,A,3844.3954,N,00908.2395,W,3.073361,282.653871,050617,,*2A
$GPGGA,210051.00,3844.3954,N,00908.2395,W,1,00,0.0,125.663200,M,0.0,M,,*72
$GPGLL,3844.3954,N,00908.2395,W,210051.00,A,*31
$GPGSA,A,3,,,,,,,,,,,,,0.0,0.0,0.0*32
$GPRMC,210052.00,A,3844.3962,N,00908.2398,W,3.019593,342.915073,050617,,*2C
$GPGGA,210052.00,3844.3962,N,00908.2398,W,1,00,0.0,125.148056,M,0.0,M,,*76
$GPGLL,3844.3962,N,00908.2398,W,210052.00,A,*3A
$GPGSA,A,3,,,,,,,,,,,,,0.0,0.0,0.0*32
